time,acceleration,pressure,altitude,height,speed,temperature,accel_x,accel_y,accel_z,gyro_roll,gyro_pitch,gyro_yaw,mag_x,mag_y,mag_z,tilt,pyro,latitude,longitude,altitude
-0.3,-0.53,83843,1568.95,0.97,0,27.7,10.06,-0.5,0.13,-0.26,-0.17,0.03,0.45,0.13,-0.18,2.16,4.14,40.8857704,-104.637338,1674
-0.29,-0.53,83853,1567.98,0,0,27.7,9.95,-0.45,0.08,-0.01,-0.17,0.03,0.45,0.13,-0.19,2.16,4.14,40.8857704,-104.637338,1674
-0.28,-0.53,83854,1567.88,-0.1,0,27.7,9.78,-0.47,0.06,-0.13,-0.1,-0.1,0.45,0.13,-0.19,2.16,4.14,40.8857704,-104.637338,1674
-0.27,0,83854,1567.88,-0.1,0,27.7,9.71,-0.36,-0.03,0.05,-0.1,-0.16,0.45,0.13,-0.19,2.16,4.14,40.8857704,-104.637338,1674
-0.26,0,83861,1567.21,-0.78,0,27.7,9.62,-0.34,0.06,-0.07,-0.04,-0.28,0.45,0.13,-0.19,2.16,4.14,40.8857704,-104.637338,1674
-0.25,0,83857,1567.59,-0.39,0,27.7,9.73,-0.35,-0.01,-0.07,-0.17,-0.28,0.45,0.13,-0.19,2.16,4.14,40.8857704,-104.637338,1674
-0.24,0,83854,1567.88,-0.1,0,27.7,9.68,-0.33,0.11,0.23,-0.04,-0.28,0.45,0.13,-0.19,2.16,4.14,40.8857704,-104.637338,1674
-0.23,0,83853,1567.98,0,0,27.7,10.01,-0.53,0.29,0.23,-0.04,-0.22,0.45,0.13,-0.19,2.16,4.14,40.8857704,-104.637338,1674
-0.22,0,83860,1567.3,-0.68,0,27.7,9.92,-0.49,0.19,0.05,-0.17,-0.1,0.45,0.13,-0.19,2.16,4.14,40.8857704,-104.637338,1674
-0.21,0,83860,1567.3,-0.68,0,27.7,9.99,-0.47,0.22,-0.01,-0.04,-0.04,0.45,0.13,-0.19,2.16,4.14,40.8857704,-104.637338,1674
-0.2,-0.53,83854,1567.88,-0.1,0,27.7,9.84,-0.45,0.3,-0.01,0.02,0.15,0.45,0.13,-0.19,2.16,4.14,40.8857704,-104.637338,1674
-0.19,-0.53,83850,1568.27,0.29,0,27.7,9.79,-0.25,0.03,-0.13,0.08,0.15,0.45,0.13,-0.19,2.16,4.14,40.8857704,-104.637338,1674
-0.18,0,83861,1567.21,-0.78,0,27.7,9.7,-0.2,0.03,-0.07,0.26,0.33,0.45,0.13,-0.19,2.16,4.14,40.8857704,-104.637338,1674
-0.17,0,83857,1567.59,-0.39,0,27.7,9.72,-0.22,0.04,-0.2,0.2,0.33,0.45,0.13,-0.19,2.16,4.14,40.8857704,-104.637338,1674
-0.16,0,83848,1568.47,0.49,0,27.7,9.83,-0.24,0.01,-0.44,0.2,0.27,0.45,0.13,-0.19,2.16,4.14,40.8857704,-104.637338,1674
-0.15,0,83844,1568.85,0.87,0,27.7,9.86,-0.27,0.09,-0.2,0.2,0.15,0.45,0.13,-0.19,2.16,4.14,40.8857704,-104.637338,1674
-0.14,0,83858,1567.5,-0.49,0,27.7,9.93,-0.34,0.11,0.29,0.14,-0.1,0.45,0.13,-0.19,2.16,4.14,40.8857704,-104.637338,1674
-0.13,-0.53,83864,1566.91,-1.07,0,27.7,9.86,-0.31,0.05,0.84,0.14,-0.28,0.45,0.13,-0.19,2.16,4.14,40.8857704,-104.637338,1674
-0.12,-0.53,83848,1568.47,0.49,0,27.7,9.67,-0.19,-0.11,0.96,0.02,-0.46,0.45,0.13,-0.19,2.16,4.14,40.8857704,-104.637338,1674
-0.11,-0.53,83846,1568.66,0.68,0,27.7,9.83,-0.3,0.04,0.11,0.08,-0.52,0.45,0.13,-0.19,2.16,4.14,40.8857704,-104.637338,1674
-0.1,0,83850,1568.27,0.29,0,27.7,9.73,-0.34,-0.21,0.11,0.08,-0.71,0.45,0.13,-0.19,2.16,4.14,40.8857704,-104.637338,1674
-0.09,0,83862,1567.11,-0.87,0.01,27.7,9.74,-0.34,-0.06,0.66,0.08,-0.65,0.45,0.13,-0.19,2.16,4.14,40.8857704,-104.637338,1674
-0.08,0,83840,1569.24,1.26,0.07,27.7,9.91,-0.45,0.1,1.09,-0.04,-0.4,0.45,0.13,-0.19,2.16,4.14,40.8857704,-104.637338,1674
-0.07,0,83847,1568.56,0.58,0.25,27.7,9.97,-0.61,-0.08,0.41,0.02,-0.22,0.45,0.13,-0.19,2.16,4.14,40.8857704,-104.637338,1674
-0.06,5.83,83846,1568.66,0.68,0.61,27.7,10.16,-0.61,0.14,-0.26,0.02,-0.04,0.45,0.13,-0.19,2.16,4.14,40.8857704,-104.637338,1674
-0.05,113.44,83862,1567.11,-0.87,1.2,27.7,10.83,-0.37,-0.47,-1.72,0.14,0.15,0.45,0.13,-0.19,2.16,4.14,40.8857704,-104.637338,1674
-0.04,119.27,84012,1552.57,-15.42,2.05,27.7,115.53,4.13,-2.05,-0.38,-0.29,0.7,0.45,0.13,-0.19,2.16,4.14,40.8857704,-104.637338,1674
-0.03,122.98,83872,1566.14,-1.84,3.09,27.7,125.5,-3.44,-1.07,16.71,-4.8,-4.67,0.45,0.13,-0.19,2.16,4.14,40.8857704,-104.637338,1674
-0.02,130.4,83892,1564.2,-3.78,4.28,27.7,132.71,8.34,-4.61,36.98,-2.55,-1.99,0.45,0.13,-0.19,2.16,4.14,40.8857704,-104.637338,1674
-0.01,128.81,83878,1565.56,-2.43,5.55,27.7,139.36,-3.78,-1.92,50.28,-4.25,-1.32,0.45,0.13,-0.19,2.16,4.14,40.8857704,-104.637338,1674
0,131.99,83842,1569.05,1.07,6.84,27.7,144.07,0.49,0.64,48.27,-5.66,-2.6,0.45,0.13,-0.19,2.16,4.14,40.8857704,-104.637338,1674
0,131.99,83842,1569.05,1.07,6.84,27.7,144.07,0.49,0.64,48.27,-5.66,-2.6,0.45,0.13,-0.19,2.16,4.14,40.8857704,-104.637338,1674
0,131.99,83842,1569.05,1.07,6.84,27.7,144.07,0.49,0.64,48.27,-5.66,-2.6,0.45,0.13,-0.19,2.16,4.14,40.8857704,-104.637338,1674
0,131.99,83842,1569.05,1.07,6.84,27.7,144.07,0.49,0.64,48.27,-5.66,-2.6,0.45,0.13,-0.19,2.16,4.14,40.8857704,-104.637338,1674
0,131.99,83842,1569.05,1.07,6.84,27.7,144.07,0.49,0.64,48.27,-5.66,-2.6,0.45,0.13,-0.19,2.16,4.14,40.8857704,-104.637338,1674
0,131.99,83842,1569.05,1.07,6.84,27.7,144.07,0.49,0.64,48.27,-5.66,-2.6,0.45,0.13,-0.19,2.16,4.14,40.8857704,-104.637338,1674
0,131.99,83842,1569.05,1.07,6.84,27.7,144.07,0.49,0.64,48.27,-5.66,-2.6,0.45,0.13,-0.19,2.16,4.14,40.8857704,-104.637338,1674
0,131.99,83842,1569.05,1.07,6.84,27.7,144.07,0.49,0.64,48.27,-5.66,-2.6,0.45,0.13,-0.19,2.17,4.14,40.8857704,-104.637338,1674
0,131.99,83842,1569.05,1.07,6.84,27.7,144.07,0.49,0.64,48.27,-5.66,-2.6,0.45,0.13,-0.19,2.17,4.14,40.8857704,-104.637338,1674
0,131.99,83842,1569.05,1.07,6.84,27.7,144.07,0.49,0.64,48.27,-5.66,-2.6,0.45,0.13,-0.19,2.17,4.14,40.8857704,-104.637338,1674
0,131.99,83842,1569.05,1.07,6.84,27.7,144.07,0.49,0.64,48.27,-5.66,-2.6,0.45,0.13,-0.19,2.17,4.14,40.8857704,-104.637338,1674
0,131.99,83842,1569.05,1.07,6.84,27.7,144.07,0.49,0.64,48.27,-5.66,-2.6,0.45,0.13,-0.19,2.18,4.14,40.8857704,-104.637338,1674
0,131.99,83842,1569.05,1.07,6.84,27.7,144.07,0.49,0.64,48.27,-5.66,-2.6,0.45,0.13,-0.19,2.18,4.14,40.8857704,-104.637338,1674
0,131.99,83842,1569.05,1.07,6.84,27.7,144.07,0.49,0.64,48.27,-5.66,-2.6,0.45,0.13,-0.19,2.18,4.14,40.8857704,-104.637338,1674
0,131.99,83842,1569.05,1.07,6.84,27.7,144.07,0.49,0.64,48.27,-5.66,-2.6,0.45,0.13,-0.19,2.18,4.14,40.8857704,-104.637338,1674
0,131.99,83842,1569.05,1.07,6.84,27.7,144.07,0.49,0.64,48.27,-5.66,-2.6,0.45,0.13,-0.19,2.18,4.14,40.8857704,-104.637338,1674
0,131.99,83842,1569.05,1.07,6.84,27.7,144.07,0.49,0.64,48.27,-5.66,-2.6,0.45,0.13,-0.19,2.17,4.14,40.8857704,-104.637338,1674
0,131.99,83842,1569.05,1.07,6.84,27.7,144.07,0.49,0.64,48.27,-5.66,-2.6,0.45,0.13,-0.19,2.17,4.14,40.8857704,-104.637338,1674
0,131.99,83842,1569.05,1.07,6.84,27.7,144.07,0.49,0.64,48.27,-5.66,-2.6,0.45,0.13,-0.19,2.17,4.14,40.8857704,-104.637338,1674
0,131.99,83842,1569.05,1.07,6.84,27.7,144.07,0.49,0.64,48.27,-5.66,-2.6,0.45,0.13,-0.19,2.16,4.14,40.8857704,-104.637338,1674
0,131.99,83842,1569.05,1.07,6.84,27.7,144.07,0.49,0.64,48.27,-5.66,-2.6,0.45,0.13,-0.19,2.16,4.14,40.8857704,-104.637338,1674
0,131.99,83842,1569.05,1.07,6.84,27.7,144.07,0.49,0.64,48.27,-5.66,-2.6,0.45,0.13,-0.19,2.17,4.14,40.8857704,-104.637338,1674
0,131.99,83842,1569.05,1.07,6.84,27.7,144.07,0.49,0.64,48.27,-5.66,-2.6,0.45,0.13,-0.19,2.17,4.14,40.8857704,-104.637338,1674
0,131.99,83842,1569.05,1.07,6.84,27.7,144.07,0.49,0.64,48.27,-5.66,-2.6,0.45,0.13,-0.19,2.18,4.14,40.8857704,-104.637338,1674
0,131.99,83842,1569.05,1.07,6.84,27.7,144.07,0.49,0.64,48.27,-5.66,-2.6,0.45,0.13,-0.19,2.18,4.14,40.8857704,-104.637338,1674
0,131.99,83842,1569.05,1.07,6.84,27.7,144.07,0.49,0.64,48.27,-5.66,-2.6,0.45,0.13,-0.19,2.19,4.14,40.8857704,-104.637338,1674
0,131.99,83842,1569.05,1.07,6.84,27.7,144.07,0.49,0.64,48.27,-5.66,-2.6,0.45,0.13,-0.19,2.19,4.14,40.8857704,-104.637338,1674
0,131.99,83842,1569.05,1.07,6.84,27.7,144.07,0.49,0.64,48.27,-5.66,-2.6,0.45,0.13,-0.19,2.2,4.14,40.8857704,-104.637338,1674
0,131.99,83842,1569.05,1.07,6.84,27.7,144.07,0.49,0.64,48.27,-5.66,-2.6,0.45,0.13,-0.19,2.2,4.14,40.8857704,-104.637338,1674
0,131.99,83842,1569.05,1.07,6.84,27.7,144.07,0.49,0.64,48.27,-5.66,-2.6,0.45,0.13,-0.19,2.2,4.14,40.8857704,-104.637338,1674
0,131.99,83842,1569.05,1.07,6.84,27.7,144.07,0.49,0.64,48.27,-5.66,-2.6,0.45,0.13,-0.19,2.19,4.14,40.8857704,-104.637338,1674
0,131.99,83842,1569.05,1.07,6.84,27.7,144.07,0.49,0.64,48.27,-5.66,-2.6,0.45,0.13,-0.19,2.24,4.14,40.8857704,-104.637338,1674
0,131.99,83842,1569.05,1.07,6.84,27.7,144.07,0.49,0.64,48.27,-5.66,-2.6,0.45,0.13,-0.19,2.26,4.14,40.8857704,-104.637338,1674
0,131.99,83842,1569.05,1.07,6.84,27.7,144.07,0.49,0.64,48.27,-5.66,-2.6,0.45,0.13,-0.19,2.28,4.14,40.8857704,-104.637338,1674
0,131.99,83842,1569.05,1.07,6.84,27.7,144.07,0.49,0.64,48.27,-5.66,-2.6,0.45,0.13,-0.19,2.32,4.14,40.8857704,-104.637338,1674
0.01,131.99,83831,1570.12,2.13,8.15,27.7,145.52,-1.39,-2.12,32.83,-4.13,1,0.45,0.13,-0.2,2.31,4.14,40.8857704,-104.637338,1674
0.01,131.99,83831,1570.12,2.13,8.15,27.7,145.52,-1.39,-2.12,32.83,-4.13,1,0.45,0.13,-0.2,2.31,4.14,40.8857704,-104.637338,1674
0.02,135.17,83830,1570.21,2.23,9.46,27.7,147.34,-0.02,0.87,26.6,-2.79,0.39,0.45,0.12,-0.17,2.32,4.12,40.8857704,-104.637338,1674
0.02,135.17,83830,1570.21,2.23,9.46,27.7,147.34,-0.02,0.87,26.6,-2.79,0.39,0.45,0.12,-0.17,2.32,4.12,40.8857704,-104.637338,1674
0.03,128.28,83826,1570.6,2.62,10.77,27.7,148.01,0.7,1.6,29.71,-1.32,-2.05,0.45,0.12,-0.19,2.34,4.12,40.8857704,-104.637338,1674
0.04,128.28,83852,1568.08,0.1,12.08,27.7,147.96,-1.81,1.4,51.62,-1.14,-2.78,0.45,0.12,-0.2,2.37,4.12,40.8857704,-104.637338,1674
0.05,133.05,83846,1568.66,0.68,13.39,27.7,148.81,-1.69,-2.1,74.88,-1.26,-3.51,0.45,0.12,-0.19,2.4,4.12,40.8857704,-104.637338,1674
0.06,132.52,83841,1569.15,1.16,14.71,27.7,147.47,-1.04,-0.43,90.44,-0.96,-3.88,0.45,0.11,-0.19,2.44,4.12,40.8857704,-104.637338,1674
0.07,132.52,83836,1569.63,1.65,16.02,27.7,146.96,-0.19,-0.78,80.56,-1.57,-3.94,0.45,0.11,-0.19,2.48,4.12,40.8857704,-104.637338,1674
0.08,130.93,83850,1568.27,0.29,17.33,27.7,146.55,-5.77,-1.74,45.64,-0.04,-5.59,0.45,0.11,-0.19,2.54,4.12,40.8857704,-104.637338,1674
0.09,130.4,83837,1569.53,1.55,18.64,27.7,143.96,8.13,-1.5,47.41,-0.04,-2.42,0.45,0.11,-0.19,2.56,4.12,40.8857704,-104.637338,1674
0.1,130.4,83815,1571.67,3.69,19.95,27.7,144.3,-3.25,-6.82,30.87,-2.55,-2.23,0.45,0.11,-0.19,2.59,4.12,40.8857704,-104.637338,1674
0.11,130.4,83826,1570.6,2.62,21.25,27.7,144.68,-0.66,6.74,23.3,-1.63,-1.62,0.45,0.11,-0.18,2.61,4.12,40.8857704,-104.637338,1674
0.12,129.34,83820,1571.18,3.2,22.55,27.7,142.76,-4.41,-2.43,12.32,-0.59,0.33,0.45,0.11,-0.19,2.6,4.12,40.8857704,-104.637338,1674
0.13,129.87,83821,1571.09,3.11,23.84,27.7,142.05,-0.62,-0.48,11.89,0.32,-1.74,0.45,0.1,-0.2,2.62,4.12,40.8857704,-104.637338,1674
0.14,129.87,83831,1570.12,2.13,25.14,27.7,143.18,-0.05,0.29,13.42,1.48,-0.89,0.45,0.1,-0.19,2.63,4.12,40.8857704,-104.637338,1674
0.15,128.81,83817,1571.47,3.49,26.43,27.7,142.19,-1.96,1.01,10.73,1.91,-1.07,0.45,0.1,-0.19,2.64,4.12,40.8857704,-104.637338,1674
0.16,128.28,83818,1571.38,3.4,27.72,27.7,141.95,-0.57,0.66,7.92,1.67,-3.39,0.45,0.1,-0.19,2.67,4.12,40.8857704,-104.637338,1674
0.17,129.34,83830,1570.21,2.23,29.02,27.7,141.37,-0.79,-0.32,6.33,1.91,-4.74,0.45,0.09,-0.19,2.72,4.12,40.8857704,-104.637338,1674
0.18,129.87,83812,1571.96,3.98,30.32,27.7,142.18,-0.71,0.04,5.18,2.4,-5.47,0.45,0.1,-0.19,2.77,4.12,40.8857704,-104.637338,1674
0.19,134.11,83822,1570.99,3.01,31.64,27.7,143.76,-0.82,-0.17,4.14,2.46,-6.38,0.45,0.1,-0.19,2.83,4.12,40.8857704,-104.637338,1674
0.2,134.64,83807,1572.45,4.46,32.95,27.7,145.61,-0.76,0.39,1.88,2.4,-7.97,0.45,0.1,-0.18,2.91,4.12,40.8857704,-104.637338,1674
0.21,130.93,83802,1572.93,4.95,34.27,27.7,144.38,-0.37,0.37,-1.36,2.4,-9.19,0.45,0.1,-0.19,3,4.12,40.8857704,-104.637338,1674
0.22,130.93,83826,1570.6,2.62,35.58,27.7,145.72,-0.94,0,-5.93,2.58,-9.74,0.45,0.1,-0.19,3.1,4.12,40.8857704,-104.637338,1674
0.23,129.87,83790,1574.1,6.11,36.89,27.7,143.75,-0.77,-0.08,-8.5,2.4,-11.14,0.45,0.1,-0.19,3.21,4.12,40.8857704,-104.637338,1674
0.24,129.87,83784,1574.68,6.7,38.2,27.7,143.73,-0.59,0.75,-12.28,2.22,-12.61,0.46,0.09,-0.19,3.33,4.12,40.8857704,-104.637338,1674
0.25,129.87,83790,1574.1,6.11,39.52,27.7,143.33,-0.61,0.28,-17.23,1.97,-13.65,0.45,0.09,-0.19,3.47,4.12,40.8857704,-104.637338,1674
0.26,135.7,83776,1575.46,7.47,40.84,27.7,135.59,-0.78,1.18,-21.93,1.73,-14.5,0.46,0.1,-0.19,3.61,4.12,40.8857704,-104.637338,1674
0.27,136.23,83785,1574.58,6.6,42.18,27.7,150.6,-0.37,0.09,-26.2,1.73,-15.84,0.46,0.09,-0.19,3.77,4.12,40.8857704,-104.637338,1674
0.28,136.23,83779,1575.16,7.18,43.51,27.7,150.77,-0.36,0.62,-27.6,1.24,-17.06,0.45,0.09,-0.19,3.94,4.12,40.8857704,-104.637338,1674
0.29,131.99,83793,1573.8,5.82,44.85,27.7,146.07,-0.57,0.49,-28.58,1.18,-17.86,0.46,0.1,-0.19,4.12,4.12,40.8857704,-104.637338,1674
0.3,133.05,83779,1575.16,7.18,46.19,27.7,145.6,-0.49,1.06,-28.94,1.06,-19.08,0.45,0.09,-0.18,4.31,4.12,40.8857704,-104.637338,1674
0.31,133.58,83776,1575.46,7.47,47.52,27.7,146.06,-0.52,0.6,-30.29,0.63,-20.18,0.46,0.09,-0.19,4.51,4.12,40.8857704,-104.637338,1674
0.32,133.05,83769,1576.13,8.15,48.85,27.7,147.33,-0.43,0.25,-30.65,0.45,-21.22,0.45,0.09,-0.18,4.73,4.12,40.8857704,-104.637338,1674
0.33,133.05,83765,1576.52,8.54,50.18,27.7,146.83,-0.49,0.43,-30.53,0.51,-22.01,0.45,0.09,-0.18,4.95,4.12,40.8857704,-104.637338,1674
0.34,135.17,83764,1576.62,8.64,51.52,27.7,148.57,-0.28,0.74,-30.9,0.38,-22.99,0.45,0.09,-0.19,5.18,4.12,40.8857704,-104.637338,1674
0.34,135.17,83764,1576.62,8.64,51.52,27.7,148.57,-0.28,0.74,-30.9,0.38,-22.99,0.45,0.09,-0.19,5.18,4.12,40.8857704,-104.637338,1674
0.35,135.7,83760,1577.01,9.03,52.86,27.7,148.98,-0.43,0.53,-30.47,0.08,-23.78,0.45,0.08,-0.18,5.41,4.12,40.8857704,-104.637338,1674
0.36,135.7,83747,1578.27,10.29,54.19,27.7,149.93,-0.21,0.64,-29.43,-0.23,-24.88,0.45,0.08,-0.19,5.66,4.12,40.8857704,-104.637338,1674
0.37,134.64,83761,1576.91,8.93,55.52,27.7,145.5,-0.09,1.1,-28.7,-1.2,-25.73,0.45,0.09,-0.18,5.92,4.12,40.8857704,-104.637338,1674
0.38,129.87,83774,1575.65,7.67,56.83,27.7,151.39,-0.19,0.49,-28.09,-2.06,-26.95,0.45,0.08,-0.19,6.19,4.12,40.8857704,-104.637338,1674
0.39,129.87,83762,1576.81,8.83,58.13,27.7,143.67,0.17,0.94,-27.66,-2.48,-27.62,0.45,0.08,-0.19,6.47,4.12,40.8857704,-104.637338,1674
0.4,128.28,83744,1578.56,10.58,59.42,27.7,141.45,-0.17,0.75,-28.58,-3.34,-28.36,0.45,0.08,-0.19,6.75,4.12,40.8857704,-104.637338,1674
0.41,128.28,83754,1577.59,9.61,60.71,27.7,142.38,0.39,1.29,-30.41,-4.32,-29.33,0.45,0.08,-0.2,7.05,4.12,40.8857704,-104.637338,1674
0.42,128.81,83728,1580.12,12.14,61.99,27.7,141.42,-0.07,0.73,-32.24,-4.99,-29.88,0.45,0.07,-0.19,7.35,4.12,40.8857704,-104.637338,1674
0.43,129.34,83735,1579.44,11.46,63.26,27.7,142.15,0.34,1.51,-34.19,-5.54,-30.61,0.45,0.08,-0.19,7.66,4.12,40.8857704,-104.637338,1674
0.44,129.34,83726,1580.31,12.33,64.54,27.7,142.04,0.65,0.58,-37.06,-6.33,-31.1,0.45,0.08,-0.19,7.97,4.12,40.8857704,-104.637338,1674
0.45,129.34,83729,1580.02,12.04,65.82,27.7,142.62,0.65,0.61,-39.87,-7.12,-31.77,0.45,0.08,-0.18,8.3,4.12,40.8857704,-104.637338,1674
0.46,129.87,83739,1579.05,11.07,67.1,27.7,143.27,0.9,0.93,-43.29,-7.79,-32.32,0.45,0.07,-0.2,8.63,4.12,40.8857704,-104.637338,1674
0.47,129.87,83746,1578.37,10.39,68.39,27.7,143.38,0.76,1.47,-47.19,-8.53,-32.93,0.45,0.07,-0.2,8.96,4.12,40.8857704,-104.637338,1674
0.48,130.4,83725,1580.41,12.43,69.67,27.7,143.48,0.98,1.03,-53.24,-9.38,-33.48,0.44,0.07,-0.19,9.31,4.12,40.8857704,-104.637338,1674
0.49,130.4,83741,1578.85,10.87,70.95,27.7,144.05,1.43,1.11,-59.4,-9.99,-33.42,0.45,0.07,-0.2,9.66,4.12,40.8857704,-104.637338,1674
0.5,130.4,83721,1580.8,12.82,72.23,27.7,144.04,1.25,0.8,-63.92,-10.54,-33.18,0.45,0.07,-0.2,10,4.12,40.8857704,-104.637338,1674
0.51,130.93,83728,1580.12,12.14,73.52,27.7,144.27,1.55,0.88,-68.5,-11.46,-33.36,0.44,0.07,-0.19,10.35,4.12,40.8857704,-104.637338,1674
0.52,129.87,83717,1581.19,13.2,74.79,27.7,143.96,1.91,0.57,-75.03,-12.19,-33.67,0.44,0.07,-0.2,10.7,4.12,40.8857704,-104.637338,1674
0.53,129.87,83738,1579.15,11.16,76.07,27.7,143.67,2.29,0.68,-82.84,-13.1,-33.42,0.44,0.07,-0.2,11.06,4.12,40.8857704,-104.637338,1674
0.54,129.87,83724,1580.51,12.52,77.34,27.7,143.47,3.35,0.37,-91.57,-14.14,-32.93,0.44,0.07,-0.2,11.41,4.12,40.8857704,-104.637338,1674
0.55,129.87,83742,1578.76,10.78,78.62,27.7,143.13,2,0.14,-102.43,-15.49,-33.54,0.44,0.07,-0.2,11.78,4.12,40.8857704,-104.637338,1674
0.56,129.87,83734,1579.53,11.55,79.89,27.7,143.26,3.55,0,-114.82,-16.71,-35.01,0.44,0.08,-0.21,12.16,4.12,40.8857704,-104.637338,1674
0.57,130.4,83734,1579.53,11.55,81.16,27.7,143.48,3.53,0.89,-127.34,-17.62,-34.95,0.44,0.07,-0.22,12.55,4.12,40.8857704,-104.637338,1674
0.58,130.4,83735,1579.44,11.46,82.43,27.7,143.84,3.7,0.39,-142.29,-18.6,-34.95,0.44,0.07,-0.21,12.94,4.12,40.8857704,-104.637338,1674
0.59,131.46,83746,1578.37,10.39,83.7,27.7,143.87,4.75,-0.65,-153.52,-20,-35.38,0.44,0.08,-0.23,13.34,4.12,40.8857704,-104.637338,1674
0.6,130.93,83747,1578.27,10.29,84.96,27.7,144.86,4.73,-0.67,-166.7,-21.16,-34.83,0.44,0.08,-0.22,13.74,4.12,40.8857704,-104.637338,1674
0.61,130.93,83752,1577.79,9.8,86.23,27.7,144.79,4.84,-0.13,-186.11,-22.75,-34.52,0.43,0.09,-0.23,14.15,4.12,40.8857704,-104.637338,1674
0.62,130.93,83758,1577.2,9.22,87.5,27.7,144.75,5.01,-0.13,-195.39,-24.15,-33.61,0.43,0.1,-0.23,14.56,4.12,40.8857704,-104.637338,1674
0.63,130.4,83758,1577.2,9.22,88.76,27.7,144.45,5.11,-1.36,-197.96,-25.01,-31.77,0.43,0.1,-0.23,14.96,4.12,40.8857704,-104.637338,1674
0.64,130.93,83761,1576.91,8.93,90.02,27.7,143.71,5.28,-0.95,-193.68,-25.07,-30.74,0.43,0.11,-0.23,15.35,4.12,40.8857936,-104.6373311,1679
0.64,130.93,83761,1576.91,8.93,90.02,27.7,143.71,5.28,-0.95,-193.68,-25.07,-30.74,0.43,0.11,-0.23,15.35,4.12,40.8857936,-104.6373311,1679
0.64,130.93,83761,1576.91,8.93,90.02,27.7,143.71,5.28,-0.95,-193.68,-25.07,-30.74,0.43,0.11,-0.23,15.35,4.12,40.8857936,-104.6373311,1679
0.65,130.93,83760,1577.01,9.03,91.28,27.7,143.86,6.36,-1.64,-189.29,-25.5,-29.39,0.43,0.11,-0.23,15.74,4.12,40.8857936,-104.6373311,1679
0.66,130.93,83759,1577.11,9.12,92.53,27.7,144.59,5.48,-2.26,-186.79,-25.74,-27.07,0.43,0.12,-0.23,16.11,4.13,40.8857936,-104.6373311,1679
0.66,130.93,83759,1577.11,9.12,92.53,27.7,144.59,5.48,-2.26,-186.79,-25.74,-27.07,0.43,0.12,-0.23,16.11,4.13,40.8857936,-104.6373311,1679
0.67,130.93,83754,1577.59,9.61,93.79,27.7,144.59,5.85,-1.98,-175.49,-24.64,-26.16,0.42,0.13,-0.24,16.46,4.13,40.8857936,-104.6373311,1679
0.68,131.46,83750,1577.98,10,95.04,27.7,144.62,6.97,-1.87,-162.13,-23.91,-24.08,0.42,0.13,-0.26,16.8,4.13,40.8857936,-104.6373311,1679
0.69,131.46,83743,1578.66,10.68,96.29,27.7,145.13,5.34,-3.55,-149.98,-23.3,-21.83,0.42,0.13,-0.25,17.12,4.13,40.8857936,-104.6373311,1679
0.7,132.52,83725,1580.41,12.43,97.54,27.7,145.52,6.69,-3.39,-139.24,-21.59,-21.15,0.42,0.14,-0.25,17.42,4.13,40.8857936,-104.6373311,1679
0.71,130.93,83716,1581.28,13.3,98.8,27.7,146.22,6.88,-4.5,-130.63,-20.25,-18.41,0.42,0.14,-0.25,17.7,4.13,40.8857936,-104.6373311,1679
0.72,131.46,83717,1581.19,13.2,100.05,27.7,144.93,5.56,-3.76,-123.55,-17.99,-16.33,0.42,0.14,-0.25,17.94,4.13,40.8857936,-104.6373311,1679
0.73,131.99,83704,1582.45,14.47,101.3,27.7,144.66,6.58,-4.03,-114.52,-15.3,-16.03,0.42,0.16,-0.25,18.16,4.13,40.8857936,-104.6373311,1679
0.74,133.58,83693,1583.52,15.54,102.55,27.7,145.17,6.79,-4.48,-104.81,-12.98,-13.65,0.42,0.16,-0.25,18.35,4.13,40.8857936,-104.6373311,1679
0.75,132.52,83685,1584.3,16.31,103.8,27.7,147.96,5.58,-5.51,-96.21,-10.11,-12.12,0.42,0.16,-0.26,18.5,4.13,40.8857936,-104.6373311,1679
0.76,132.52,83677,1585.07,17.09,105.05,27.7,145.9,6.88,-4.82,-86.44,-8.47,-11.82,0.41,0.17,-0.25,18.64,4.13,40.8857936,-104.6373311,1679
0.77,132.52,83669,1585.85,17.87,106.3,27.7,145.99,6.62,-6.44,-79.3,-5.84,-10.11,0.41,0.17,-0.26,18.75,4.13,40.8857936,-104.6373311,1679
0.78,131.99,83675,1585.27,17.29,107.55,27.7,145.45,5.5,-4.74,-71.37,-2.42,-8.7,0.41,0.17,-0.25,18.83,4.13,40.8857936,-104.6373311,1679
0.79,131.99,83664,1586.34,18.36,108.8,27.7,145.87,7.81,-6.15,-64.04,0.14,-8.46,0.42,0.17,-0.26,18.88,4.13,40.8857936,-104.6373311,1679
0.8,131.99,83660,1586.73,18.74,110.04,27.7,145.48,6.34,-5.88,-55.19,3.68,-6.44,0.42,0.17,-0.25,18.89,4.13,40.8857936,-104.6373311,1679
0.81,132.52,83651,1587.6,19.62,111.29,27.7,145.43,6.13,-5.67,-47.87,7.28,-5.96,0.41,0.18,-0.25,18.87,4.13,40.8857936,-104.6373311,1679
0.82,131.99,83651,1587.6,19.62,112.54,27.7,146.32,7.23,-4.96,-48.29,9.66,-4.8,0.42,0.17,-0.26,18.82,4.13,40.8857936,-104.6373311,1679
0.83,132.52,83638,1588.86,20.88,113.79,27.7,145.72,6.8,-5.63,-48.42,12.77,-3.45,0.42,0.18,-0.25,18.74,4.13,40.8857936,-104.6373311,1679
0.84,133.05,83638,1588.86,20.88,115.04,27.7,145.95,7.01,-5.53,-50.31,15.77,-2.72,0.42,0.18,-0.25,18.63,4.13,40.8857936,-104.6373311,1679
0.85,133.58,83626,1590.03,22.05,116.29,27.7,146.43,7.24,-5.6,-56.96,17.66,-1.74,0.42,0.19,-0.24,18.5,4.13,40.8857936,-104.6373311,1679
0.86,133.05,83622,1590.42,22.44,117.55,27.7,146.48,6.24,-6.17,-67.76,20.28,-0.77,0.42,0.19,-0.25,18.34,4.13,40.8857936,-104.6373311,1679
0.87,132.52,83622,1590.42,22.44,118.81,27.7,146.87,7.1,-4.92,-79.3,23.27,-1.07,0.42,0.19,-0.25,18.16,4.13,40.8857936,-104.6373311,1679
0.88,132.52,83616,1591,23.02,120.06,27.7,145.73,7.4,-3.91,-90.29,25.17,-0.34,0.42,0.2,-0.24,17.96,4.13,40.8857936,-104.6373311,1679
0.89,132.52,83615,1591.1,23.12,121.32,27.7,146.31,6.51,-4.39,-101.76,27,0.51,0.42,0.2,-0.24,17.74,4.13,40.8857936,-104.6373311,1679
0.9,132.52,83608,1591.78,23.8,122.58,27.7,146.48,7.26,-4.72,-113.85,29.13,0.15,0.42,0.2,-0.24,17.5,4.13,40.8857936,-104.6373311,1679
0.91,132.52,83589,1593.63,25.65,123.85,27.7,146.73,6.82,-4.3,-125.81,30.9,1.12,0.43,0.2,-0.24,17.24,4.13,40.8857936,-104.6373311,1679
0.92,133.58,83599,1592.66,24.68,125.11,27.7,146.49,6.12,-3.86,-135.7,32.55,0.82,0.42,0.22,-0.23,16.96,4.13,40.8857936,-104.6373311,1679
0.93,133.05,83594,1593.14,25.16,126.38,27.7,147.58,6.97,-3.18,-146.44,34.02,0.64,0.43,0.22,-0.22,16.67,4.13,40.8857936,-104.6373311,1679
0.94,133.58,83582,1594.31,26.33,127.65,27.7,147.06,6.92,-3.32,-159.32,35.48,1.19,0.43,0.22,-0.21,16.37,4.13,40.8857936,-104.6373311,1679
0.95,132.52,83569,1595.58,27.59,128.93,27.7,147.23,6.2,-3.35,-173.11,36.82,0.39,0.43,0.23,-0.21,16.05,4.13,40.8857936,-104.6373311,1679
0.96,133.05,83582,1594.31,26.33,130.2,27.7,146.34,7.25,-2.15,-187.4,37.68,0.33,0.43,0.25,-0.2,15.72,4.13,40.8857936,-104.6373311,1679
0.97,132.52,83572,1595.28,27.3,131.48,27.7,146.48,6.22,-2.26,-204.18,38.29,0.45,0.43,0.25,-0.19,15.39,4.13,40.8857936,-104.6373311,1679
0.98,132.52,83575,1594.99,27.01,132.75,27.7,146.38,6.74,-2.41,-221.82,38.65,-0.83,0.43,0.26,-0.18,15.05,4.13,40.8857936,-104.6373311,1679
0.98,132.52,83575,1594.99,27.01,132.75,27.7,146.38,6.74,-2.41,-221.82,38.65,-0.83,0.43,0.26,-0.18,15.05,4.13,40.8857936,-104.6373311,1679
0.99,132.52,83556,1596.84,28.86,134.03,27.7,146.27,7.07,-1.76,-239.95,39.33,-1.26,0.43,0.27,-0.18,14.7,4.13,40.8857936,-104.6373311,1679
1,133.05,83555,1596.94,28.96,135.32,27.7,146.07,6.39,-1.47,-256.8,39.57,-1.99,0.43,0.27,-0.17,14.35,4.13,40.8857936,-104.6373311,1679
1.01,133.58,83552,1597.23,29.25,136.61,27.7,147.03,6.6,-1.45,-273.76,39.81,-3.45,0.44,0.27,-0.17,13.99,4.13,40.8857936,-104.6373311,1679
1.02,133.58,83536,1598.79,30.81,137.9,27.7,146.76,7.28,-0.71,-292.56,39.81,-4.12,0.44,0.28,-0.16,13.64,4.13,40.8857936,-104.6373311,1679
1.03,133.58,83542,1598.2,30.22,139.19,27.7,147.12,6.23,-0.49,-310.87,39.2,-5.16,0.44,0.3,-0.15,13.28,4.13,40.8857936,-104.6373311,1679
1.04,133.58,83528,1599.57,31.58,140.49,27.7,148,7.56,-1.37,-329.98,38.9,-7.42,0.44,0.3,-0.14,12.93,4.13,40.8857936,-104.6373311,1679
1.05,134.11,83530,1599.37,31.39,141.8,27.7,146.68,7.95,-0.18,-350.06,38.29,-7.85,0.44,0.31,-0.12,12.57,4.13,40.8857936,-104.6373311,1679
1.06,134.11,83516,1600.73,32.75,143.11,27.7,147.5,7.09,-0.14,-369.84,36.95,-8.89,0.44,0.32,-0.11,12.23,4.13,40.8857936,-104.6373311,1679
1.07,135.17,83527,1599.66,31.68,144.42,27.7,147.61,8.4,-0.49,-389,35.79,-10.66,0.44,0.33,-0.09,11.88,4.13,40.8857936,-104.6373311,1679
1.08,134.64,83506,1601.71,33.73,145.74,27.7,148.2,8,0.37,-408.11,34.81,-10.59,0.44,0.33,-0.08,11.55,4.13,40.8857936,-104.6373311,1679
1.09,135.17,83491,1603.17,35.19,147.06,27.7,148.43,8.4,-0.04,-427.21,33.1,-12.06,0.44,0.34,-0.06,11.22,4.13,40.8857936,-104.6373311,1679
1.1,135.17,83486,1603.65,35.67,148.38,27.7,148.32,9.56,-0.58,-446.13,31.88,-13.28,0.44,0.34,-0.05,10.89,4.13,40.8857936,-104.6373311,1679
1.11,134.64,83495,1602.78,34.8,149.7,27.7,148.42,9.33,0.71,-464.08,30.96,-13.28,0.44,0.34,-0.01,10.57,4.13,40.8857936,-104.6373311,1679
1.12,134.11,83483,1603.95,35.97,151.02,27.7,148.41,9.82,0.1,-480.86,28.64,-14.01,0.44,0.33,0,10.26,4.13,40.8857936,-104.6373311,1679
1.13,134.11,83483,1603.95,35.97,152.34,27.7,147.8,10.14,-1.19,-497.65,27.48,-14.01,0.44,0.33,0.01,9.96,4.13,40.8857936,-104.6373311,1679
1.14,134.64,83502,1602.1,34.12,153.67,27.7,148.29,10.16,-0.45,-512.6,26.69,-13.83,0.44,0.34,0.05,9.66,4.13,40.8857936,-104.6373311,1679
1.15,135.17,83488,1603.46,35.48,154.99,27.7,148.25,10.74,-1.41,-525.18,24.98,-13.77,0.44,0.32,0.06,9.38,4.13,40.8857936,-104.6373311,1679
1.16,134.64,83495,1602.78,34.8,156.32,27.7,148.62,10.63,-1.78,-535.37,24.55,-13.4,0.44,0.32,0.09,9.1,4.13,40.8857936,-104.6373311,1679
1.17,134.11,83479,1604.34,36.35,157.65,27.7,148.51,11.38,-2.15,-542.39,24.37,-13.1,0.44,0.31,0.1,8.82,4.13,40.8857936,-104.6373311,1679
1.18,134.11,83473,1604.92,36.94,158.98,27.7,147.87,10.68,-2.78,-546.66,24.19,-12.61,0.44,0.3,0.12,8.56,4.13,40.8857936,-104.6373311,1679
1.19,137.29,83468,1605.41,37.43,160.32,27.7,147.65,10.71,-3.3,-548.98,24.62,-12.43,0.44,0.29,0.14,8.3,4.13,40.8857936,-104.6373311,1679
1.2,134.11,83453,1606.87,38.89,161.65,27.7,150.79,11.11,-4.46,-548.31,25.71,-12.24,0.44,0.28,0.15,8.05,4.13,40.8857936,-104.6373311,1679
1.21,134.11,83449,1607.26,39.28,162.98,27.7,148.69,10.86,-4.67,-546.29,26.87,-12.43,0.44,0.26,0.17,7.81,4.13,40.8857936,-104.6373311,1679
1.22,134.64,83432,1608.91,40.93,164.32,27.7,148.9,10.54,-3.66,-543.91,28.83,-12.36,0.44,0.24,0.17,7.58,4.13,40.8857936,-104.6373311,1679
1.23,134.64,83427,1609.4,41.42,165.65,27.7,148.09,10.02,-4.98,-541.17,29.93,-12.67,0.44,0.22,0.18,7.38,4.13,40.8857936,-104.6373311,1679
1.24,134.64,83418,1610.28,42.3,166.99,27.7,148.02,10.5,-4.92,-537.75,32.12,-13.59,0.44,0.2,0.2,7.2,4.13,40.8857936,-104.6373311,1679
1.25,134.64,83407,1611.35,43.37,168.32,27.7,147.61,10.51,-4.57,-533.96,34.2,-14.13,0.44,0.19,0.21,7.05,4.13,40.8857936,-104.6373311,1679
1.26,134.64,83383,1613.69,45.71,169.66,27.7,148.25,9.94,-5.44,-531.95,35.54,-14.81,0.44,0.16,0.21,6.95,4.13,40.8857936,-104.6373311,1679
1.27,135.17,83386,1613.4,45.42,171,27.7,148.12,9.89,-5.16,-530.85,37.56,-15.78,0.44,0.14,0.22,6.91,4.13,40.8857936,-104.6373311,1679
1.28,135.17,83387,1613.3,45.32,172.34,27.7,148.6,9.8,-5.17,-530.12,38.96,-17.13,0.44,0.13,0.21,6.92,4.13,40.8857936,-104.6373311,1679
1.29,135.7,83361,1615.83,47.85,173.68,27.7,148.42,9.6,-5.49,-529.69,40.18,-18.53,0.44,0.11,0.22,6.99,4.13,40.8857936,-104.6373311,1679
1.3,135.17,83365,1615.44,47.46,175.02,27.7,149.6,9.96,-5.37,-529.63,41.71,-20.18,0.44,0.09,0.22,7.12,4.12,40.8857936,-104.6373311,1679
1.3,135.17,83365,1615.44,47.46,175.02,27.7,149.6,9.96,-5.37,-529.63,41.71,-20.18,0.44,0.09,0.22,7.12,4.12,40.8857936,-104.6373311,1679
1.31,135.17,83351,1616.81,48.83,176.36,27.7,149.03,9.77,-4.76,-530.3,42.5,-21.95,0.44,0.06,0.22,7.32,4.12,40.8857936,-104.6373311,1679
1.32,135.17,83345,1617.39,49.41,177.7,27.7,148.16,10.07,-5.3,-532.56,43.17,-23.53,0.43,0.04,0.22,7.58,4.12,40.8857936,-104.6373311,1679
1.33,135.7,83352,1616.71,48.73,179.04,27.7,149.06,10.36,-3.75,-536.83,43.96,-24.94,0.43,0.02,0.21,7.9,4.12,40.8857936,-104.6373311,1679
1.34,134.64,83324,1619.44,51.46,180.37,27.7,149.35,10.31,-5,-542.2,43.42,-26.95,0.43,-0.01,0.2,8.26,4.12,40.8857936,-104.6373311,1679
1.35,134.64,83337,1618.17,50.19,181.7,27.7,148.44,11.32,-4.96,-548.43,43.72,-28.91,0.43,-0.03,0.18,8.66,4.12,40.8857936,-104.6373311,1679
1.36,134.11,83330,1618.86,50.87,183.03,27.7,148.25,11.38,-2.66,-555.51,43.42,-29.88,0.43,-0.04,0.19,9.11,4.12,40.8857936,-104.6373311,1679
1.37,134.11,83330,1618.86,50.87,184.36,27.7,148.28,11.94,-4.23,-563.75,42.87,-31.35,0.43,-0.07,0.16,9.58,4.12,40.8857936,-104.6373311,1679
1.38,134.11,83329,1618.95,50.97,185.68,27.7,147.65,12.54,-4.53,-572.36,42.38,-32.57,0.43,-0.08,0.14,10.08,4.12,40.8857936,-104.6373311,1679
1.39,134.64,83315,1620.32,52.34,187.01,27.7,148.55,12.96,-4.3,-581.27,41.77,-33.12,0.43,-0.09,0.13,10.59,4.12,40.8857936,-104.6373311,1679
1.4,137.29,83309,1620.9,52.92,188.34,27.7,147.99,13.61,-4.26,-589.45,40.67,-33.48,0.42,-0.11,0.1,11.11,4.12,40.8857936,-104.6373311,1679
1.41,137.29,83318,1620.03,52.05,189.68,27.7,148.23,14.47,-4.6,-598.05,39.75,-33.67,0.42,-0.12,0.07,11.63,4.12,40.8857936,-104.6373311,1679
1.42,136.76,83314,1620.42,52.44,191.01,27.7,150.36,15.16,-4.58,-605.38,38.84,-33.36,0.42,-0.12,0.06,12.14,4.12,40.8857936,-104.6373311,1679
1.43,136.76,83299,1621.88,53.9,192.34,27.7,151.51,14.82,-5.11,-610.87,38.96,-32.32,0.42,-0.13,0.03,12.64,4.12,40.8857936,-104.6373311,1679
1.44,136.76,83288,1622.95,54.97,193.67,27.7,150.92,15.04,-6.49,-614.35,40.24,-32.2,0.42,-0.13,0.03,13.14,4.12,40.8857936,-104.6373311,1679
1.45,134.64,83305,1621.29,53.31,194.98,27.7,149.13,16.28,-6.87,-618.13,39.94,-30.98,0.42,-0.14,-0.02,13.62,4.12,40.8857936,-104.6373311,1679
1.46,134.64,83300,1621.78,53.8,196.29,27.7,149.58,15.59,-6.15,-618.62,40.85,-29.82,0.42,-0.14,-0.05,14.06,4.12,40.8857936,-104.6373311,1679
1.47,135.7,83262,1625.49,57.51,197.6,27.7,149.43,16,-7.35,-616.55,42.19,-29.82,0.41,-0.13,-0.07,14.49,4.12,40.8857936,-104.6373311,1679
1.48,133.58,83274,1624.32,56.34,198.89,27.7,151.66,15.49,-7.63,-617.1,44.03,-28.6,0.41,-0.12,-0.1,14.89,4.12,40.8857936,-104.6373311,1679
1.49,133.58,83267,1625,57.02,200.18,27.7,148.79,15.79,-7.25,-617.89,45.55,-28.42,0.41,-0.11,-0.12,15.26,4.12,40.8857936,-104.6373311,1679
1.5,131.99,83269,1624.81,56.83,201.46,27.7,146.1,16.27,-8.14,-618.68,47.14,-27.99,0.41,-0.09,-0.14,15.59,4.12,40.8857936,-104.6373311,1679
1.51,133.05,83242,1627.44,59.46,202.74,27.7,145.48,16.4,-7.36,-621.06,49.09,-28.05,0.41,-0.08,-0.17,15.89,4.12,40.8857936,-104.6373311,1679
1.52,132.52,83251,1626.56,58.58,204.02,27.7,145.99,15.78,-7.78,-623.81,50.43,-27.87,0.41,-0.07,-0.18,16.14,4.12,40.8857936,-104.6373311,1679
1.53,133.58,83252,1626.47,58.48,205.29,27.7,145.82,16.86,-8.08,-626.68,52.57,-28.91,0.41,-0.04,-0.2,16.37,4.12,40.8857936,-104.6373311,1679
1.54,133.58,83267,1625,57.02,206.56,27.7,147.74,16.69,-7.82,-630.16,54.59,-28.72,0.41,-0.02,-0.2,16.54,4.12,40.8857936,-104.6373311,1679
1.55,131.99,83236,1628.03,60.05,207.83,27.7,146.18,16.47,-7.54,-636.14,55.62,-29.52,0.42,0.01,-0.22,16.68,4.12,40.8857936,-104.6373311,1679
1.56,133.05,83241,1627.54,59.56,209.1,27.7,145.41,17.42,-7.45,-644.56,56.78,-30.25,0.42,0.02,-0.23,16.77,4.12,40.8857936,-104.6373311,1679
1.57,133.05,83238,1627.83,59.85,210.36,27.7,146.57,17.42,-6.83,-654.27,58,-30.55,0.42,0.05,-0.24,16.82,4.12,40.8857936,-104.6373311,1679
1.58,131.46,83259,1625.78,57.8,211.63,27.7,146.02,17.63,-6.34,-665.5,57.94,-31.84,0.42,0.08,-0.25,16.82,4.12,40.8857936,-104.6373311,1679
1.59,131.99,83237,1627.93,59.95,212.89,27.7,145.06,18.22,-6.62,-678.01,58.25,-31.96,0.42,0.11,-0.25,16.78,4.12,40.8857936,-104.6373311,1679
1.6,131.46,83241,1627.54,59.56,214.15,27.7,145.17,18.45,-5.82,-690.34,58.55,-33.18,0.42,0.13,-0.25,16.68,4.12,40.8857936,-104.6373311,1679
1.61,131.46,83256,1626.08,58.09,215.41,27.7,145.15,19.43,-5.96,-703.28,57.94,-33.42,0.43,0.17,-0.24,16.54,4.12,40.8857936,-104.6373311,1679
1.62,131.99,83252,1626.47,58.48,216.67,27.7,145.05,19.38,-6.23,-716.28,57.88,-33.18,0.43,0.2,-0.23,16.35,4.13,40.8857936,-104.6373311,1679
1.62,131.99,83252,1626.47,58.48,216.67,27.7,145.05,19.38,-6.23,-716.28,57.88,-33.18,0.43,0.2,-0.23,16.35,4.13,40.8857936,-104.6373311,1679
1.63,132.52,83244,1627.25,59.27,217.94,27.7,145.49,20.53,-5.86,-730.38,56.54,-33.3,0.43,0.23,-0.21,16.11,4.13,40.8857936,-104.6373311,1679
1.64,133.58,83255,1626.17,58.19,219.21,27.7,145.92,20.26,-7.86,-742.53,56.11,-33,0.43,0.25,-0.2,15.81,4.13,40.8860707,-104.636977,1723
1.64,133.58,83255,1626.17,58.19,219.21,27.7,145.92,20.26,-7.86,-742.53,56.11,-33,0.43,0.25,-0.2,15.81,4.13,40.8860707,-104.636977,1723
1.64,133.58,83255,1626.17,58.19,219.21,27.7,145.92,20.26,-7.86,-742.53,56.11,-33,0.43,0.25,-0.2,15.81,4.13,40.8860707,-104.636977,1723
1.65,133.58,83265,1625.2,57.22,220.49,27.7,146.55,20.63,-6.45,-753.76,56.11,-33.06,0.43,0.27,-0.17,15.47,4.13,40.8860707,-104.636977,1723
1.66,133.58,83244,1627.25,59.27,221.78,27.7,147.43,20.8,-7.27,-767.8,56.11,-32.57,0.43,0.29,-0.15,15.07,4.13,40.8860707,-104.636977,1723
1.67,135.17,83266,1625.1,57.12,223.07,27.7,149.87,20.03,-6.88,-775.98,56.48,-32.2,0.44,0.31,-0.14,14.61,4.13,40.8860707,-104.636977,1723
1.68,135.17,83263,1625.39,57.41,224.36,27.7,148.27,22.58,-7.13,-784.77,56.78,-32.26,0.44,0.32,-0.11,14.11,4.13,40.8860707,-104.636977,1723
1.69,131.99,83254,1626.27,58.29,225.65,27.7,145.74,20.94,-7.96,-792.76,57.7,-31.23,0.44,0.34,-0.07,13.55,4.13,40.8860707,-104.636977,1723
1.7,131.46,83260,1625.68,57.7,226.94,27.7,145.54,21.57,-8.97,-801.98,57.82,-31.59,0.44,0.33,-0.05,12.96,4.13,40.8860707,-104.636977,1723
1.71,130.93,83246,1627.05,59.07,228.24,27.7,145.16,21.78,-9.4,-807.78,59.35,-32.38,0.44,0.33,-0.01,12.32,4.13,40.8860707,-104.636977,1723
1.72,131.46,83259,1625.78,57.8,229.54,27.7,144.74,22.05,-7.57,-812.9,61.12,-33.06,0.44,0.34,0.02,11.63,4.13,40.8860707,-104.636977,1723
1.73,138.88,83262,1625.49,57.51,230.86,27.7,144.77,21.46,-8.81,-818.21,62.21,-33.24,0.44,0.33,0.07,10.93,4.13,40.8860707,-104.636977,1723
1.74,136.76,83275,1624.22,56.24,232.18,27.7,152.29,20.54,-7.35,-826.27,63.01,-34.34,0.44,0.32,0.1,10.21,4.13,40.8860707,-104.636977,1723
1.75,134.11,83268,1624.9,56.92,233.5,27.7,150.44,22.05,-8,-832.92,63.44,-34.7,0.44,0.3,0.13,9.51,4.13,40.8860707,-104.636977,1723
1.76,134.11,83265,1625.2,57.22,234.82,27.7,147.92,23.76,-9.4,-839.21,64.66,-35.68,0.44,0.28,0.16,8.83,4.13,40.8860707,-104.636977,1723
1.77,131.46,83294,1622.37,54.39,236.14,27.7,144.83,21.53,-6.89,-844.64,65.51,-35.31,0.44,0.25,0.19,8.22,4.13,40.8860707,-104.636977,1723
1.78,131.46,83299,1621.88,53.9,237.44,27.7,143.92,22.38,-7.88,-853.74,64.78,-37.02,0.44,0.22,0.2,7.68,4.13,40.8860707,-104.636977,1723
1.79,131.46,83308,1621,53.02,238.75,27.7,145.29,23.39,-8.04,-862.4,65.57,-37.88,0.44,0.18,0.2,7.27,4.13,40.8860707,-104.636977,1723
1.8,130.93,83313,1620.51,52.53,240.04,27.7,144.19,23.22,-8.1,-873.45,65.39,-37.33,0.44,0.16,0.21,7.03,4.13,40.8860707,-104.636977,1723
1.81,129.34,83312,1620.61,52.63,241.33,27.7,144.28,23.14,-9.94,-881.51,64.78,-38.18,0.44,0.11,0.22,6.97,4.13,40.8860707,-104.636977,1723
1.82,128.81,83297,1622.07,54.09,242.62,27.6,142.83,23.33,-7.66,-890.48,65.08,-38.85,0.44,0.08,0.22,7.1,4.13,40.8860707,-104.636977,1723
1.83,128.81,83322,1619.64,51.66,243.9,27.7,142.25,24.85,-8.79,-896.28,64.35,-39.83,0.43,0.05,0.22,7.4,4.13,40.8860707,-104.636977,1723
1.84,128.81,83342,1617.69,49.7,245.18,27.7,142.1,25.82,-10.34,-901.29,65.45,-40.01,0.43,0.01,0.2,7.87,4.13,40.8860707,-104.636977,1723
1.85,129.34,83346,1617.3,49.31,246.46,27.6,142.15,26.3,-10.24,-909.28,66.3,-40.38,0.43,-0.02,0.19,8.47,4.13,40.8860707,-104.636977,1723
1.86,129.87,83355,1616.42,48.44,247.73,27.6,142.83,25.29,-10.8,-916.97,66.37,-39.77,0.43,-0.05,0.17,9.16,4.13,40.8860707,-104.636977,1723
1.87,129.87,83367,1615.25,47.27,249.01,27.6,143.37,26.29,-11.14,-922.71,67.89,-40.26,0.43,-0.08,0.14,9.92,4.13,40.8860707,-104.636977,1723
1.88,130.4,83378,1614.18,46.19,250.29,27.7,143.78,26.46,-11.69,-927.78,69.72,-40.01,0.42,-0.1,0.11,10.72,4.13,40.8860707,-104.636977,1723
1.89,130.93,83383,1613.69,45.71,251.57,27.7,144.46,24.98,-10.09,-932.72,71.43,-39.89,0.42,-0.12,0.06,11.54,4.13,40.8860707,-104.636977,1723
1.9,130.93,83392,1612.81,44.83,252.83,27.6,144.31,25.46,-11.78,-939.31,72.1,-41.97,0.42,-0.13,0.03,12.35,4.13,40.8860707,-104.636977,1723
1.91,128.81,83401,1611.93,43.95,254.1,27.7,144.2,27.5,-10,-947.19,74.24,-41.11,0.42,-0.13,-0.01,13.13,4.13,40.8860707,-104.636977,1723
1.92,128.28,83419,1610.18,42.2,255.35,27.7,142.1,25.75,-9.71,-956.4,74.24,-42.09,0.42,-0.14,-0.06,13.88,4.13,40.8860707,-104.636977,1723
1.93,128.28,83431,1609.01,41.03,256.59,27.6,141.67,26.77,-11.43,-965.74,74.54,-44.47,0.42,-0.12,-0.09,14.58,4.13,40.8860707,-104.636977,1723
1.94,127.75,83438,1608.33,40.35,257.83,27.6,141.84,26.77,-9.96,-975.14,75.64,-45.32,0.42,-0.1,-0.12,15.22,4.15,40.8860707,-104.636977,1723
1.94,127.75,83438,1608.33,40.35,257.83,27.6,141.84,26.77,-9.96,-975.14,75.64,-45.32,0.42,-0.1,-0.12,15.22,4.15,40.8860707,-104.636977,1723
1.95,127.75,83459,1606.28,38.3,259.06,27.7,141.04,27.17,-10.66,-986.37,75.28,-46,0.41,-0.08,-0.15,15.78,4.15,40.8860707,-104.636977,1723
1.96,127.75,83481,1604.14,36.16,260.29,27.7,140.94,28.95,-11.05,-996.08,75.46,-47.09,0.42,-0.06,-0.18,16.27,4.15,40.8860707,-104.636977,1723
1.97,128.81,83491,1603.17,35.19,261.52,27.6,141.18,29.07,-10.41,-1009.75,75.58,-46.73,0.42,-0.02,-0.21,16.65,4.15,40.8860707,-104.636977,1723
1.98,128.81,83522,1600.15,32.17,262.75,27.6,142.15,28.41,-10.75,-1022.38,74.06,-48.19,0.42,0.02,-0.23,16.94,4.15,40.8860707,-104.636977,1723
1.99,129.87,83533,1599.08,31.1,263.98,27.6,143.43,29.15,-11.32,-1032.82,73.93,-48.38,0.42,0.06,-0.23,17.13,4.15,40.8860707,-104.636977,1723
2,129.34,83543,1598.11,30.12,265.21,27.6,142.48,28.88,-10.85,-1039.17,74.91,-47.09,0.42,0.09,-0.25,17.18,4.15,40.8860707,-104.636977,1723
2.01,129.34,83566,1595.87,27.89,266.44,27.6,142.68,29.46,-11.99,-1045.21,74.91,-48.74,0.42,0.14,-0.25,17.13,4.15,40.8860707,-104.636977,1723
2.02,128.28,83591,1593.44,25.45,267.66,27.6,142.76,31.9,-13.27,-1049.79,75.34,-50.21,0.42,0.19,-0.24,16.97,4.15,40.8860707,-104.636977,1723
2.03,127.75,83610,1591.59,23.61,268.89,27.6,141.73,32.96,-13.05,-1055.34,77.05,-49.48,0.43,0.22,-0.23,16.68,4.15,40.8860707,-104.636977,1723
2.04,127.75,83613,1591.3,23.31,270.11,27.6,141.32,31.21,-12.35,-1060.29,77.84,-47.64,0.43,0.25,-0.19,16.26,4.15,40.8860707,-104.636977,1723
2.05,127.75,83637,1588.96,20.98,271.34,27.6,141.03,31.75,-14.77,-1063.58,79.92,-48.32,0.43,0.29,-0.16,15.71,4.15,40.8860707,-104.636977,1723
2.06,127.75,83654,1587.31,19.33,272.58,27.7,141,31.77,-12.83,-1068.1,83.33,-46.67,0.43,0.32,-0.13,15.03,4.15,40.8860707,-104.636977,1723
2.07,127.75,83689,1583.91,15.93,273.82,27.6,141.09,30.5,-11.88,-1076.52,84.13,-45.75,0.43,0.33,-0.1,14.24,4.15,40.8860707,-104.636977,1723
2.08,130.4,83695,1583.32,15.34,275.06,27.6,141.34,31.59,-13.18,-1084.46,85.41,-47.89,0.44,0.34,-0.05,13.37,4.15,40.8860707,-104.636977,1723
2.09,130.4,83714,1581.48,13.5,276.32,27.6,143.31,30.76,-9.59,-1092.64,87.3,-49.41,0.44,0.34,0,12.42,4.15,40.8860707,-104.636977,1723
2.1,128.81,83746,1578.37,10.39,277.58,27.6,142.32,31.45,-11.59,-1103.32,86.87,-49.05,0.44,0.34,0.06,11.43,4.15,40.8860707,-104.636977,1723
2.11,127.75,83770,1576.04,8.06,278.84,27.6,141.11,32.7,-12.2,-1113.21,87.55,-50.82,0.44,0.31,0.09,10.42,4.15,40.8860707,-104.636977,1723
2.12,127.75,83799,1573.22,5.24,280.1,27.6,140.95,33.62,-11.22,-1123.22,87.85,-50.88,0.44,0.29,0.14,9.43,4.15,40.8860707,-104.636977,1723
2.13,127.75,83825,1570.7,2.72,281.36,27.6,140.82,31.67,-11.18,-1131.4,87.55,-50.21,0.44,0.26,0.17,8.54,4.15,40.8860707,-104.636977,1723
2.14,127.75,83839,1569.34,1.36,282.62,27.6,140.81,34.68,-11.98,-1137.38,87.18,-49.78,0.44,0.21,0.19,7.81,4.15,40.8860707,-104.636977,1723
2.15,128.28,83869,1566.43,-1.55,283.89,27.6,141.38,34.34,-11.85,-1140.06,87.06,-48.44,0.44,0.17,0.21,7.32,4.15,40.8860707,-104.636977,1723
2.16,127.22,83897,1563.71,-4.27,285.15,27.6,141.6,34.17,-11.78,-1137.8,88.34,-47.03,0.44,0.13,0.23,7.15,4.15,40.8860707,-104.636977,1723
2.17,126.69,83927,1560.8,-7.18,286.41,27.6,140.7,34.52,-10.97,-1135.61,89.99,-46.3,0.43,0.09,0.22,7.33,4.15,40.8860707,-104.636977,1723
2.18,128.28,83951,1558.48,-9.5,287.67,27.6,140.27,34.42,-10.25,-1135.91,90.96,-43.62,0.43,0.04,0.21,7.84,4.15,40.8860707,-104.636977,1723
2.19,127.22,83976,1556.05,-11.93,288.93,27.6,141.56,34.66,-11.18,-1134.39,92.18,-42.82,0.43,-0.01,0.2,8.6,4.15,40.8860707,-104.636977,1723
2.2,127.22,83995,1554.21,-13.77,290.18,27.6,140.62,34.66,-10.64,-1131.27,94.5,-40.01,0.43,-0.04,0.17,9.53,4.15,40.8860707,-104.636977,1723
2.21,126.69,84030,1550.82,-17.16,291.43,27.6,139.98,34.25,-8.41,-1128.47,96.52,-37.33,0.42,-0.08,0.14,10.55,4.15,40.8860707,-104.636977,1723
2.22,125.63,84043,1549.56,-18.42,292.66,27.6,139.55,34.73,-9.14,-1126.39,97.31,-36.72,0.42,-0.11,0.09,11.59,4.15,40.8860707,-104.636977,1723
2.23,125.63,84066,1547.34,-20.65,293.89,27.6,139.14,34.36,-6.86,-1123.46,98.65,-36.05,0.42,-0.13,0.06,12.61,4.15,40.8860707,-104.636977,1723
2.24,125.1,84107,1543.37,-24.62,295.11,27.6,139.04,35.72,-5.73,-1125.41,98.17,-32.75,0.42,-0.13,0.02,13.55,4.15,40.8860707,-104.636977,1723
2.25,125.1,84137,1540.46,-27.52,296.32,27.6,138.6,34.39,-6.16,-1126.94,97.19,-30.49,0.42,-0.14,-0.02,14.39,4.15,40.8860707,-104.636977,1723
2.26,124.04,84154,1538.82,-29.16,297.53,27.6,138.27,35.01,-3.76,-1127.55,96.76,-27.81,0.42,-0.13,-0.08,15.1,4.13,40.8860707,-104.636977,1723
2.26,124.04,84154,1538.82,-29.16,297.53,27.6,138.27,35.01,-3.76,-1127.55,96.76,-27.81,0.42,-0.13,-0.08,15.1,4.13,40.8860707,-104.636977,1723
2.27,124.04,84185,1535.82,-32.16,298.72,27.6,137.75,35.21,-3.4,-1128.4,95.24,-24.82,0.42,-0.1,-0.12,15.66,4.13,40.8860707,-104.636977,1723
2.28,124.04,84190,1535.34,-32.65,299.92,27.6,137.77,34.39,-2.59,-1129.44,94.32,-21.34,0.42,-0.08,-0.15,16.07,4.13,40.8860707,-104.636977,1723
2.29,124.57,84239,1530.6,-37.38,301.11,27.6,137.57,35.16,-1.62,-1130.85,93.4,-18.77,0.42,-0.04,-0.19,16.32,4.13,40.8860707,-104.636977,1723
2.3,125.63,84246,1529.92,-38.06,302.31,27.6,137.84,35.86,-2.35,-1134.87,91.57,-14.32,0.42,0,-0.2,16.4,4.13,40.8860707,-104.636977,1723
2.31,125.63,84285,1526.15,-41.83,303.5,27.6,139.42,33.97,-1.28,-1135.73,91.63,-10.17,0.42,0.04,-0.23,16.3,4.13,40.8860707,-104.636977,1723
2.32,124.57,84294,1525.28,-42.7,304.69,27.6,137.81,34.63,0.56,-1136.03,91.63,-6.57,0.43,0.09,-0.23,16.04,4.13,40.8860707,-104.636977,1723
2.33,122.45,84320,1522.77,-45.21,305.88,27.6,138.43,33.16,-0.21,-1134.08,91.63,-3.15,0.43,0.13,-0.23,15.62,4.13,40.8860707,-104.636977,1723
2.34,122.45,84354,1519.49,-48.49,307.06,27.6,136.32,32.39,2.95,-1135.24,90.23,0.82,0.44,0.18,-0.22,15.06,4.13,40.8860707,-104.636977,1723
2.35,121.39,84358,1519.1,-48.88,308.24,27.6,135.09,31.57,1.59,-1133.71,88.89,3.14,0.43,0.23,-0.2,14.4,4.13,40.8860707,-104.636977,1723
2.36,121.39,84371,1517.85,-50.14,309.41,27.6,134.78,30.13,4.92,-1132.8,87.73,5.58,0.44,0.26,-0.18,13.64,4.13,40.8860707,-104.636977,1723
2.37,120.33,84378,1517.17,-50.81,310.59,27.6,134.99,29.98,4.88,-1131.76,84.07,7.9,0.44,0.3,-0.14,12.84,4.13,40.8860707,-104.636977,1723
2.38,119.8,84393,1515.72,-52.26,311.76,27.6,134.11,29.51,5.94,-1132.49,81.14,8.88,0.44,0.33,-0.1,12.03,4.13,40.8860707,-104.636977,1723
2.39,119.8,84413,1513.79,-54.19,312.93,27.6,133.28,27.74,8.26,-1130.97,77.41,11.2,0.44,0.35,-0.06,11.25,4.13,40.8860707,-104.636977,1723
2.4,119.27,84432,1511.96,-56.02,314.1,27.6,133.13,28.52,7.87,-1131.94,73.02,12.23,0.44,0.35,-0.02,10.55,4.13,40.8860707,-104.636977,1723
2.41,118.74,84443,1510.9,-57.08,315.27,27.6,132.65,28.4,9.18,-1134.87,68.75,15.47,0.43,0.35,0.04,9.98,4.13,40.8860707,-104.636977,1723
2.42,118.74,84463,1508.97,-59.01,316.44,27.6,132.1,26.55,9.42,-1133.96,64.78,21.82,0.43,0.34,0.09,9.59,4.13,40.8860707,-104.636977,1723
2.43,118.21,84477,1507.62,-60.36,317.6,27.6,131.48,23.98,9.36,-1133.04,60.75,24.2,0.43,0.32,0.14,9.4,4.13,40.8860707,-104.636977,1723
2.44,118.21,84495,1505.88,-62.1,318.77,27.6,131.7,23.76,10.14,-1130.36,58.06,26.7,0.43,0.29,0.17,9.42,4.13,40.8860707,-104.636977,1723
2.45,118.21,84509,1504.53,-63.45,319.92,27.6,131.59,22.6,10.53,-1128.53,55.87,28.9,0.43,0.26,0.2,9.63,4.13,40.8860707,-104.636977,1723
2.46,115.03,84526,1502.89,-65.09,321.07,27.6,129.73,19.25,10.77,-1128.77,52.63,27.61,0.42,0.23,0.23,9.96,4.13,40.8860707,-104.636977,1723
2.47,115.03,84542,1501.35,-66.63,322.2,27.6,128.42,20.41,10.35,-1130.3,48.18,27.55,0.42,0.18,0.23,10.39,4.13,40.8860707,-104.636977,1723
2.48,115.03,84534,1502.12,-65.86,323.33,27.6,128.32,18.1,10.75,-1132.74,44.76,28.53,0.42,0.13,0.24,10.87,4.13,40.8860707,-104.636977,1723
2.49,112.38,84560,1499.61,-68.37,324.44,27.6,127.44,19.22,11.24,-1135.79,41.22,25.54,0.42,0.09,0.25,11.34,4.13,40.8860707,-104.636977,1723
2.5,111.32,84582,1497.49,-70.49,325.54,27.6,125.59,17.19,10.97,-1141.04,36.4,24.2,0.42,0.04,0.23,11.78,4.13,40.8860707,-104.636977,1723
2.51,111.32,84594,1496.34,-71.64,326.63,27.6,124.7,15.49,9.53,-1145.98,31.27,22.24,0.42,-0.01,0.21,12.15,4.13,40.8860707,-104.636977,1723
2.52,110.26,84606,1495.18,-72.8,327.71,27.6,124.42,17.07,8.25,-1148.97,28.28,20.72,0.42,-0.03,0.19,12.47,4.13,40.8860707,-104.636977,1723
2.53,110.26,84624,1493.45,-74.53,328.78,27.6,123.42,14.04,10.41,-1151.84,25.84,18.83,0.43,-0.07,0.15,12.73,4.13,40.8860707,-104.636977,1723
2.54,109.2,84642,1491.72,-76.27,329.85,27.6,122.2,13.13,7.39,-1153.86,22.36,15.29,0.43,-0.09,0.11,12.92,4.13,40.8860707,-104.636977,1723
2.55,107.61,84672,1488.83,-79.15,330.9,27.6,121.33,13.39,5.05,-1153.61,21.5,13.21,0.43,-0.11,0.06,13.08,4.13,40.8860707,-104.636977,1723
2.56,107.61,84689,1487.19,-80.79,331.95,27.6,120.42,13.72,6.83,-1153.19,21.08,10.04,0.43,-0.12,0.02,13.2,4.13,40.8860707,-104.636977,1723
2.57,106.55,84717,1484.5,-83.49,332.99,27.6,119.96,11.87,4.67,-1152.76,19.18,9.91,0.43,-0.1,-0.03,13.28,4.13,40.8860707,-104.636977,1723
2.58,106.02,84752,1481.13,-86.85,334.02,27.6,119.39,12.75,3.93,-1149.65,19.86,5.34,0.43,-0.1,-0.09,13.35,4.14,40.8860707,-104.636977,1723
2.58,106.02,84752,1481.13,-86.85,334.02,27.6,119.39,12.75,3.93,-1149.65,19.86,5.34,0.43,-0.1,-0.09,13.35,4.14,40.8860707,-104.636977,1723
2.59,106.02,84775,1478.92,-89.07,335.05,27.6,119.02,12.38,4.64,-1147.45,19.79,1.37,0.43,-0.07,-0.13,13.43,4.14,40.8860707,-104.636977,1723
2.6,103.9,84812,1475.36,-92.62,336.07,27.6,117.94,11.37,3.28,-1145.13,19.37,-0.83,0.43,-0.04,-0.17,13.49,4.14,40.8860707,-104.636977,1723
2.61,105.49,84781,1478.34,-89.64,337.09,27.6,116.66,12.66,2.81,-1143.18,19.73,-4.98,0.43,-0.01,-0.19,13.55,4.14,40.8860707,-104.636977,1723
2.62,104.96,84708,1485.36,-82.62,338.1,27.6,118.15,14.32,2.21,-1141.16,19.12,-5.41,0.43,0.03,-0.21,13.59,4.14,40.8860707,-104.636977,1723
2.63,102.84,84670,1489.02,-78.96,339.11,27.6,117.47,11.42,2.11,-1140,19.61,-6.32,0.43,0.09,-0.23,13.6,4.14,40.8860707,-104.636977,1723
2.64,102.84,84659,1490.08,-77.9,340.12,27.6,115.85,14.9,1.81,-1137.44,19.31,-10.05,0.43,0.14,-0.22,13.6,4.14,40.8864759,-104.6362829,1832
2.64,102.84,84659,1490.08,-77.9,340.12,27.6,115.85,14.9,1.81,-1137.44,19.31,-10.05,0.43,0.14,-0.22,13.6,4.14,40.8864759,-104.6362829,1832
2.64,102.84,84659,1490.08,-77.9,340.12,27.6,115.85,14.9,1.81,-1137.44,19.31,-10.05,0.43,0.14,-0.22,13.6,4.14,40.8864759,-104.6362829,1832
2.65,103.37,84697,1486.42,-81.56,341.12,27.6,116,13.1,0,-1133.41,20.04,-8.4,0.43,0.18,-0.22,13.54,4.14,40.8864759,-104.6362829,1832
2.66,104.96,84728,1483.44,-84.54,342.13,27.6,115.78,13.25,-0.49,-1130.17,22.05,-11.33,0.43,0.22,-0.21,13.46,4.14,40.8864759,-104.6362829,1832
2.67,104.96,84729,1483.34,-84.64,343.13,27.6,117.79,16.31,-0.76,-1125.9,23.58,-11.2,0.43,0.26,-0.19,13.31,4.14,40.8864759,-104.6362829,1832
2.68,101.25,84778,1478.63,-89.35,344.12,27.6,115.4,14.62,0.86,-1122.61,26.08,-10.47,0.43,0.3,-0.15,13.11,4.14,40.8864759,-104.6362829,1832
2.69,100.19,84822,1474.4,-93.58,345.11,27.6,113.69,15.79,-1.17,-1119.86,26.45,-10.53,0.43,0.32,-0.13,12.87,4.14,40.8864759,-104.6362829,1832
2.7,99.13,84827,1473.92,-94.07,346.09,27.6,113.06,17.42,-1,-1117.6,29.38,-8.64,0.43,0.34,-0.09,12.58,4.14,40.8864759,-104.6362829,1832
2.71,99.13,84869,1469.88,-98.1,347.07,27.6,112.12,15.83,2.86,-1114.73,32.25,-9.68,0.43,0.37,-0.03,12.24,4.14,40.8864759,-104.6362829,1832
2.72,100.72,84882,1468.63,-99.35,348.04,27.6,111.63,16.03,-1.18,-1113.33,31.64,-8.76,0.43,0.37,0.01,11.92,4.14,40.8864759,-104.6362829,1832
2.73,99.66,84882,1468.63,-99.35,349.02,27.6,113.41,17.61,1.26,-1111.01,34.38,-9.13,0.43,0.36,0.07,11.58,4.14,40.8864759,-104.6362829,1832
2.74,101.25,84915,1465.46,-102.52,350,27.6,112.6,18.88,3.31,-1109.97,33.59,-9.43,0.43,0.35,0.11,11.27,4.14,40.8864759,-104.6362829,1832
2.75,101.25,84915,1465.46,-102.52,350.98,27.6,114.26,17.97,-0.22,-1108.38,32.67,-5.41,0.43,0.33,0.14,11.05,4.14,40.8864759,-104.6362829,1832
2.76,98.6,84950,1462.1,-105.88,351.95,27.6,111.6,19.11,2.34,-1107.65,34.81,-3.45,0.43,0.3,0.18,10.9,4.14,40.8864759,-104.6362829,1832
2.77,98.07,84968,1460.37,-107.61,352.92,27.6,111.11,17.72,1.03,-1106.55,35.3,-1.5,0.43,0.26,0.21,10.84,4.14,40.8864759,-104.6362829,1832
2.78,98.07,84978,1459.41,-108.57,353.89,27.6,110.91,17.31,1.75,-1104.48,36.82,1.98,0.43,0.21,0.23,10.89,4.14,40.8864759,-104.6362829,1832
2.79,97.54,84960,1461.14,-106.84,354.84,27.6,110.37,18.78,4.55,-1102.71,36.82,2.89,0.42,0.18,0.24,11.03,4.14,40.8864759,-104.6362829,1832
2.8,97.01,84977,1459.51,-108.47,355.8,27.6,110.17,15.75,3.65,-1102.34,36.64,1.86,0.43,0.12,0.24,11.24,4.14,40.8864759,-104.6362829,1832
2.81,96.48,84988,1458.45,-109.53,356.74,27.6,109.77,17.99,4.75,-1100.45,34.63,-0.4,0.43,0.08,0.24,11.47,4.14,40.8864759,-104.6362829,1832
2.82,95.95,84998,1457.49,-110.49,357.69,27.6,109.6,17.48,4.64,-1101.49,33.71,4.79,0.43,0.04,0.23,11.78,4.14,40.8864759,-104.6362829,1832
2.83,95.95,85027,1454.71,-113.27,358.63,27.6,108.82,17.65,4.41,-1100.94,31.76,3.44,0.43,0,0.22,12.08,4.14,40.8864759,-104.6362829,1832
2.84,97.01,85020,1455.38,-112.6,359.57,27.6,108.81,17.33,1.94,-1099.17,31.02,5.46,0.43,-0.04,0.19,12.4,4.14,40.8864759,-104.6362829,1832
2.85,95.95,85024,1455,-112.98,360.5,27.6,110.08,14.86,7.02,-1096.54,30.23,6.19,0.43,-0.07,0.15,12.7,4.14,40.8864759,-104.6362829,1832
2.86,95.95,85020,1455.38,-112.6,361.43,27.6,108.68,15.64,3.46,-1095.02,26.75,4.3,0.43,-0.09,0.11,12.96,4.14,40.8864759,-104.6362829,1832
2.87,95.42,85013,1456.05,-111.93,362.36,27.6,108.4,15.93,4.23,-1092.76,27.55,3.63,0.43,-0.1,0.07,13.2,4.14,40.8864759,-104.6362829,1832
2.88,94.89,85026,1454.81,-113.18,363.29,27.6,107.72,13.14,6.49,-1091.9,24.8,2.59,0.43,-0.12,0.02,13.4,4.14,40.8864759,-104.6362829,1832
2.89,94.89,85048,1452.69,-115.29,364.21,27.6,107.46,12.79,1.25,-1090.07,22.11,1.31,0.43,-0.11,-0.03,13.56,4.14,40.8864759,-104.6362829,1832
2.9,94.36,85045,1452.98,-115,365.13,27.6,107.68,18.07,3.45,-1087.14,22.78,-0.34,0.43,-0.1,-0.07,13.71,4.15,40.8864759,-104.6362829,1832
2.9,94.36,85045,1452.98,-115,365.13,27.6,107.68,18.07,3.45,-1087.14,22.78,-0.34,0.43,-0.1,-0.07,13.71,4.15,40.8864759,-104.6362829,1832
2.91,94.36,85046,1452.89,-115.09,366.04,27.6,107,13.78,5.01,-1084.46,21.38,1.49,0.43,-0.09,-0.11,13.8,4.15,40.8864759,-104.6362829,1832
2.92,93.3,85059,1451.64,-116.34,366.95,27.6,107.01,12.27,1.77,-1081.65,19.92,0.21,0.43,-0.06,-0.15,13.86,4.15,40.8864759,-104.6362829,1832
2.93,93.83,85063,1451.26,-116.73,367.86,27.6,106.11,17.56,2.19,-1075.79,21.01,-2.72,0.43,-0.02,-0.18,13.92,4.15,40.8864759,-104.6362829,1832
2.94,93.83,85070,1450.58,-117.4,368.76,27.6,106.68,12.46,3.16,-1071.95,21.69,3.08,0.43,0.02,-0.21,13.88,4.15,40.8864759,-104.6362829,1832
2.95,92.77,85082,1449.43,-118.55,369.66,27.6,106.26,12,0.74,-1067.31,21.63,-2.72,0.43,0.06,-0.22,13.87,4.15,40.8864759,-104.6362829,1832
2.96,92.24,85093,1448.38,-119.6,370.56,27.6,105.89,16.19,1.3,-1062.36,23.94,-1.68,0.43,0.11,-0.22,13.8,4.15,40.8864759,-104.6362829,1832
2.97,92.24,85109,1446.85,-121.14,371.46,27.6,104.9,13.01,4.33,-1058.03,23.52,-4.12,0.43,0.15,-0.23,13.72,4.15,40.8864759,-104.6362829,1832
2.98,92.77,85111,1446.65,-121.33,372.36,27.6,104.96,13.63,-0.23,-1054.98,22.66,-3.7,0.43,0.19,-0.21,13.6,4.15,40.8864759,-104.6362829,1832
2.99,93.3,85142,1443.68,-124.3,373.26,27.6,104.89,15.55,2.36,-1051.5,24.01,-3.39,0.43,0.23,-0.21,13.44,4.15,40.8864759,-104.6362829,1832
3,93.3,85157,1442.24,-125.74,374.16,27.6,103.62,15.45,3.96,-1047.65,22.3,-6.51,0.43,0.27,-0.19,13.28,4.15,40.8864759,-104.6362829,1832
3.01,92.77,85168,1441.19,-126.79,375.06,27.6,106.65,15.58,1.8,-1046.07,21.44,-4.92,0.43,0.31,-0.15,13.09,4.15,40.8864759,-104.6362829,1832
3.02,91.71,85196,1438.51,-129.47,375.96,27.6,105.4,16.91,1.46,-1043.93,22.78,-3.7,0.43,0.33,-0.13,12.88,4.15,40.8864759,-104.6362829,1832
3.03,92.24,85189,1439.18,-128.8,376.85,27.6,104.07,13.92,3.51,-1042.22,22.3,-1.32,0.43,0.34,-0.09,12.65,4.15,40.8864759,-104.6362829,1832
3.04,92.77,85185,1439.56,-128.42,377.74,27.6,104.78,15.92,0.62,-1039.96,20.95,-2.17,0.43,0.37,-0.04,12.44,4.15,40.8864759,-104.6362829,1832
3.05,89.59,85182,1439.85,-128.13,378.63,27.6,105.51,13.7,2.74,-1038.86,23.09,-0.1,0.43,0.37,0,12.23,4.15,40.8864759,-104.6362829,1832
3.06,89.05,85202,1437.93,-130.05,379.51,27.6,102.04,15.01,1.5,-1036.3,22.54,-1.19,0.42,0.37,0.04,12.03,4.15,40.8864759,-104.6362829,1832
3.07,89.05,85204,1437.74,-130.24,380.38,27.6,101.62,12.88,0.2,-1034.53,23.88,-4.19,0.42,0.36,0.09,11.82,4.15,40.8864759,-104.6362829,1832
3.08,89.05,85241,1434.2,-133.78,381.25,27.6,101.01,18.59,2.38,-1032.7,25.53,-5.04,0.43,0.34,0.13,11.63,4.15,40.8864759,-104.6362829,1832
3.09,88.52,85245,1433.82,-134.17,382.12,27.6,100.79,16.06,-0.98,-1030.07,24.92,-2.54,0.42,0.32,0.17,11.5,4.15,40.8864759,-104.6362829,1832
3.1,87.99,85240,1434.29,-133.69,382.98,27.6,100.57,13.92,1.51,-1026.05,26.51,-3.64,0.43,0.28,0.18,11.41,4.15,40.8864759,-104.6362829,1832
3.11,87.99,85261,1432.28,-135.7,383.84,27.6,100.69,20.29,2.79,-1025.13,27.24,-4.92,0.43,0.24,0.22,11.35,4.15,40.8864759,-104.6362829,1832
3.12,87.46,85277,1430.75,-137.23,384.7,27.6,100.19,16.53,2.98,-1025.74,27.79,0.33,0.42,0.21,0.23,11.4,4.15,40.8864759,-104.6362829,1832
3.13,86.93,85294,1429.13,-138.86,385.55,27.6,99.46,18.9,4.72,-1024.7,25.84,0.21,0.43,0.16,0.23,11.49,4.15,40.8864759,-104.6362829,1832
3.14,86.93,85298,1428.74,-139.24,386.4,27.6,99.51,18.78,1.71,-1027.69,22.54,6.13,0.42,0.12,0.24,11.67,4.15,40.8864759,-104.6362829,1832
3.15,87.46,85295,1429.03,-138.95,387.25,27.6,99.21,16.75,9,-1030.01,23.94,9.97,0.42,0.09,0.24,11.9,4.15,40.8864759,-104.6362829,1832
3.16,86.4,85300,1428.55,-139.43,388.09,27.6,99.63,16.51,1.38,-1034.04,19.24,7.72,0.43,0.04,0.23,12.1,4.15,40.8864759,-104.6362829,1832
3.17,85.34,85319,1426.73,-141.25,388.94,27.6,98.76,11.31,2.63,-1035.02,22.05,9.24,0.43,0.01,0.21,12.34,4.15,40.8864759,-104.6362829,1832
3.18,85.34,85300,1428.55,-139.43,389.77,27.6,97.49,16.75,8.62,-1033.19,19.73,8.45,0.43,-0.03,0.2,12.56,4.15,40.8864759,-104.6362829,1832
3.19,85.34,85310,1427.59,-140.39,390.61,27.6,97.29,10.47,1.88,-1033.61,18.39,5.52,0.43,-0.06,0.16,12.74,4.15,40.8864759,-104.6362829,1832
3.2,87.46,85308,1427.79,-140.2,391.44,27.6,99.35,11.05,5.37,-1034.71,16.8,-0.83,0.43,-0.08,0.12,12.91,4.15,40.8864759,-104.6362829,1832
3.21,85.34,85327,1425.97,-142.01,392.28,27.5,99.14,19.85,0.26,-1035.81,12.9,-4.49,0.43,-0.11,0.08,13.05,4.15,40.8864759,-104.6362829,1832
3.22,85.34,85328,1425.87,-142.11,393.11,27.6,97.69,7.11,4.74,-1032.7,16.44,2.47,0.43,-0.11,0.02,13.19,4.13,40.8864759,-104.6362829,1832
3.22,85.34,85328,1425.87,-142.11,393.11,27.6,97.69,7.11,4.74,-1032.7,16.44,2.47,0.43,-0.11,0.02,13.19,4.13,40.8864759,-104.6362829,1832
3.23,85.87,85371,1421.76,-146.22,393.93,27.6,97.16,13.87,3.32,-1031.42,14.18,-4.25,0.43,-0.11,-0.01,13.33,4.13,40.8864759,-104.6362829,1832
3.24,84.28,85366,1422.24,-145.74,394.76,27.6,98.55,17.74,-1.55,-1029.1,14.06,-6.51,0.44,-0.11,-0.07,13.47,4.13,40.8864759,-104.6362829,1832
3.25,83.75,85365,1422.33,-145.65,395.57,27.6,96.77,10.29,5.82,-1026.11,16.56,-5.77,0.43,-0.09,-0.11,13.61,4.13,40.8864759,-104.6362829,1832
3.26,83.22,85365,1422.33,-145.65,396.39,27.5,95.63,15.52,-4.59,-1025.07,11.31,-7.73,0.43,-0.07,-0.13,13.73,4.13,40.8864759,-104.6362829,1832
3.27,83.22,85395,1419.46,-148.52,397.2,27.6,96,14.95,-4.44,-1018.23,17.72,-6.14,0.43,-0.04,-0.17,13.83,4.13,40.8864759,-104.6362829,1832
3.28,83.75,85389,1420.04,-147.94,398,27.6,95.57,18.06,4.14,-1015.42,19.73,-7.05,0.43,0,-0.19,13.92,4.13,40.8864759,-104.6362829,1832
3.29,83.75,85418,1417.27,-150.72,398.81,27.6,95.49,14.53,-5.51,-1014.45,18.63,-3.03,0.43,0.03,-0.22,13.94,4.13,40.8864759,-104.6362829,1832
3.3,83.75,85413,1417.74,-150.24,399.62,27.6,95.84,10.7,2.15,-1015.36,25.65,-2.54,0.43,0.07,-0.23,13.9,4.13,40.8864759,-104.6362829,1832
3.31,83.22,85431,1416.02,-151.96,400.43,27.6,95.66,19.31,-0.18,-1014.63,23.7,-10.11,0.43,0.11,-0.23,13.9,4.13,40.8864759,-104.6362829,1832
3.32,82.69,85432,1415.93,-152.05,401.23,27.5,94.59,14.2,-3.92,-1014.14,24.55,-4.31,0.43,0.15,-0.22,13.81,4.13,40.8864759,-104.6362829,1832
3.33,82.69,85470,1412.3,-155.69,402.03,27.6,94.86,14.71,3.99,-1014.39,23.03,-12.3,0.43,0.19,-0.22,13.75,4.13,40.8864759,-104.6362829,1832
3.34,82.16,85469,1412.39,-155.59,402.83,27.5,94.85,20.37,0.77,-1014.94,22.78,-10.72,0.43,0.24,-0.2,13.64,4.13,40.8864759,-104.6362829,1832
3.35,81.63,85486,1410.77,-157.21,403.62,27.6,94.28,15.81,4.43,-1018.29,25.47,-2.17,0.43,0.27,-0.18,13.44,4.13,40.8864759,-104.6362829,1832
3.36,81.63,85522,1407.33,-160.65,404.42,27.6,93.86,18.24,-3.83,-1019.58,20.95,-5.59,0.43,0.3,-0.16,13.26,4.13,40.8864759,-104.6362829,1832
3.37,81.63,85524,1407.14,-160.84,405.21,27.6,94.14,19.69,-0.6,-1017.93,24.74,-4.61,0.43,0.33,-0.12,13.03,4.13,40.8864759,-104.6362829,1832
3.38,81.1,85535,1406.09,-161.89,405.99,27.6,94.12,17.2,5.09,-1018.66,26.02,-0.52,0.43,0.35,-0.09,12.77,4.13,40.8864759,-104.6362829,1832
3.39,80.04,85546,1405.04,-162.94,406.78,27.6,93.1,15.65,-1.98,-1020,23.64,1.73,0.43,0.37,-0.05,12.53,4.13,40.8864759,-104.6362829,1832
3.4,80.04,85530,1406.57,-161.42,407.56,27.5,92.78,15.27,2.8,-1021.35,28.71,-1.44,0.43,0.37,0,12.26,4.13,40.8864759,-104.6362829,1832
3.41,80.04,85533,1406.28,-161.7,408.35,27.6,92.71,16.41,4.24,-1023.05,25.17,-4.86,0.43,0.37,0.05,12.02,4.13,40.8864759,-104.6362829,1832
3.42,81.1,85557,1403.99,-163.99,409.13,27.5,93.1,17.06,-0.38,-1024.4,21.93,-3.33,0.42,0.36,0.09,11.83,4.13,40.8864759,-104.6362829,1832
3.43,78.98,85575,1402.27,-165.71,409.9,27.6,91.92,21.43,1.18,-1025.8,21.26,-7.36,0.43,0.33,0.12,11.64,4.13,40.8864759,-104.6362829,1832
3.44,78.98,85576,1402.17,-165.81,410.68,27.5,91.19,14.54,1.46,-1026.17,21.01,1.8,0.43,0.31,0.16,11.56,4.13,40.8864759,-104.6362829,1832
3.45,78.98,85587,1401.12,-166.86,411.45,27.5,91.06,14.69,1.59,-1025.68,22.48,-4.25,0.43,0.29,0.19,11.46,4.13,40.8864759,-104.6362829,1832
3.46,77.92,85572,1402.56,-165.43,412.22,27.5,90.98,20.04,-0.73,-1025.92,23.09,-2.29,0.43,0.25,0.21,11.42,4.13,40.8864759,-104.6362829,1832
3.47,77.92,85591,1400.74,-167.24,412.98,27.5,90.59,13.13,6.21,-1026.66,22.6,-2.66,0.43,0.21,0.23,11.42,4.13,40.8864759,-104.6362829,1832
3.48,77.92,85578,1401.98,-166,413.75,27.5,90.01,18.44,2.63,-1028.12,16.5,-5.1,0.42,0.17,0.24,11.42,4.13,40.8864759,-104.6362829,1832
3.49,78.45,85601,1399.79,-168.19,414.51,27.5,90.17,15.1,-2.06,-1030.44,17.96,-1.01,0.43,0.13,0.24,11.5,4.13,40.8864759,-104.6362829,1832
3.5,78.45,85635,1396.54,-171.44,415.27,27.5,90.45,16.75,4.56,-1030.26,17.54,-4.12,0.43,0.09,0.24,11.58,4.13,40.8864759,-104.6362829,1832
3.51,76.86,85617,1398.26,-169.72,416.03,27.5,90.55,19.05,-6.9,-1030.13,14.97,-2.66,0.43,0.05,0.23,11.68,4.13,40.8864759,-104.6362829,1832
3.52,76.86,85631,1396.93,-171.06,416.78,27.5,89.46,12.47,1.36,-1027.27,21.32,-1.62,0.43,0.01,0.21,11.86,4.13,40.8864759,-104.6362829,1832
3.53,76.86,85666,1393.59,-174.39,417.53,27.5,88.56,15.76,0.93,-1027.69,19.98,-7.36,0.43,-0.02,0.19,12.03,4.13,40.8864759,-104.6362829,1832
3.54,76.33,85679,1392.35,-175.63,418.28,27.5,88.6,18.64,-4.73,-1024.28,19.49,-9.07,0.43,-0.07,0.16,12.21,4.12,40.8864759,-104.6362829,1832
3.54,76.33,85679,1392.35,-175.63,418.28,27.5,88.6,18.64,-4.73,-1024.28,19.49,-9.07,0.43,-0.07,0.16,12.21,4.12,40.8864759,-104.6362829,1832
3.55,76.33,85693,1391.01,-176.97,419.02,27.6,88.43,21.38,-1.47,-1025.31,22.17,-9.8,0.43,-0.09,0.12,12.44,4.12,40.8864759,-104.6362829,1832
3.56,75.8,85688,1391.49,-176.49,419.76,27.5,88.25,21.32,-5.21,-1027.75,25.59,-4,0.43,-0.1,0.09,12.7,4.12,40.8864759,-104.6362829,1832
3.57,75.8,85674,1392.82,-175.16,420.5,27.5,87.96,13.04,5.71,-1029.04,30.17,-2.9,0.43,-0.11,0.04,12.99,4.12,40.8864759,-104.6362829,1832
3.58,75.8,85704,1389.96,-178.02,421.23,27.5,87.47,20.5,-3.48,-1028.97,24.49,-9.98,0.43,-0.11,0,13.24,4.12,40.8864759,-104.6362829,1832
3.59,75.27,85692,1391.11,-176.87,421.97,27.5,87.66,17.59,-7.4,-1027.33,31.21,-6.2,0.43,-0.1,-0.06,13.51,4.12,40.8864759,-104.6362829,1832
3.6,75.27,85723,1388.15,-179.83,422.7,27.5,87.38,17.48,10.07,-1028.3,33.59,-10.35,0.43,-0.1,-0.08,13.79,4.12,40.8864759,-104.6362829,1832
