time,acceleration,pressure,altitude,height,speed,temperature,accel_x,accel_y,accel_z,gyro_roll,gyro_pitch,gyro_yaw,mag_x,mag_y,mag_z,tilt,latitude,longitude,altitude
-0.3,0,96945,371.15,0,0,20.4,9.9,0.59,-0.46,0.21,0.05,0.05,-0.62,-0.06,-0.17,4.83,37.1668777,-97.738422,382
-0.29,0,96958,370.03,-1.12,0,20.4,9.88,0.64,-0.51,0.15,0.05,-0.01,-0.62,-0.06,-0.17,4.83,37.1668777,-97.738422,382
-0.28,0,96949,370.81,-0.35,0,20.4,9.89,0.68,-0.5,0.03,0.11,0.05,-0.62,-0.06,-0.17,4.83,37.1668777,-97.738422,382
-0.27,0,96956,370.2,-0.95,0,20.4,9.89,0.61,-0.52,0.21,0.11,-0.01,-0.62,-0.06,-0.17,4.83,37.1668777,-97.738422,382
-0.26,0,96943,371.33,0.17,0,20.4,9.9,0.61,-0.5,0.4,0.05,-0.01,-0.62,-0.06,-0.17,4.83,37.1668777,-97.738422,382
-0.25,0,96948,370.89,-0.26,0,20.4,9.94,0.61,-0.51,0.27,0.11,0.05,-0.62,-0.06,-0.17,4.83,37.1668777,-97.738422,382
-0.24,0,96942,371.41,0.26,0,20.4,9.88,0.6,-0.46,0.03,-0.01,0.11,-0.62,-0.06,-0.18,4.83,37.1668777,-97.738422,382
-0.23,0,96953,370.46,-0.69,0,20.4,9.9,0.63,-0.55,-0.15,-0.01,0.05,-0.62,-0.06,-0.17,4.83,37.1668777,-97.738422,382
-0.22,0,96944,371.24,0.09,0,20.4,9.86,0.57,-0.58,-0.09,-0.01,0.05,-0.62,-0.06,-0.16,4.83,37.1668777,-97.738422,382
-0.21,0,96945,371.15,0,0,20.4,9.88,0.66,-0.57,0.27,-0.07,0.05,-0.62,-0.06,-0.17,4.83,37.1668777,-97.738422,382
-0.2,0,96958,370.03,-1.12,0,20.4,9.92,0.64,-0.61,0.33,-0.07,0.18,-0.61,-0.06,-0.17,4.83,37.1668777,-97.738422,382
-0.19,0,96946,371.07,-0.09,0,20.4,9.84,0.71,-0.54,0.27,-0.13,0.05,-0.62,-0.06,-0.17,4.83,37.1668777,-97.738422,382
-0.18,0,96949,370.81,-0.35,0,20.4,9.85,0.66,-0.6,-0.03,-0.19,0.05,-0.62,-0.06,-0.17,4.83,37.1668777,-97.738422,382
-0.17,0,96956,370.2,-0.95,0,20.4,9.9,0.66,-0.57,-0.09,-0.19,-0.01,-0.62,-0.06,-0.17,4.83,37.1668777,-97.738422,382
-0.16,0,96948,370.89,-0.26,0,20.4,9.89,0.6,-0.55,-0.15,-0.19,-0.13,-0.62,-0.06,-0.17,4.83,37.1668777,-97.738422,382
-0.15,0,96941,371.5,0.35,0,20.4,9.88,0.69,-0.51,-0.03,-0.13,-0.07,-0.62,-0.06,-0.16,4.83,37.1668777,-97.738422,382
-0.14,0,96947,370.98,-0.17,0,20.4,9.92,0.62,-0.54,0.09,-0.19,-0.07,-0.62,-0.06,-0.17,4.83,37.1668777,-97.738422,382
-0.13,0,96937,371.84,0.69,0,20.4,9.93,0.67,-0.42,-0.7,-0.13,-0.01,-0.62,-0.06,-0.16,4.83,37.1668777,-97.738422,382
-0.12,0,96954,370.38,-0.78,0,20.4,9.87,0.61,-0.52,-1.07,-0.19,-0.01,-0.62,-0.06,-0.17,4.83,37.1668777,-97.738422,382
-0.11,0,96942,371.41,0.26,0.03,20.4,9.88,0.59,-0.52,-0.46,-0.13,-0.01,-0.62,-0.06,-0.17,4.83,37.1668777,-97.738422,382
-0.1,0,96966,369.34,-1.81,0.16,20.4,9.88,0.51,-0.61,0.7,0.05,-0.01,-0.62,-0.06,-0.16,4.83,37.1668777,-97.738422,382
-0.09,0.53,96948,370.89,-0.26,0.47,20.4,9.99,0.57,-0.28,0.95,0.05,-0.07,-0.62,-0.06,-0.17,4.83,37.1668777,-97.738422,382
-0.08,24.38,96944,371.24,0.09,1.06,20.4,9.96,0.73,-0.48,-0.46,-0.13,0.05,-0.62,-0.06,-0.16,4.83,37.1668777,-97.738422,382
-0.07,204.61,96986,367.62,-3.54,1.96,20.4,13.58,-0.3,-0.16,-0.64,-0.31,-0.01,-0.62,-0.06,-0.18,4.83,37.1668777,-97.738422,382
-0.06,162.21,97058,361.41,-9.74,3.11,20.4,149.88,-1.97,-2.19,11.63,-2.57,-1.41,-0.62,-0.06,-0.17,4.83,37.1668777,-97.738422,382
-0.05,133.58,96971,368.91,-2.24,4.42,20.4,156.83,5.45,5.35,-14.74,6.34,-4.34,-0.62,-0.06,-0.17,4.83,37.1668777,-97.738422,382
-0.04,128.81,96949,370.81,-0.35,5.79,20.4,152.23,-35.77,-21.44,-54.48,4.81,-21.31,-0.63,-0.07,-0.17,4.83,37.1668777,-97.738422,382
-0.03,130.4,96948,370.89,-0.26,7.14,20.4,140.01,35.25,38.98,66.25,-4.22,-32.6,-0.63,-0.07,-0.17,4.83,37.1668777,-97.738422,382
-0.02,132.52,96950,370.72,-0.43,8.47,20.4,134.47,22.91,13.82,95.49,-8.37,18.55,-0.63,-0.07,-0.17,4.83,37.1668777,-97.738422,382
-0.01,131.46,96959,369.95,-1.21,9.79,20.4,142.02,3.48,-21.37,148.84,0.66,14.7,-0.64,-0.06,-0.17,4.83,37.1668777,-97.738422,382
0,132.52,96945,371.15,0,11.11,20.4,147.45,-8.22,23.54,133.21,-4.28,9.15,-0.64,-0.06,-0.17,4.65,37.1668777,-97.738422,382
0.01,132.52,96945,371.15,0,12.42,20.4,143.04,5.3,-15.26,121.07,3.23,10.49,-0.64,-0.05,-0.17,4.75,37.1668777,-97.738422,382
0.01,132.52,96945,371.15,0,12.42,20.4,143.04,5.3,-15.26,121.07,3.23,10.49,-0.64,-0.05,-0.17,4.75,37.1668777,-97.738422,382
0.02,133.05,96936,371.93,0.78,13.74,20.4,144.87,-8.73,-7.7,106.72,3.96,2.86,-0.64,-0.05,-0.17,4.8,37.1668777,-97.738422,382
0.02,133.05,96936,371.93,0.78,13.74,20.4,144.87,-8.73,-7.7,106.72,3.96,2.86,-0.64,-0.05,-0.17,4.8,37.1668777,-97.738422,382
0.03,131.46,96928,372.62,1.47,15.06,20.4,145.79,1.27,13.46,89.02,1.03,-0.25,-0.64,-0.05,-0.17,4.8,37.1668777,-97.738422,382
0.04,133.58,96941,371.5,0.35,16.39,20.4,146.91,7.56,-0.06,105.68,-0.8,-1.35,-0.64,-0.05,-0.18,4.78,37.1668777,-97.738422,382
0.05,133.58,96941,371.5,0.35,17.71,20.4,143.63,9.12,-2.42,123.87,4.26,3.29,-0.64,-0.04,-0.18,4.83,37.1668777,-97.738422,382
0.06,133.05,96941,371.5,0.35,19.04,20.4,145.88,-15.52,-1.26,138.28,0.17,1.82,-0.64,-0.03,-0.17,4.85,37.1668777,-97.738422,382
0.07,132.52,96914,373.83,2.67,20.36,20.4,146.96,-14.39,18.45,72.72,-2.88,4.08,-0.64,-0.03,-0.17,4.87,37.1668777,-97.738422,382
0.08,134.11,96921,373.22,2.07,21.69,20.3,146.36,19.58,-10.06,123.51,-2.39,6.22,-0.64,-0.02,-0.17,4.92,37.1668777,-97.738422,382
0.09,131.99,96903,374.78,3.62,23.01,20.3,146.07,-1.16,7.95,56.98,3.04,13.42,-0.64,-0.01,-0.18,5.05,37.1668777,-97.738422,382
0.1,132.52,96905,374.6,3.45,24.33,20.3,147.9,-16.74,16.07,83.53,-2.21,9.82,-0.64,0,-0.17,5.13,37.1668777,-97.738422,382
0.11,132.52,96910,374.17,3.02,25.66,20.3,147.07,-0.27,-11.82,45.01,-1.54,3.47,-0.64,0,-0.17,5.16,37.1668777,-97.738422,382
0.12,133.58,96910,374.17,3.02,26.98,20.3,146.03,10.75,1.6,35.68,2.86,5.06,-0.64,0,-0.17,5.22,37.1668777,-97.738422,382
0.13,133.58,96896,375.38,4.23,28.31,20.3,146.89,1.86,-2.1,39.7,-0.44,8.29,-0.64,0,-0.16,5.29,37.1668777,-97.738422,382
0.14,133.58,96909,374.26,3.11,29.64,20.3,147.17,-0.03,-2.69,38.42,0.66,5.06,-0.64,0,-0.18,5.34,37.1668777,-97.738422,382
0.15,133.58,96909,374.26,3.11,30.97,20.3,146.97,1.26,8.53,35.37,1.15,6.1,-0.64,0.01,-0.17,5.4,37.1668777,-97.738422,382
0.16,134.11,96882,376.59,5.44,32.3,20.3,146.79,1.54,-6.74,34.82,0.72,7.32,-0.64,0,-0.18,5.48,37.1668777,-97.738422,382
0.17,134.11,96884,376.42,5.26,33.63,20.3,146.94,5.32,3.44,36.1,2.55,7.62,-0.64,0,-0.18,5.56,37.1668777,-97.738422,382
0.18,134.11,96879,376.85,5.7,34.97,20.3,147.47,1.15,-0.16,33.36,1.21,7.87,-0.64,0.02,-0.17,5.63,37.1668777,-97.738422,382
0.19,134.11,96872,377.45,6.3,36.3,20.3,147.4,2.61,0.04,31.46,2.13,7.99,-0.64,0.02,-0.16,5.72,37.1668777,-97.738422,382
0.2,134.11,96871,377.54,6.39,37.63,20.3,147.26,2.8,3.15,30.43,1.76,8.9,-0.64,0.02,-0.17,5.81,37.1668777,-97.738422,382
0.21,134.11,96869,377.71,6.56,38.97,20.3,147.61,1.18,-3.43,29.39,1.88,9.15,-0.64,0.02,-0.17,5.9,37.1668777,-97.738422,382
0.22,134.11,96856,378.83,7.68,40.3,20.3,147.07,3.47,3.24,29.94,2.55,9.76,-0.64,0.02,-0.17,6,37.1668779,-97.7384219,382
0.22,134.11,96856,378.83,7.68,40.3,20.3,147.07,3.47,3.24,29.94,2.55,9.76,-0.64,0.02,-0.17,6,37.1668779,-97.7384219,382
0.22,134.11,96856,378.83,7.68,40.3,20.3,147.07,3.47,3.24,29.94,2.55,9.76,-0.64,0.02,-0.17,6,37.1668779,-97.7384219,382
0.23,133.58,96856,378.83,7.68,41.63,20.3,146.95,0.57,-0.89,28.35,1.58,10.37,-0.64,0.03,-0.17,6.1,37.1668779,-97.7384219,382
0.24,134.11,96851,379.27,8.11,42.96,20.3,146.87,3.55,0.72,27.25,2.55,10.25,-0.64,0.02,-0.18,6.21,37.1668779,-97.7384219,382
0.25,134.11,96853,379.09,7.94,44.3,20.3,147.36,1.69,1.23,27.13,1.88,11.41,-0.64,0.02,-0.18,6.32,37.1668779,-97.7384219,382
0.26,134.11,96853,379.09,7.94,45.63,20.3,147.23,1.79,-0.79,26.89,2.31,11.22,-0.64,0.03,-0.17,6.44,37.1668779,-97.7384219,382
0.27,134.11,96849,379.44,8.29,46.96,20.3,147.13,3.54,1.64,26.58,2.49,12.51,-0.64,0.03,-0.17,6.57,37.1668779,-97.7384219,382
0.28,134.11,96827,381.34,10.19,48.29,20.3,147.58,0.7,-0.53,26.52,2.49,13.12,-0.64,0.03,-0.17,6.7,37.1668779,-97.7384219,382
0.29,134.11,96827,381.34,10.19,49.62,20.3,147.1,3.33,1.58,26.89,3.04,13.3,-0.65,0.04,-0.18,6.84,37.1668779,-97.7384219,382
0.3,134.64,96819,382.03,10.88,50.96,20.3,147.55,1.32,-0.65,26.64,3.1,14.7,-0.64,0.03,-0.18,6.99,37.1668779,-97.7384219,382
0.31,134.64,96821,381.86,10.7,52.29,20.3,147.68,2.25,1.22,27.56,3.77,15.07,-0.64,0.04,-0.17,7.14,37.1668779,-97.7384219,382
0.32,134.64,96799,383.76,12.6,53.63,20.2,147.86,2.27,-0.02,28.84,3.71,15.86,-0.65,0.05,-0.17,7.3,37.1668779,-97.7384219,382
0.33,134.64,96812,382.63,11.48,54.96,20.3,147.99,1.55,0.62,30.3,4.14,16.05,-0.65,0.05,-0.17,7.47,37.1668779,-97.7384219,382
0.34,135.17,96812,382.63,11.48,56.3,20.3,148.32,1.83,0.84,33.6,3.65,16.47,-0.65,0.05,-0.17,7.64,37.1668779,-97.7384219,382
0.34,135.17,96812,382.63,11.48,56.3,20.3,148.32,1.83,0.84,33.6,3.65,16.47,-0.65,0.05,-0.17,7.64,37.1668779,-97.7384219,382
0.35,134.64,96813,382.55,11.39,57.63,20.3,148.19,1.6,-0.16,38.24,3.84,16.84,-0.65,0.05,-0.18,7.81,37.1668779,-97.7384219,382
0.36,134.64,96780,385.4,14.25,58.97,20.2,148.2,1.36,1.47,42.76,3.9,17.2,-0.64,0.05,-0.17,7.99,37.1668779,-97.7384219,382
0.37,135.7,96780,385.4,14.25,60.31,20.2,148.32,1.28,-0.19,46.84,3.65,17.02,-0.65,0.06,-0.17,8.16,37.1668779,-97.7384219,382
0.38,135.7,96776,385.74,14.59,61.65,20.3,148.71,1.67,1.5,51.18,3.65,17.14,-0.64,0.06,-0.18,8.34,37.1668779,-97.7384219,382
0.39,135.7,96755,387.56,16.41,62.99,20.2,149.11,0.49,-0.2,55.94,3.29,16.9,-0.65,0.06,-0.18,8.51,37.1668779,-97.7384219,382
0.4,136.23,96755,387.56,16.41,64.33,20.2,149.29,1.64,1.68,60.15,3.23,16.66,-0.65,0.08,-0.17,8.68,37.1668779,-97.7384219,382
0.41,136.76,96763,386.87,15.71,65.68,20.2,149.13,0.7,0.22,65.03,2.74,16.47,-0.65,0.07,-0.18,8.85,37.1668779,-97.7384219,382
0.42,136.23,96724,390.24,19.08,67.02,20.2,149.49,1.04,1.4,70.41,2.74,16.11,-0.65,0.08,-0.17,9.01,37.1668779,-97.7384219,382
0.43,136.23,96738,389.03,17.87,68.37,20.2,149.76,1.01,0.82,75.29,2.13,15.68,-0.65,0.09,-0.18,9.17,37.1668779,-97.7384219,382
0.44,136.23,96715,391.02,19.86,69.71,20.2,149.38,0.65,1.08,80.48,1.94,15.56,-0.65,0.1,-0.18,9.32,37.1668779,-97.7384219,382
0.45,136.23,96715,391.02,19.86,71.05,20.2,149.32,0.46,0.84,86.7,1.33,15.01,-0.65,0.1,-0.18,9.47,37.1668779,-97.7384219,382
0.46,135.7,96705,391.88,20.73,72.39,20.2,149.19,0.24,0.25,93.29,1.03,14.21,-0.65,0.1,-0.18,9.62,37.1668779,-97.7384219,382
0.47,135.7,96705,391.88,20.73,73.73,20.2,149.08,0.11,1.32,98.48,0.78,13.42,-0.65,0.1,-0.19,9.75,37.1668779,-97.7384219,382
0.48,136.23,96705,391.88,20.73,75.07,20.2,149.28,0.21,-0.1,103.98,1.09,12.38,-0.65,0.12,-0.18,9.88,37.1668779,-97.7384219,382
0.49,136.23,96700,392.31,21.16,76.41,20.2,149.71,-0.05,1.08,108.55,1.58,11.1,-0.65,0.11,-0.2,9.99,37.1668779,-97.7384219,382
0.5,136.23,96667,395.17,24.01,77.75,20.2,149.95,-0.31,0.79,113.62,1.58,9.88,-0.65,0.12,-0.19,10.09,37.1668779,-97.7384219,382
0.51,136.23,96667,395.17,24.01,79.09,20.2,149.42,0.57,1.62,118.32,1.94,8.54,-0.66,0.13,-0.21,10.17,37.1668779,-97.7384219,382
0.52,136.76,96662,395.6,24.44,80.43,20.2,149.16,-0.83,0.41,123.93,2.19,7.13,-0.65,0.13,-0.21,10.24,37.1668779,-97.7384219,382
0.53,136.76,96640,397.5,26.35,81.78,20.2,149.88,-0.65,1.04,129.12,2.55,5.42,-0.65,0.13,-0.21,10.3,37.1668779,-97.7384219,382
0.54,136.76,96645,397.07,25.91,83.12,20.2,150.39,-1.24,1.23,134.49,2.74,3.72,-0.66,0.15,-0.21,10.33,37.1668779,-97.7384219,382
0.55,136.76,96637,397.76,26.61,84.46,20.2,150.35,-1.71,0.81,140.11,2.8,1.64,-0.66,0.15,-0.21,10.35,37.1668779,-97.7384219,382
0.56,136.76,96637,397.76,26.61,85.81,20.2,150.26,-0.68,1.41,145.54,2.62,-0.37,-0.66,0.16,-0.22,10.34,37.1668779,-97.7384219,382
0.57,137.29,96609,400.18,29.03,87.16,20.2,150.42,-1.88,0.46,151.95,2.49,-3.61,-0.65,0.15,-0.22,10.3,37.1668779,-97.7384219,382
0.58,137.29,96604,400.61,29.46,88.51,20.2,150.44,-0.89,1.23,158.24,2.37,-6.48,-0.65,0.16,-0.23,10.24,37.1668779,-97.7384219,382
0.59,137.82,96604,400.61,29.46,89.86,20.2,151.02,-0.47,0.4,163.36,2.31,-9.1,-0.66,0.17,-0.23,10.14,37.1668779,-97.7384219,382
0.6,137.82,96602,400.79,29.63,91.21,20.2,151.11,-1.29,1.02,168.49,2.8,-11.36,-0.65,0.17,-0.23,10.03,37.1668779,-97.7384219,382
0.61,137.82,96573,403.3,32.14,92.57,20.2,151.06,-1.15,-0.03,172.83,3.53,-13.8,-0.65,0.17,-0.25,9.88,37.1668779,-97.7384219,382
0.62,138.35,96568,403.73,32.58,93.93,20.2,151.25,-1.55,2.15,179.54,3.59,-16.55,-0.65,0.18,-0.25,9.71,37.1668779,-97.7384219,382
0.63,138.35,96550,405.29,34.13,95.29,20.2,151.6,-1.6,0.07,184.06,3.71,-19.48,-0.65,0.19,-0.24,9.52,37.1668779,-97.7384219,382
0.64,138.35,96535,406.59,35.43,96.65,20.2,151.85,-0.43,1.02,190.34,4.2,-21.86,-0.65,0.19,-0.26,9.3,37.1668779,-97.7384219,382
0.65,138.35,96522,407.71,36.56,98.02,20.2,152.07,-1.13,0.01,196.08,4.63,-24.18,-0.65,0.2,-0.26,9.05,37.1668779,-97.7384219,382
0.66,138.35,96505,409.18,38.03,99.39,20.2,152.11,-0.37,1.05,201.94,5.3,-26.74,-0.65,0.2,-0.28,8.79,37.1668779,-97.7384219,382
0.66,138.35,96505,409.18,38.03,99.39,20.2,152.11,-0.37,1.05,201.94,5.3,-26.74,-0.65,0.2,-0.28,8.79,37.1668779,-97.7384219,382
0.67,138.35,96505,409.18,38.03,100.76,20.2,152.03,-0.22,-1.06,205.17,6.4,-28.21,-0.65,0.2,-0.27,8.5,37.1668779,-97.7384219,382
0.68,139.41,96494,410.14,38.98,102.13,20.2,152.29,0.27,0.95,208.35,7.8,-29.61,-0.65,0.19,-0.29,8.2,37.1668779,-97.7384219,382
0.69,139.41,96471,412.13,40.98,103.51,20.2,152.71,0.16,-0.69,209.87,9.33,-30.46,-0.64,0.2,-0.29,7.89,37.1668779,-97.7384219,382
0.7,139.94,96471,412.13,40.98,104.89,20.2,152.85,0.99,-0.2,213.29,11.95,-31.62,-0.65,0.21,-0.3,7.56,37.1668779,-97.7384219,382
0.71,139.94,96464,412.74,41.58,106.27,20.2,153.31,0.67,0.3,212.99,13.3,-31.81,-0.64,0.2,-0.31,7.22,37.1668779,-97.7384219,382
0.72,139.94,96443,414.55,43.4,107.66,20.2,153.61,1.02,1.7,217.44,14.4,-31.75,-0.64,0.2,-0.32,6.88,37.1668779,-97.7384219,382
0.73,140.47,96419,416.63,45.48,109.06,20.2,153.66,1.06,-0.07,219.88,15.31,-31.87,-0.65,0.21,-0.31,6.54,37.1668779,-97.7384219,382
0.74,140.47,96424,416.2,45.05,110.45,20.2,153.85,1.7,1.27,225.07,15.92,-31.56,-0.64,0.21,-0.32,6.2,37.1668779,-97.7384219,382
0.75,140.47,96405,417.85,46.69,111.84,20.2,153.95,1.84,1.7,228.31,16.04,-31.44,-0.64,0.21,-0.33,5.87,37.1668779,-97.7384219,382
0.76,140.47,96383,419.75,48.6,113.24,20.2,153.81,2.97,1.95,229.1,16.65,-31.01,-0.64,0.21,-0.34,5.54,37.1668779,-97.7384219,382
0.77,140.47,96372,420.71,49.55,114.64,20.2,153.68,3.77,2.07,228.49,16.65,-29.67,-0.64,0.21,-0.34,5.23,37.1668779,-97.7384219,382
0.78,139.94,96372,420.71,49.55,116.04,20.2,153.88,3.63,3.62,225.44,15.49,-27.84,-0.64,0.21,-0.36,4.95,37.1668779,-97.7384219,382
0.79,141,96346,422.96,51.81,117.44,20.2,153.82,4.41,2.5,224.34,14.33,-25.34,-0.63,0.2,-0.37,4.71,37.1668779,-97.7384219,382
0.8,141,96324,424.87,53.72,118.84,20.2,154,3.57,1.59,224.77,13.05,-22.77,-0.63,0.2,-0.37,4.49,37.1668779,-97.7384219,382
0.81,141.53,96324,424.87,53.72,120.25,20.2,154.39,4.36,1.81,223.43,11.95,-20.52,-0.64,0.21,-0.38,4.31,37.1668779,-97.7384219,382
0.82,141.53,96321,425.13,53.98,121.66,20.2,154.83,4.88,2.29,226.17,11.22,-18.14,-0.63,0.2,-0.39,4.15,37.1668779,-97.7384219,382
0.83,142.06,96270,429.55,58.4,123.08,20.2,155.37,5.03,3.08,227.76,10.06,-15.02,-0.63,0.2,-0.4,4.02,37.1668779,-97.7384219,382
0.84,142.59,96247,431.55,60.4,124.5,20.2,155.33,5.14,2.09,228,8.84,-12.03,-0.64,0.21,-0.41,3.92,37.1668779,-97.7384219,382
0.85,142.59,96253,431.03,59.88,125.92,20.2,155.94,4.94,2.8,230.81,7.5,-8.55,-0.64,0.2,-0.41,3.84,37.1668779,-97.7384219,382
0.86,142.59,96220,433.89,62.74,127.34,20.2,155.98,4.84,3.05,231.54,5.54,-5.74,-0.63,0.2,-0.42,3.78,37.1668779,-97.7384219,382
0.87,143.12,96217,434.15,63,128.77,20.2,156.07,4.45,2.89,232.15,3.53,-2.88,-0.64,0.2,-0.42,3.75,37.1668779,-97.7384219,382
0.88,143.12,96188,436.67,65.52,130.19,20.2,156.23,3.66,4.07,230.2,1.03,-0.8,-0.63,0.2,-0.44,3.74,37.1668779,-97.7384219,382
0.89,143.12,96188,436.67,65.52,131.62,20.2,156.52,3.81,3.31,229.96,-1.54,0.85,-0.63,0.2,-0.43,3.75,37.1668779,-97.7384219,382
0.9,143.12,96173,437.97,66.82,133.05,20.2,156.58,3.17,2.43,230.93,-3.92,1.95,-0.63,0.19,-0.45,3.79,37.1668779,-97.7384219,382
0.91,143.12,96143,440.58,69.43,134.47,20.2,156.44,3.17,2.51,232.7,-6.17,2.86,-0.63,0.18,-0.47,3.84,37.1668779,-97.7384219,382
0.92,143.12,96143,440.58,69.43,135.9,20.2,156.81,2.14,3.51,235.82,-8.19,3.65,-0.64,0.19,-0.46,3.92,37.1668779,-97.7384219,382
0.93,142.59,96135,441.27,70.12,137.32,20.2,156.84,1.48,1.84,237.65,-10.2,2.68,-0.63,0.18,-0.49,4.01,37.1668779,-97.7384219,382
0.94,142.59,96105,443.88,72.73,138.75,20.2,156.56,2.58,2.5,241.98,-11.55,1.82,-0.63,0.17,-0.5,4.12,37.1668779,-97.7384219,382
0.95,143.12,96094,444.84,73.68,140.17,20.2,156.32,1.91,3.04,246.31,-13.32,1.64,-0.64,0.18,-0.49,4.24,37.1668779,-97.7384219,382
0.96,142.59,96072,446.75,75.59,141.6,20.2,156.26,0.9,-0.05,251.93,-14.05,-0.19,-0.64,0.18,-0.5,4.37,37.1668779,-97.7384219,382
0.97,143.65,96054,448.31,77.16,143.03,20.2,156.28,2.35,0.85,256.93,-14.05,-1.05,-0.64,0.17,-0.52,4.51,37.1668779,-97.7384219,382
0.98,143.65,96047,448.92,77.77,144.46,20.2,156.71,1.72,0.47,262.06,-13.99,-1.72,-0.64,0.16,-0.52,4.64,37.1668779,-97.7384219,382
0.98,143.65,96047,448.92,77.77,144.46,20.2,156.71,1.72,0.47,262.06,-13.99,-1.72,-0.64,0.16,-0.52,4.64,37.1668779,-97.7384219,382
0.99,143.65,96026,450.75,79.59,145.89,20.2,156.84,1.58,-0.63,268.35,-12.83,-3.24,-0.64,0.16,-0.53,4.77,37.1668779,-97.7384219,382
1,143.65,96026,450.75,79.59,147.32,20.2,156.84,1.28,-1.07,272.99,-11.12,-3.91,-0.64,0.15,-0.54,4.89,37.1668779,-97.7384219,382
1.01,143.12,96007,452.4,81.24,148.74,20.2,156.84,1.25,-0.26,278.72,-9.47,-5.56,-0.63,0.13,-0.55,5,37.1668779,-97.7384219,382
1.02,143.12,95975,455.18,84.03,150.17,20.2,156.76,1.83,-2.13,283.42,-7.15,-6.36,-0.64,0.12,-0.56,5.09,37.1668779,-97.7384219,382
1.03,142.59,95975,455.18,84.03,151.59,20.2,156.77,1.76,-1.95,288.12,-4.28,-7.09,-0.64,0.12,-0.56,5.17,37.1668779,-97.7384219,382
1.04,142.59,95964,456.14,84.98,153.01,20.2,156.61,1.59,-1.94,294.11,-1.9,-8.61,-0.63,0.1,-0.58,5.24,37.1668779,-97.7384219,382
1.05,142.59,95923,459.7,88.55,154.43,20.2,156.06,2.21,-3.33,299.48,1.58,-8.8,-0.63,0.09,-0.58,5.29,37.1668779,-97.7384219,382
1.06,142.59,95905,461.27,90.12,155.86,20.2,156.13,1.83,-1.97,304.24,4.81,-9.04,-0.64,0.09,-0.58,5.32,37.1668779,-97.7384219,382
1.07,143.12,95894,462.23,91.08,157.28,20.2,155.97,2.49,-3.15,309.73,8.35,-8.31,-0.64,0.08,-0.59,5.33,37.1668779,-97.7384219,382
1.08,143.12,95866,464.67,93.51,158.7,20.2,156.35,2.22,-3.04,315.77,12.2,-7.52,-0.64,0.06,-0.59,5.33,37.1668779,-97.7384219,382
1.09,143.12,95854,465.71,94.56,160.12,20.2,156.66,0.65,-1.75,319.25,15.31,-6.29,-0.64,0.05,-0.59,5.31,37.1668779,-97.7384219,382
1.1,143.12,95824,468.32,97.17,161.55,20.2,156.49,1.38,-2.7,322.85,17.69,-6.54,-0.63,0.04,-0.6,5.3,37.1668779,-97.7384219,382
1.11,142.59,95824,468.32,97.17,162.97,20.2,156.33,2.15,-1.64,325.91,20.56,-6.05,-0.63,0.03,-0.6,5.29,37.1668779,-97.7384219,382
1.12,142.06,95813,469.28,98.13,164.38,20.2,156.23,1.16,-0.28,329.02,22.7,-6.23,-0.63,0,-0.6,5.3,37.1668779,-97.7384219,382
1.13,142.06,95789,471.37,100.22,165.8,20.2,155.57,1.7,-1.47,332.74,24.1,-5.44,-0.63,-0.01,-0.59,5.32,37.1668779,-97.7384219,382
1.14,141.53,95789,471.37,100.22,167.21,20.2,155.36,2.02,0.46,337.56,24.71,-4.46,-0.63,-0.02,-0.61,5.36,37.1668779,-97.7384219,382
1.15,141.53,95768,473.2,102.05,168.62,20.2,155.42,1.18,1.2,340.98,24.28,-3.24,-0.62,-0.04,-0.6,5.42,37.1668779,-97.7384219,382
1.16,141.53,95742,475.47,104.31,170.03,20.2,154.73,1.09,0.05,345.68,24.47,-3.12,-0.62,-0.05,-0.6,5.49,37.1668779,-97.7384219,382
1.17,141,95707,478.52,107.36,171.43,20.2,155.33,0.53,2.48,349.65,23.12,-3.06,-0.63,-0.06,-0.59,5.59,37.1668779,-97.7384219,382
1.18,141,95675,481.31,110.15,172.83,20.2,154.87,0.11,2.49,353.92,21.54,-3.73,-0.63,-0.07,-0.6,5.7,37.1668779,-97.7384219,382
1.19,140.47,95664,482.27,111.11,174.23,20.2,155.07,0.42,3.99,356.61,18.85,-4.95,-0.63,-0.08,-0.58,5.83,37.1668779,-97.7384219,382
1.2,139.94,95624,485.76,114.6,175.63,20.2,153.96,-0.45,3,359.23,15.43,-6.48,-0.63,-0.1,-0.58,5.97,37.1668779,-97.7384219,382
1.21,139.94,95626,485.58,114.43,177.02,20.2,153.6,0.04,4.44,365.34,12.26,-7.76,-0.63,-0.11,-0.58,6.11,37.1668787,-97.738309,426
1.21,139.94,95626,485.58,114.43,177.02,20.2,153.6,0.04,4.44,365.34,12.26,-7.76,-0.63,-0.11,-0.58,6.11,37.1668787,-97.738309,426
1.21,139.94,95626,485.58,114.43,177.02,20.2,153.6,0.04,4.44,365.34,12.26,-7.76,-0.63,-0.11,-0.58,6.11,37.1668787,-97.738309,426
1.22,139.41,95626,485.58,114.43,178.41,20.2,153.02,0.6,3.29,366.68,8.72,-8.43,-0.62,-0.12,-0.57,6.23,37.1668787,-97.738309,426
1.23,139.41,95609,487.06,115.91,179.79,20.2,153.13,0.28,2.35,370.59,5.97,-9.96,-0.62,-0.15,-0.56,6.34,37.1668787,-97.738309,426
1.24,139.41,95558,491.52,120.36,181.18,20.2,153.06,0.31,5.03,374.25,3.1,-12.28,-0.62,-0.16,-0.56,6.45,37.1668787,-97.738309,426
1.25,138.88,95558,491.52,120.36,182.56,20.2,152.72,0.26,2.21,377.54,0.78,-14.47,-0.62,-0.16,-0.55,6.54,37.1668787,-97.738309,426
1.26,138.35,95539,493.17,122.02,183.93,20.2,152.52,0.05,2.03,381.33,-1.35,-16.67,-0.62,-0.19,-0.54,6.63,37.1668787,-97.738309,426
1.27,137.82,95492,497.28,126.12,185.31,20.1,152.16,0.74,1.89,385.91,-3.31,-18.38,-0.62,-0.2,-0.53,6.71,37.1668787,-97.738309,426
1.28,137.82,95475,498.76,127.61,186.68,20.2,151.61,2.09,0.72,388.47,-2.45,-20.09,-0.63,-0.2,-0.53,6.8,37.1668787,-97.738309,426
1.29,137.29,95438,502,130.84,188.04,20.2,151.08,2,1.13,391.58,-0.62,-20.09,-0.63,-0.21,-0.51,6.89,37.1668787,-97.738309,426
1.3,137.82,95415,504.01,132.85,189.41,20.2,151.11,0.82,3.21,394.02,-1.54,-21.07,-0.63,-0.22,-0.49,6.98,37.1668787,-97.738309,426
1.3,137.82,95415,504.01,132.85,189.41,20.2,151.11,0.82,3.21,394.02,-1.54,-21.07,-0.63,-0.22,-0.49,6.98,37.1668787,-97.738309,426
1.31,137.82,95395,505.75,134.6,190.77,20.1,151.18,3.55,0.97,399.15,-0.5,-20.94,-0.63,-0.23,-0.49,7.06,37.1668787,-97.738309,426
1.32,137.82,95348,509.86,138.71,192.14,20.2,150.88,5.6,1.89,400.68,-0.44,-19.91,-0.63,-0.24,-0.48,7.13,37.1668787,-97.738309,426
1.33,137.29,95348,509.86,138.71,193.5,20.2,151.17,4.43,2.62,402.2,-1.78,-17.53,-0.63,-0.24,-0.46,7.18,37.1668787,-97.738309,426
1.34,136.23,95319,512.4,141.24,194.85,20.2,150.17,7.41,1.48,406.23,-1.29,-15.14,-0.63,-0.26,-0.45,7.21,37.1668787,-97.738309,426
1.35,136.23,95286,515.29,144.13,196.21,20.2,150.05,5.83,1.68,406.54,-3.98,-10.93,-0.63,-0.27,-0.43,7.2,37.1668787,-97.738309,426
1.36,135.7,95286,515.29,144.13,197.55,20.2,149.56,5.35,-0.68,410.56,-4.22,-8.06,-0.63,-0.26,-0.41,7.17,37.1668787,-97.738309,426
1.37,134.11,95245,518.87,147.72,198.89,20.2,149.11,7.33,-3,413.25,-2.88,-4.77,-0.63,-0.27,-0.4,7.15,37.1668787,-97.738309,426
1.38,134.11,95204,522.46,151.31,200.22,20.1,147.61,7.38,-1.38,419.9,-0.07,-1.11,-0.63,-0.27,-0.4,7.15,37.1668787,-97.738309,426
1.39,134.11,95204,522.46,151.31,201.55,20.1,147.72,3.78,2.94,421.8,0.48,3.11,-0.63,-0.26,-0.36,7.16,37.1668787,-97.738309,426
1.4,133.05,95169,525.53,154.37,202.87,20.1,147.57,2.4,-0.85,428.02,-0.25,4.39,-0.63,-0.27,-0.35,7.16,37.1668787,-97.738309,426
1.41,131.99,95108,530.87,159.72,204.19,20.1,146.68,4.5,0.61,432.11,-0.93,4.88,-0.63,-0.26,-0.34,7.16,37.1668787,-97.738309,426
1.42,131.46,95085,532.89,161.73,205.5,20.1,145.74,-0.08,1.7,433.51,-2.21,5.18,-0.63,-0.25,-0.33,7.15,37.1668787,-97.738309,426
1.43,131.46,95066,534.55,163.4,206.8,20.1,144.47,2.02,-0.69,436.63,-2.39,3.41,-0.63,-0.24,-0.31,7.14,37.1668787,-97.738309,426
1.44,129.87,95066,534.55,163.4,208.09,20.1,143.72,2.63,0.49,437.91,-2.94,1.4,-0.63,-0.24,-0.3,7.12,37.1668787,-97.738309,426
1.45,128.28,95050,535.95,164.8,209.37,20.1,142.75,-0.24,-1.48,440.41,-2.02,0.72,-0.63,-0.24,-0.29,7.1,37.1668787,-97.738309,426
1.46,128.28,95002,540.16,169.01,210.65,20.1,141.92,1.42,-0.69,443.52,-1.23,-0.19,-0.63,-0.23,-0.28,7.09,37.1668787,-97.738309,426
1.47,127.75,95002,540.16,169.01,211.92,20.1,141.38,1.43,-1.81,444.99,0.05,-2.39,-0.63,-0.21,-0.26,7.08,37.1668787,-97.738309,426
1.48,126.69,94969,543.06,171.9,213.18,20.1,140.87,0.92,-1.65,450.12,3.16,-4.16,-0.63,-0.2,-0.26,7.07,37.1668787,-97.738309,426
1.49,126.69,94922,547.18,176.03,214.43,20.1,140.31,-0.11,-0.9,456.1,4.14,-5.44,-0.63,-0.19,-0.24,7.06,37.1668787,-97.738309,426
1.5,125.63,94922,547.18,176.03,215.68,20.1,139.57,0.27,-3.74,458.91,6.83,-6.9,-0.63,-0.17,-0.24,7.05,37.1668787,-97.738309,426
1.51,124.57,94901,549.02,177.87,216.93,20.1,139.01,-0.18,-0.46,460.43,10.37,-9.1,-0.63,-0.16,-0.22,7.04,37.1668787,-97.738309,426
1.52,124.57,94847,553.76,182.61,218.16,20.1,138.27,0.04,-0.54,460.92,11.89,-11.6,-0.63,-0.15,-0.21,7.01,37.1668787,-97.738309,426
1.53,123.51,94832,555.08,183.93,219.39,20.1,137.37,2.73,-1.24,462.93,14.15,-10.93,-0.63,-0.12,-0.2,6.99,37.1668787,-97.738309,426
1.54,123.51,94793,558.51,187.35,220.62,20.1,136.87,2.76,-1.14,463.18,15.37,-9.35,-0.63,-0.1,-0.19,6.98,37.1668787,-97.738309,426
1.55,122.98,94793,558.51,187.35,221.84,20.1,136.08,3.24,-0.13,461.59,16.59,-8.13,-0.63,-0.09,-0.19,6.97,37.1668787,-97.738309,426
1.56,121.39,94770,560.53,189.38,223.05,20.1,135.56,-0.7,2.33,465.13,16.65,-7.52,-0.63,-0.08,-0.18,6.96,37.1668787,-97.738309,426
1.57,121.39,94715,565.36,194.21,224.25,20.1,134.32,2.72,0.6,464.7,15.01,-6.23,-0.63,-0.06,-0.19,6.95,37.1668787,-97.738309,426
1.58,119.8,94715,565.36,194.21,225.45,20.1,133.69,3.35,1.76,464.89,14.03,-4.89,-0.64,-0.03,-0.18,6.93,37.1668787,-97.738309,426
1.59,119.27,94679,568.53,197.37,226.64,20.1,132.6,2.77,3.43,469.1,12.63,-4.16,-0.63,-0.02,-0.19,6.92,37.1668787,-97.738309,426
1.6,118.74,94621,573.63,202.48,227.82,20.1,131.99,2.25,2.81,468.73,9.39,-2.08,-0.63,0,-0.18,6.91,37.1668787,-97.738309,426
1.61,118.74,94590,576.36,205.2,229,20.1,132.01,1.81,5.82,471.42,5.67,-2.33,-0.64,0.03,-0.19,6.89,37.1668787,-97.738309,426
1.62,118.21,94578,577.41,206.26,230.18,20.1,131.31,0.77,3.35,470.93,0.54,-3.18,-0.64,0.05,-0.19,6.86,37.1668787,-97.738309,426
1.62,118.21,94578,577.41,206.26,230.18,20.1,131.31,0.77,3.35,470.93,0.54,-3.18,-0.64,0.05,-0.19,6.86,37.1668787,-97.738309,426
1.63,117.68,94576,577.59,206.44,231.35,20.1,131.48,-3.27,1.14,472.4,-1.96,-6.84,-0.64,0.07,-0.2,6.79,37.1668787,-97.738309,426
1.64,117.15,94547,580.14,208.99,232.51,20.1,131,-5.89,3.07,471.42,-3.98,-12.64,-0.64,0.08,-0.21,6.67,37.1668787,-97.738309,426
1.65,117.15,94517,582.78,211.63,233.68,20.1,129.83,0.76,-2.87,471.97,-1.84,-14.41,-0.64,0.1,-0.22,6.54,37.1668787,-97.738309,426
1.66,116.09,94517,582.78,211.63,234.83,20.1,129.28,-0.41,-2.21,472.58,1.09,-16.43,-0.63,0.11,-0.23,6.38,37.1668787,-97.738309,426
1.67,115.56,94496,584.63,213.48,235.98,20.1,128.7,-0.06,-1.39,474.71,4.63,-19.11,-0.63,0.12,-0.24,6.19,37.1668787,-97.738309,426
1.68,115.56,94431,590.36,219.21,237.13,20.1,128.43,1.09,1.72,477.77,7.86,-21.61,-0.63,0.13,-0.26,5.97,37.1668787,-97.738309,426
1.69,114.5,94431,590.36,219.21,238.28,20.1,128.02,2.34,1.37,481.61,8.9,-18.07,-0.64,0.15,-0.26,5.77,37.1668787,-97.738309,426
1.7,114.5,94390,593.98,222.82,239.41,20.1,127.75,2.65,-0.17,483.08,9.76,-19.91,-0.63,0.15,-0.28,5.56,37.1668787,-97.738309,426
1.71,113.44,94308,601.21,230.05,240.55,20,127.28,2.22,4.34,485.58,10.61,-16.49,-0.63,0.16,-0.29,5.37,37.1668787,-97.738309,426
1.72,112.91,94287,603.06,231.91,241.67,20.1,126.76,1.76,2.88,486.13,8.9,-16.49,-0.63,0.18,-0.3,5.2,37.1668787,-97.738309,426
1.73,112.38,94227,608.36,237.2,242.8,20.1,125.6,4.75,4.62,490.28,6.58,-13.86,-0.64,0.19,-0.31,5.07,37.1668787,-97.738309,426
1.74,111.85,94208,610.03,238.88,243.91,20.1,125.05,5.59,6.31,487.41,2.86,-13.62,-0.63,0.19,-0.34,4.99,37.1668787,-97.738309,426
1.75,110.79,94182,612.33,241.18,245.02,20.1,124.97,2.89,5.26,485.09,-2.88,-8.25,-0.63,0.2,-0.36,4.99,37.1668787,-97.738309,426
1.76,110.79,94136,616.39,245.24,246.13,20.1,123.53,3.06,1.61,487.23,-5.5,-7.15,-0.63,0.2,-0.38,5.03,37.1668787,-97.738309,426
1.77,110.26,94136,616.39,245.24,247.23,20.1,123.32,2.05,3.2,491.62,-7.03,-6.48,-0.63,0.2,-0.39,5.09,37.1668787,-97.738309,426
1.78,110.79,94108,618.87,247.71,248.33,20.1,123.02,1.5,0.96,491.19,-8.62,-7.76,-0.63,0.19,-0.42,5.17,37.1668787,-97.738309,426
1.79,110.79,94032,625.59,254.43,249.43,20.1,122.76,5.65,0.48,497.24,-7.58,-7.33,-0.63,0.18,-0.44,5.26,37.1668787,-97.738309,426
1.8,109.2,94032,625.59,254.43,250.52,20.1,122.92,2.36,-0.93,498.34,-6.97,-6.54,-0.63,0.19,-0.44,5.34,37.1668787,-97.738309,426
1.81,108.67,94022,626.47,255.32,251.6,20.1,122.2,4.94,-1.7,500.72,-4.95,-5.07,-0.63,0.18,-0.48,5.4,37.1668787,-97.738309,426
1.82,107.61,93963,631.69,260.54,252.68,20.1,121.18,5.2,-3.77,502.36,-1.47,-1.84,-0.63,0.17,-0.49,5.42,37.1668787,-97.738309,426
1.83,107.61,93917,635.76,264.61,253.75,20,120.56,2.53,-1.15,504.07,2,1.4,-0.63,0.17,-0.5,5.39,37.1668787,-97.738309,426
1.84,106.55,93895,637.71,266.55,254.82,20.1,120.08,1.47,0.76,506.03,3.77,2.25,-0.63,0.16,-0.51,5.35,37.1668787,-97.738309,426
1.85,106.55,93873,639.66,268.5,255.89,20.1,119.91,-1.09,-4.42,504.74,3.96,-0.19,-0.63,0.15,-0.52,5.32,37.1668787,-97.738309,426
1.86,106.55,93879,639.12,267.97,256.95,20.1,119.91,-2.04,-5.08,507.74,7.8,-3.97,-0.63,0.13,-0.54,5.29,37.1668787,-97.738309,426
1.87,106.55,93854,641.34,270.19,258,20.1,118.79,-1.36,-4.04,510.18,13.78,-6.78,-0.63,0.12,-0.55,5.24,37.1668787,-97.738309,426
1.88,105.49,93854,641.34,270.19,259.05,20.1,118.31,-0.97,-0.38,513.9,17.81,-6.42,-0.63,0.1,-0.56,5.2,37.1668787,-97.738309,426
1.89,104.43,93823,644.08,272.93,260.1,20.1,117.68,-0.2,-0.13,513.47,18.42,-7.21,-0.63,0.07,-0.58,5.17,37.1668787,-97.738309,426
1.9,104.43,93719,653.3,282.15,261.14,20.1,117.28,0.89,-0.34,513.72,20.07,-8.13,-0.63,0.06,-0.58,5.18,37.1668787,-97.738309,426
1.91,103.9,93719,653.3,282.15,262.18,20.1,116.69,0.94,4.06,510.79,18.18,-5.44,-0.63,0.05,-0.59,5.19,37.1668787,-97.738309,426
1.92,103.37,93696,655.34,284.19,263.21,20.1,116.43,0.45,2.5,510.42,16.96,-5.74,-0.62,0.02,-0.59,5.23,37.1668787,-97.738309,426
1.93,102.84,93632,661.02,289.87,264.24,20,115.89,0.47,3.62,508.65,13.54,-6.6,-0.62,0,-0.6,5.3,37.1668787,-97.738309,426
1.94,102.84,93594,664.39,293.24,265.26,20,115.6,-0.32,4.76,508.83,9.39,-9.22,-0.63,-0.01,-0.58,5.4,37.1668787,-97.738309,426
1.94,102.84,93594,664.39,293.24,265.26,20,115.6,-0.32,4.76,508.83,9.39,-9.22,-0.63,-0.01,-0.58,5.4,37.1668787,-97.738309,426
1.95,102.31,93558,667.59,296.43,266.28,20.1,115.31,-0.46,3.03,509.63,5.42,-9.1,-0.63,-0.03,-0.59,5.5,37.1668787,-97.738309,426
1.96,101.78,93539,669.28,298.12,267.3,20.1,114.87,1.11,8.12,512.56,0.84,-10.38,-0.63,-0.05,-0.59,5.6,37.1668787,-97.738309,426
1.97,101.78,93512,671.67,300.52,268.31,20.1,114.72,-1,3.15,512.56,-4.77,-11.91,-0.63,-0.07,-0.59,5.7,37.1668787,-97.738309,426
1.98,101.78,93466,675.76,304.61,269.32,20.1,114.16,1.86,2.65,512.13,-7.03,-13.37,-0.63,-0.09,-0.57,5.78,37.1668787,-97.738309,426
1.99,100.72,93466,675.76,304.61,270.32,20.1,112.89,1.28,-0.99,509.69,-7.82,-14.84,-0.63,-0.11,-0.58,5.87,37.1668787,-97.738309,426
2,99.13,93426,679.32,308.16,271.32,20.1,112.6,1.34,-0.47,510.24,-7.21,-14.35,-0.63,-0.14,-0.57,5.95,37.1668787,-97.738309,426
2.01,99.13,93349,686.16,315.01,272.3,20,111.79,3.73,0.46,510.24,-5.32,-13.74,-0.63,-0.16,-0.57,6.03,37.1668787,-97.738309,426
2.02,98.07,93349,686.16,315.01,273.29,20,110.92,3.51,-5.91,506.64,-2.15,-11.48,-0.63,-0.17,-0.55,6.1,37.1668787,-97.738309,426
2.03,98.07,93306,689.99,318.84,274.26,20.1,110.55,3.93,-3.93,507.98,0.48,-11.48,-0.63,-0.19,-0.55,6.18,37.1668787,-97.738309,426
2.04,97.54,93228,696.93,325.78,275.23,20,109.98,6.09,-1.25,509.02,3.9,-8.49,-0.63,-0.21,-0.53,6.26,37.1668787,-97.738309,426
2.05,97.54,93226,697.11,325.96,276.2,20,109.93,2.42,-3.57,508.65,5.91,-4.16,-0.63,-0.21,-0.51,6.34,37.1668787,-97.738309,426
2.06,97.01,93188,700.5,329.34,277.17,20.1,109.89,0.99,-1.56,512.62,9.21,0.18,-0.63,-0.22,-0.51,6.42,37.1668787,-97.738309,426
2.07,96.48,93144,704.42,333.26,278.13,20.1,109.44,1.11,-0.42,511.46,10.86,-2.51,-0.63,-0.23,-0.48,6.53,37.1668787,-97.738309,426
2.08,95.95,93116,706.91,335.76,279.09,20,109.01,1.13,1.49,511.34,10.92,-0.74,-0.63,-0.24,-0.47,6.63,37.1668787,-97.738309,426
2.09,95.95,93079,710.21,339.06,280.04,20.1,108.28,-1.62,-0.88,511.95,10.43,-0.98,-0.63,-0.25,-0.44,6.74,37.1668787,-97.738309,426
2.1,95.95,93079,710.21,339.06,280.99,20.1,107.91,1.02,3.51,511.09,8.6,-3.49,-0.63,-0.25,-0.43,6.83,37.1668787,-97.738309,426
2.11,95.42,93035,714.13,342.98,281.94,20.1,107.72,-0.46,0.81,510.24,6.83,-3.3,-0.62,-0.26,-0.4,6.9,37.1668787,-97.738309,426
2.12,95.42,92980,719.04,347.89,282.89,20,107.37,0.55,0.92,509.75,5.73,-4.71,-0.62,-0.27,-0.4,6.95,37.1668787,-97.738309,426
2.13,94.89,92980,719.04,347.89,283.83,20,107.1,1.12,-3.06,507.61,4.57,-5.87,-0.63,-0.25,-0.38,6.99,37.1668787,-97.738309,426
2.14,94.89,92945,722.16,351.01,284.77,20.1,107.32,0.05,-4.52,507.86,5.91,-3.79,-0.62,-0.26,-0.36,7.04,37.1668787,-97.738309,426
2.15,94.36,92872,728.68,357.53,285.71,20,107.11,3.35,0.32,508.04,8.23,-5.74,-0.62,-0.26,-0.35,7.1,37.1668787,-97.738309,426
2.16,93.83,92855,730.2,359.05,286.64,20,106.81,-0.09,-1.84,504.13,9.15,-3.18,-0.63,-0.24,-0.32,7.18,37.1668787,-97.738309,426
2.17,93.83,92802,734.94,363.78,287.57,20,106,2.03,-1.83,502.12,12.63,-1.84,-0.63,-0.23,-0.29,7.29,37.1668787,-97.738309,426
2.18,92.77,92794,735.65,364.5,288.5,20.1,105.9,-0.83,0.57,500.29,12.69,-1.72,-0.63,-0.22,-0.29,7.39,37.1668787,-97.738309,426
2.19,93.3,92745,740.03,368.88,289.42,20,105.26,-0.77,-0.57,499.25,13.54,-3.18,-0.63,-0.21,-0.27,7.48,37.1668787,-97.738309,426
2.2,93.3,92714,742.81,371.65,290.34,20.1,105.25,-0.55,3.54,497.66,11.95,-3.18,-0.63,-0.2,-0.26,7.56,37.1668787,-97.738309,426
2.21,92.77,92714,742.81,371.65,291.27,20.1,105.03,-1.76,2.14,492.48,7.68,-6.97,-0.63,-0.19,-0.24,7.57,37.1668787,-97.738309,426
2.21,92.77,92714,742.81,371.65,291.27,20.1,105.03,-1.76,2.14,492.48,7.68,-6.97,-0.63,-0.19,-0.24,7.57,37.1668787,-97.738309,426
2.22,92.77,92714,742.81,371.65,292.18,20.1,104.83,-2.25,1.82,491.74,6.52,-6.36,-0.63,-0.18,-0.24,7.57,37.1668787,-97.738309,426
2.23,92.77,92679,745.94,374.78,293.1,20,105.58,-3.8,4.58,491.93,4.2,-7.21,-0.63,-0.17,-0.23,7.54,37.1668787,-97.738309,426
2.24,91.71,92679,745.94,374.78,294,20,104.34,-0.61,2.64,488.02,2.55,-7.39,-0.63,-0.14,-0.21,7.5,37.1668787,-97.738309,426
2.25,90.65,92672,746.56,375.41,294.9,20,104.45,-0.99,1.33,489.97,2.55,-8.67,-0.63,-0.13,-0.21,7.43,37.1668787,-97.738309,426
2.26,89.05,92560,756.59,385.44,295.79,20,103.31,1.54,1.9,485.82,1.58,-8.19,-0.63,-0.12,-0.21,7.37,37.1668787,-97.738309,426
2.26,89.05,92560,756.59,385.44,295.79,20,103.31,1.54,1.9,485.82,1.58,-8.19,-0.63,-0.12,-0.21,7.37,37.1668787,-97.738309,426
2.27,87.46,92557,756.86,385.71,296.66,20,101.33,3.34,-4.15,482.28,2.49,-7.7,-0.63,-0.09,-0.2,7.31,37.1668787,-97.738309,426
2.28,85.34,92494,762.5,391.35,297.51,20,100.15,-3.03,-5.03,480.64,7.93,-11.06,-0.63,-0.07,-0.19,7.23,37.1668787,-97.738309,426
2.29,83.22,92458,765.73,394.58,298.35,20,98.35,-2.52,1.22,480.88,11.16,-12.28,-0.63,-0.05,-0.19,7.13,37.1668787,-97.738309,426
2.3,81.63,92418,769.32,398.16,299.17,20.1,96.54,0.9,2.74,476.55,10.06,-8.55,-0.63,-0.03,-0.18,7.07,37.1668787,-97.738309,426
2.31,81.63,92361,774.43,403.28,299.97,20.1,94.13,2.21,-2.45,474.84,10.61,-9.1,-0.63,-0.02,-0.19,6.99,37.1668787,-97.738309,426
2.32,78.98,92361,774.43,403.28,300.75,20.1,90.65,0.2,1.76,467.45,10.86,-2.45,-0.64,0,-0.18,6.97,37.1668787,-97.738309,426
2.33,72.62,92330,777.21,406.06,301.5,20,88.93,-1.7,-2.63,464.4,11.04,-1.35,-0.63,0.01,-0.2,6.95,37.1668787,-97.738309,426
2.34,72.62,92216,787.45,416.3,302.21,20,85.9,-1.13,1.39,464.4,10.43,-1.17,-0.63,0.03,-0.2,6.93,37.1668787,-97.738309,426
2.35,64.67,92216,787.45,416.3,302.88,20,80.08,-1.94,-0.58,460.49,10.92,-2.75,-0.64,0.06,-0.2,6.89,37.1668787,-97.738309,426
2.36,60.43,92213,787.72,416.57,303.51,20,77.96,-2.63,-0.06,459.21,11.83,-3.12,-0.63,0.07,-0.22,6.83,37.1668787,-97.738309,426
2.37,56.72,92179,790.77,419.62,304.09,20,73.61,-2.23,-1.41,455.37,11.16,-6.11,-0.63,0.08,-0.21,6.74,37.1668787,-97.738309,426
2.38,53.01,92221,787,415.85,304.64,20,69.68,-3.77,-2.52,452.19,11.59,-12.28,-0.64,0.11,-0.22,6.59,37.1668787,-97.738309,426
2.39,48.77,92202,788.71,417.55,305.16,20,66.29,-9.49,2.15,449.99,12.75,-7.09,-0.64,0.12,-0.23,6.47,37.1668787,-97.738309,426
2.4,46.65,92128,795.36,424.21,305.64,20,61.93,-1.24,2.15,447.43,12.2,-7.76,-0.64,0.13,-0.24,6.34,37.1668787,-97.738309,426
2.41,44,92040,803.27,432.12,306.1,20,58.26,-0.09,1.01,446.82,11.59,-9.04,-0.64,0.15,-0.25,6.21,37.1668787,-97.738309,426
2.42,44,91953,811.1,439.95,306.54,20,55.84,-0.34,0.88,447.74,10.92,-7.58,-0.64,0.16,-0.27,6.08,37.1668787,-97.738309,426
2.43,42.41,91953,811.1,439.95,306.96,20,53.38,-0.03,1.09,448.9,7.5,-6.17,-0.64,0.17,-0.28,5.99,37.1668787,-97.738309,426
2.44,38.7,91872,818.4,447.25,307.37,20,52.08,-0.6,1.9,448.35,6.03,-6.66,-0.63,0.17,-0.3,5.9,37.1668787,-97.738309,426
2.45,38.7,91753,829.13,457.98,307.75,20,50.24,-0.77,3.09,447.74,2.49,-3.06,-0.63,0.18,-0.31,5.86,37.1668787,-97.738309,426
2.46,35.52,91753,829.13,457.98,308.12,20,47.58,-2.45,-2.39,447.43,0.54,-4.95,-0.64,0.19,-0.33,5.82,37.1668787,-97.738309,426
2.47,33.4,91672,836.44,465.29,308.46,20,46.62,-0.94,-1.34,447.92,0.6,-5.13,-0.63,0.19,-0.34,5.79,37.1668787,-97.738309,426
2.48,33.4,91542,848.18,477.03,308.77,20,44.56,-0.37,-0.53,450.24,1.88,-6.6,-0.63,0.19,-0.36,5.74,37.1668787,-97.738309,426
2.49,26.5,91542,848.18,477.03,309.06,20,41.77,-3.27,-4.04,451.46,4.39,-3.67,-0.64,0.2,-0.38,5.69,37.1668787,-97.738309,426
2.5,23.32,91482,853.61,482.45,309.31,20,40.05,-2.45,-3.63,453.78,6.03,-5.26,-0.63,0.2,-0.39,5.62,37.1668787,-97.738309,426
2.51,19.08,91361,864.55,493.4,309.53,20,35.59,-0.85,-1.67,453.84,8.84,-4.59,-0.63,0.2,-0.41,5.52,37.1668787,-97.738309,426
2.52,15.9,91310,869.17,498.02,309.71,20,31.14,-2.07,-0.91,453.9,10.18,-1.29,-0.64,0.2,-0.42,5.42,37.1668787,-97.738309,426
2.53,15.9,91252,874.42,503.27,309.87,20,27.53,-3.85,-0.78,453.72,10.98,-3.18,-0.64,0.2,-0.44,5.31,37.1668787,-97.738309,426
2.54,11.66,91252,874.42,503.27,309.99,20,21.83,-3.7,-0.63,451.89,11.89,-4.52,-0.64,0.2,-0.45,5.19,37.1668787,-97.738309,426
2.55,6.36,91217,877.6,506.44,310.09,20,20.16,-3.16,-1.91,453.05,11.65,-6.9,-0.63,0.18,-0.47,5.08,37.1668787,-97.738309,426
2.56,6.36,91088,889.29,518.14,310.15,20,17.42,-2.83,-0.32,452.44,11.47,-2.57,-0.63,0.18,-0.48,4.98,37.1668787,-97.738309,426
2.57,0.53,91088,889.29,518.14,310.18,20,13.08,-1.82,0.9,451.76,7.5,-4.59,-0.63,0.18,-0.49,4.92,37.1668787,-97.738309,426
2.58,-2.12,90972,899.83,528.67,310.19,20,11.58,-2.23,-0.2,451.64,5.91,-3.24,-0.63,0.16,-0.51,4.88,37.1668787,-97.738309,426
2.58,-2.12,90972,899.83,528.67,310.19,20,11.58,-2.23,-0.2,451.64,5.91,-3.24,-0.63,0.16,-0.51,4.88,37.1668787,-97.738309,426
2.59,-2.12,90860,910,538.85,310.17,20,8.96,-3.36,-1.21,448.47,5.24,-6.84,-0.63,0.15,-0.53,4.87,37.1668787,-97.738309,426
2.6,-6.89,90860,910,538.85,310.12,20,5.46,-4.1,-0.54,448.22,5.97,-8.74,-0.63,0.15,-0.53,4.86,37.1668787,-97.738309,426
2.61,-9.01,90845,911.37,540.21,310.05,20,4.27,-4.03,-1.69,453.66,7.31,-9.65,-0.63,0.12,-0.55,4.87,37.1668787,-97.738309,426
2.62,-11.66,90699,924.65,553.5,309.98,20,2.53,-2.56,2.46,452.19,6.28,-7.52,-0.63,0.11,-0.56,4.88,37.1668787,-97.738309,426
2.63,-7.42,90582,935.31,564.16,309.89,20,-0.64,-2.33,-0.21,454.69,4.63,-5.56,-0.63,0.1,-0.56,4.89,37.1668787,-97.738309,426
2.64,-7.42,90428,949.36,578.21,309.79,20,-3.17,-3.82,-3.06,453.05,3.71,-6.97,-0.63,0.09,-0.58,4.93,37.1668787,-97.738309,426
2.65,-10.6,90428,949.36,578.21,309.67,20,-0.81,-1.77,-5.21,452.68,7.31,-7.15,-0.63,0.07,-0.58,4.96,37.1668787,-97.738309,426
2.66,-16.43,90363,955.29,584.14,309.53,20,-4,-2.68,0.47,447.8,8.54,-8,-0.63,0.04,-0.58,5,37.1668787,-97.738309,426
2.67,-16.43,90278,963.06,591.91,309.37,20,-5.65,-2.31,-2.04,446.03,7.74,-3.36,-0.62,0.02,-0.59,5.01,37.1668787,-97.738309,426
2.68,-22.79,90278,963.06,591.91,309.17,20,-10.62,-3.86,-1.16,444.68,4.63,-5.62,-0.63,0.02,-0.6,5.06,37.1668787,-97.738309,426
2.69,-24.91,90246,965.99,594.83,308.94,20,-11.47,-3.39,1.14,444.68,3.41,-5.74,-0.63,-0.01,-0.6,5.11,37.1668787,-97.738309,426
2.7,-27.03,90227,967.72,596.57,308.69,20,-14.5,-3.62,-4.15,445.6,3.84,-6.42,-0.63,-0.03,-0.6,5.18,37.1668787,-97.738309,426
2.71,-29.68,90241,966.44,595.29,308.41,20,-16.9,-1.39,-1.98,445.72,5.48,-5.07,-0.63,-0.04,-0.59,5.23,37.1668787,-97.738309,426
2.72,-30.75,90229,967.54,596.39,308.12,20,-19.42,-2.12,-5.42,440.29,7.01,1.03,-0.63,-0.05,-0.61,5.23,37.1668787,-97.738309,426
2.73,-32.34,90164,973.48,602.33,307.81,20,-20.93,-5.03,-2.54,440.41,8.78,-1.17,-0.63,-0.07,-0.6,5.26,37.1668787,-97.738309,426
2.74,-33.93,90204,969.83,598.67,307.48,20,-23.29,-3.46,-2.85,440.78,10.06,1.52,-0.63,-0.09,-0.59,5.28,37.1668787,-97.738309,426
2.75,-33.93,90175,972.48,601.33,307.15,20,-24.71,-4.4,-1.18,440.47,10.79,-3.61,-0.63,-0.11,-0.58,5.36,37.1668787,-97.738309,426
2.76,-34.46,90175,972.48,601.33,306.8,20,-25.29,-3.19,1.11,439.62,9.51,0.72,-0.63,-0.12,-0.58,5.4,37.1668787,-97.738309,426
2.76,-34.46,90175,972.48,601.33,306.8,20,-25.29,-3.19,1.11,439.62,9.51,0.72,-0.63,-0.12,-0.58,5.4,37.1668787,-97.738309,426
2.77,-36.58,90169,973.03,601.87,306.45,20,-26.98,-5.23,-4.4,439.13,7.68,-0.68,-0.62,-0.15,-0.57,5.45,37.1668787,-97.738309,426
2.78,-36.58,90142,975.5,604.34,306.09,20,-27.55,-4.62,0.28,438.46,7.8,-3.18,-0.62,-0.16,-0.57,5.52,37.1668787,-97.738309,426
2.79,-38.17,90142,975.5,604.34,305.71,20,-28.5,-3.17,-3.19,441.33,8.78,-4.28,-0.62,-0.17,-0.54,5.62,37.1668787,-97.738309,426
2.8,-38.17,90126,976.96,605.81,305.33,20,-28.54,-6.09,-1.92,440.72,9.57,-5.62,-0.62,-0.19,-0.54,5.73,37.1668787,-97.738309,426
2.81,-39.23,90114,978.06,606.91,304.95,20,-29.39,-3.47,-0.67,438.82,9.27,-7.52,-0.62,-0.2,-0.54,5.85,37.1668787,-97.738309,426
2.82,-40.29,90096,979.71,608.55,304.56,20,-30.31,-2.22,-0.84,436.63,9.39,-6.84,-0.63,-0.21,-0.52,5.96,37.1668787,-97.738309,426
2.83,-40.29,90070,982.09,610.94,304.16,20,-30.93,-3.34,-1.58,436.63,7.93,-6.05,-0.62,-0.21,-0.51,6.06,37.1668787,-97.738309,426
2.84,-40.29,90045,984.38,613.22,303.76,20,-31.68,-1.18,-0.51,437.3,8.05,-4.52,-0.63,-0.22,-0.49,6.15,37.1668787,-97.738309,426
2.85,-40.82,90046,984.29,613.13,303.35,20,-31.37,-4.82,-0.68,436.08,6.28,-2.2,-0.62,-0.23,-0.48,6.22,37.1668787,-97.738309,426
2.86,-40.82,90027,986.03,614.87,302.95,20,-31.81,-2.72,-2.81,437.12,5.79,-3.79,-0.62,-0.24,-0.46,6.28,37.1668787,-97.738309,426
2.87,-41.35,90027,986.03,614.87,302.54,20,-32.07,-2.73,-2.81,437.97,6.22,-2.51,-0.62,-0.24,-0.44,6.35,37.1668787,-97.738309,426
2.88,-41.35,90025,986.21,615.06,302.13,20,-32.25,-4.32,-2.83,437.66,7.62,-4.4,-0.62,-0.26,-0.43,6.43,37.1668787,-97.738309,426
2.89,-41.35,90004,988.13,616.98,301.72,20,-32.23,-3.67,-0.83,437.73,7.5,-2.08,-0.62,-0.26,-0.42,6.51,37.1668787,-97.738309,426
2.9,-41.35,90004,988.13,616.98,301.3,20,-32.45,-4.65,-3.93,438.7,7.8,-4.4,-0.62,-0.25,-0.39,6.58,37.1668787,-97.738309,426
2.9,-41.35,90004,988.13,616.98,301.3,20,-32.45,-4.65,-3.93,438.7,7.8,-4.4,-0.62,-0.25,-0.39,6.58,37.1668787,-97.738309,426
2.91,-42.41,90006,987.95,616.8,300.87,20,-32.54,-6.5,-4.07,439.13,10.18,-5.2,-0.62,-0.27,-0.4,6.68,37.1668787,-97.738309,426
2.92,-44.53,90032,985.57,614.42,300.43,20,-33.67,-2.28,-2.16,441.39,12.5,-6.66,-0.62,-0.27,-0.37,6.79,37.1668787,-97.738309,426
2.93,-47.71,90009,987.68,616.52,299.98,20,-35.73,-0.39,-1.36,443.77,12.75,-6.36,-0.62,-0.25,-0.36,6.9,37.1668787,-97.738309,426
2.94,-48.24,89978,990.52,619.36,299.52,20,-39.03,-3.38,-1.41,442.12,12.69,-3.61,-0.62,-0.25,-0.34,7.01,37.1668787,-97.738309,426
2.95,-47.71,89940,994,622.85,299.05,20,-39.29,-1.7,-0.6,441.21,10.06,-4.65,-0.63,-0.24,-0.33,7.09,37.1668787,-97.738309,426
2.96,-47.71,89906,997.12,625.96,298.58,20,-38.59,-3.07,0.75,440.59,7.25,-2.33,-0.62,-0.24,-0.31,7.14,37.1668787,-97.738309,426
2.97,-47.71,89829,1004.18,633.03,298.1,20,-38.83,-2.42,-0.91,439.5,5.61,-3.97,-0.62,-0.23,-0.29,7.17,37.1668787,-97.738309,426
2.98,-47.18,89829,1004.18,633.03,297.63,20,-38.68,-2.8,0.1,439.86,3.53,-4.46,-0.62,-0.22,-0.28,7.18,37.1668787,-97.738309,426
2.99,-46.65,89784,1008.31,637.16,297.17,20,-38.02,-3.25,-2.15,438.76,2.37,-4.52,-0.62,-0.22,-0.26,7.17,37.1668787,-97.738309,426
3,-46.65,89705,1015.57,644.41,296.7,20,-38.17,-0.55,-1.74,438.58,2,-6.84,-0.62,-0.21,-0.25,7.14,37.1668787,-97.738309,426
3.01,-46.65,89705,1015.57,644.41,296.23,20,-38.13,-2.61,-3.27,438.46,3.41,-6.42,-0.63,-0.19,-0.25,7.12,37.1668787,-97.738309,426
3.02,-46.65,89614,1023.93,652.78,295.77,20,-37.94,-2.08,-1.51,440.59,3.84,-4.46,-0.62,-0.19,-0.23,7.11,37.1668787,-97.738309,426
3.03,-46.65,89570,1027.98,656.82,295.31,20,-37.5,-1.07,-5.92,441.82,5.18,-5.62,-0.62,-0.17,-0.22,7.1,37.1668787,-97.738309,426
3.04,-46.12,89495,1034.88,663.72,294.85,20,-37.72,1.26,-3.01,443.71,7.5,-4.52,-0.63,-0.15,-0.22,7.11,37.1668787,-97.738309,426
3.05,-46.12,89460,1038.1,666.95,294.39,20,-37.21,-2.36,-4.52,443.89,8.72,-2.45,-0.63,-0.13,-0.21,7.13,37.1668787,-97.738309,426
3.06,-46.12,89418,1041.97,670.81,293.93,20,-37.22,-0.91,-1.49,443.89,9.7,-2.39,-0.63,-0.12,-0.2,7.15,37.1668787,-97.738309,426
3.07,-45.59,89362,1047.13,675.97,293.48,20,-37.31,-1.59,-1.52,443.83,8.17,1.7,-0.63,-0.1,-0.19,7.2,37.1668787,-97.738309,426
3.08,-45.59,89330,1050.08,678.92,293.02,20,-36.89,-1.46,-1.9,444.87,8.11,0.18,-0.63,-0.08,-0.2,7.23,37.1668787,-97.738309,426
3.09,-45.59,89330,1050.08,678.92,292.57,20,-36.41,-2.74,-0.68,444.68,6.58,-1.29,-0.63,-0.06,-0.2,7.23,37.1668787,-97.738309,426
3.1,-45.59,89277,1054.96,683.81,292.12,20,-36.47,-2.88,-1.71,445.97,5.3,-0.56,-0.62,-0.05,-0.2,7.24,37.1668787,-97.738309,426
3.11,-45.59,89207,1061.42,690.27,291.67,20,-36.37,-1.69,-0.59,446.58,3.96,-3.79,-0.62,-0.04,-0.19,7.2,37.1668787,-97.738309,426
3.12,-44.53,89207,1061.42,690.27,291.22,20,-36.28,-2.27,-2.74,446.88,2.49,-1.59,-0.63,-0.01,-0.19,7.19,37.1668787,-97.738309,426
3.13,-45.06,89160,1065.76,694.61,290.77,20,-35.91,-2.66,-3.21,447.49,3.53,-4.95,-0.62,0,-0.19,7.14,37.1668787,-97.738309,426
3.14,-44.53,89091,1072.13,700.98,290.33,20,-36.2,-0.58,-2.3,448.16,4.45,-4.95,-0.62,0.02,-0.21,7.09,37.1668787,-97.738309,426
3.15,-44.53,89061,1074.9,703.75,289.88,20,-35.43,-0.01,-1.94,449.63,4.51,-6.36,-0.63,0.04,-0.21,7.02,37.1668787,-97.738309,426
3.16,-44,89021,1078.6,707.45,289.44,20,-35.66,-1.35,-5.88,451.4,6.83,-2.2,-0.63,0.06,-0.22,6.98,37.1668787,-97.738309,426
3.17,-43.47,88969,1083.41,712.26,289.01,20,-35.22,-0.8,-1.45,452.56,8.72,-4.71,-0.63,0.08,-0.21,6.91,37.1668787,-97.738309,426
3.18,-44,88929,1087.11,715.96,288.57,20,-34.93,-1.41,-3.08,453.29,8.05,-0.74,-0.63,0.09,-0.23,6.87,37.1668787,-97.738309,426
3.19,-44,88909,1088.96,717.81,288.13,20,-35.24,-2.89,-4.39,455.18,9.15,-3.3,-0.63,0.11,-0.24,6.8,37.1668787,-97.738309,426
3.2,-44,88909,1088.96,717.81,287.7,20,-35.18,-1.43,-4.27,458.23,10.73,-2.51,-0.63,0.12,-0.24,6.73,37.1668787,-97.738309,426
3.21,-43.47,88855,1093.96,722.8,287.26,20,-35,-4.25,-4.1,460.25,13.66,-3.36,-0.63,0.13,-0.26,6.62,37.1668369,-97.7378096,851
3.21,-43.47,88855,1093.96,722.8,287.26,20,-35,-4.25,-4.1,460.25,13.66,-3.36,-0.63,0.13,-0.26,6.62,37.1668369,-97.7378096,851
3.21,-43.47,88855,1093.96,722.8,287.26,20,-35,-4.25,-4.1,460.25,13.66,-3.36,-0.63,0.13,-0.26,6.62,37.1668369,-97.7378096,851
3.22,-43.47,88801,1098.96,727.81,286.83,20,-34.32,-3.09,-1.76,463.67,15.62,-3.06,-0.63,0.14,-0.28,6.5,37.1668369,-97.7378096,851
3.22,-43.47,88801,1098.96,727.81,286.83,20,-34.32,-3.09,-1.76,463.67,15.62,-3.06,-0.63,0.14,-0.28,6.5,37.1668369,-97.7378096,851
3.23,-43.47,88801,1098.96,727.81,286.4,20,-34.51,-1.85,-2.73,466.23,15.49,-4.34,-0.63,0.16,-0.27,6.37,37.1668369,-97.7378096,851
3.24,-43.47,88769,1101.92,730.77,285.96,20,-34.85,-2.2,0.23,467.02,15.19,-7.82,-0.63,0.16,-0.29,6.21,37.1668369,-97.7378096,851
3.25,-42.94,88707,1107.67,736.52,285.53,20,-34.38,-1.11,0.44,466.78,11.89,-7.76,-0.63,0.17,-0.3,6.07,37.1668369,-97.7378096,851
3.26,-43.47,88675,1110.64,739.48,285.11,20,-34.18,-1.3,-0.04,464.22,8.72,-5.5,-0.63,0.19,-0.31,5.96,37.1668369,-97.7378096,851
3.27,-42.94,88631,1114.72,743.56,284.68,20,-34.55,-3.6,-0.24,463.67,7.19,-6.29,-0.63,0.2,-0.34,5.87,37.1668369,-97.7378096,851
3.28,-42.41,88618,1115.92,744.77,284.25,20,-33.73,-2.91,-1.4,465.5,5.36,-10.99,-0.63,0.2,-0.34,5.77,37.1668369,-97.7378096,851
3.29,-41.88,88580,1119.45,748.3,283.83,20,-33.4,-1.09,0.54,467.94,4.02,-10.81,-0.63,0.2,-0.37,5.7,37.1668369,-97.7378096,851
3.3,-41.88,88542,1122.98,751.82,283.41,20,-33.21,0,0.15,468.61,2.55,-11.97,-0.63,0.2,-0.38,5.64,37.1668369,-97.7378096,851
3.31,-42.41,88542,1122.98,751.82,282.99,20,-33.59,-0.02,-2.12,472.09,1.88,-9.77,-0.63,0.2,-0.4,5.61,37.1668369,-97.7378096,851
3.32,-41.35,88534,1123.72,752.57,282.58,20,-32.93,-0.32,-1.72,472.46,1.27,-9.77,-0.63,0.19,-0.43,5.59,37.1668369,-97.7378096,851
3.33,-41.35,88468,1129.85,758.7,282.16,20,-32.64,0.81,-2.38,472.88,1.33,-7.21,-0.63,0.19,-0.44,5.57,37.1668369,-97.7378096,851
3.34,-41.35,88468,1129.85,758.7,281.75,20,-32.96,1.44,-4.41,471.48,2.25,-3.91,-0.63,0.19,-0.45,5.56,37.1668369,-97.7378096,851
3.35,-41.35,88439,1132.55,761.39,281.34,20,-32.5,-1.14,-1.81,471.85,3.9,-3.49,-0.62,0.18,-0.47,5.53,37.1668369,-97.7378096,851
3.36,-41.35,88360,1139.89,768.74,280.93,20,-32.61,1.64,-3.23,471.78,6.28,-2.57,-0.63,0.17,-0.49,5.47,37.1668369,-97.7378096,851
3.37,-40.82,88350,1140.82,769.67,280.52,20,-32.3,-0.51,-0.97,471.6,5.97,-0.8,-0.63,0.17,-0.5,5.42,37.1668369,-97.7378096,851
3.38,-41.35,88300,1145.47,774.32,280.11,20,-32.04,-0.38,-4.11,472.88,7.13,-0.74,-0.63,0.16,-0.51,5.36,37.1668369,-97.7378096,851
3.39,-41.35,88269,1148.36,777.2,279.7,20,-32.31,-0.96,1.34,471.24,5.54,0.79,-0.63,0.15,-0.53,5.31,37.1668369,-97.7378096,851
3.4,-40.82,88238,1151.24,780.09,279.29,20,-32.42,-0.94,-6.23,472.82,6.09,1.46,-0.63,0.14,-0.54,5.25,37.1668369,-97.7378096,851
3.41,-40.82,88199,1154.87,783.72,278.88,20,-31.87,-3.32,-1.83,475.57,7.13,-2.88,-0.63,0.13,-0.55,5.22,37.1668369,-97.7378096,851
3.42,-40.82,88199,1154.87,783.72,278.47,20,-31.73,-1.72,-4.28,479.78,7.99,-0.68,-0.63,0.11,-0.56,5.17,37.1668369,-97.7378096,851
3.43,-40.82,88183,1156.36,785.21,278.07,20,-31.69,-2.06,-1.02,479.66,9.33,-5.01,-0.62,0.09,-0.58,5.16,37.1668369,-97.7378096,851
3.44,-40.82,88123,1161.96,790.8,277.66,20,-31.61,-1.2,-4.53,480.51,9.51,-6.97,-0.62,0.07,-0.58,5.17,37.1668369,-97.7378096,851
3.45,-39.76,88123,1161.96,790.8,277.26,20,-31.09,-2.6,1.25,481.37,10.79,-7.88,-0.63,0.06,-0.58,5.2,37.1668369,-97.7378096,851
3.46,-40.29,88104,1163.73,792.57,276.86,20,-31.09,-1.05,-1.86,481.18,8.54,-6.11,-0.62,0.03,-0.59,5.23,37.1668369,-97.7378096,851
3.47,-39.76,88030,1170.63,799.47,276.46,20,-31.11,-3.23,-0.98,481.61,8.47,-7.39,-0.62,0.02,-0.59,5.29,37.1668369,-97.7378096,851
3.48,-39.76,88006,1172.87,801.71,276.06,20,-31.11,-0.35,0.49,482.83,6.16,-9.35,-0.62,0.01,-0.6,5.37,37.1668369,-97.7378096,851
3.49,-39.76,87965,1176.69,805.54,275.67,20,-30.85,-0.44,-1.11,482.34,4.45,-9.71,-0.63,-0.01,-0.6,5.47,37.1668369,-97.7378096,851
3.5,-39.23,87953,1177.81,806.66,275.27,20,-30.77,0.77,-0.93,481.86,3.41,-6.66,-0.63,-0.03,-0.59,5.54,37.1668369,-97.7378096,851
3.51,-39.23,87934,1179.59,808.43,274.88,20,-30.41,0.68,-1.78,481.43,2.43,-6.84,-0.63,-0.05,-0.6,5.61,37.1668369,-97.7378096,851
3.52,-39.23,87927,1180.24,809.09,274.49,20,-30.32,1.26,-1.24,481.67,2.13,-4.77,-0.63,-0.07,-0.59,5.66,37.1668369,-97.7378096,851
3.53,-39.23,87927,1180.24,809.09,274.1,20,-30.44,0.94,-2.45,481.61,2.62,-3.49,-0.62,-0.09,-0.6,5.7,37.1668369,-97.7378096,851
3.54,-39.23,87868,1185.75,814.6,273.71,20,-30.16,0.52,-2.41,481.37,3.16,-0.68,-0.62,-0.12,-0.58,5.72,37.1668369,-97.7378096,851
3.54,-39.23,87868,1185.75,814.6,273.71,20,-30.16,0.52,-2.41,481.37,3.16,-0.68,-0.62,-0.12,-0.58,5.72,37.1668369,-97.7378096,851
3.55,-39.23,87830,1189.3,818.15,273.32,20,-30.18,1.09,-2.33,480.27,3.96,-1.47,-0.62,-0.14,-0.58,5.76,37.1668369,-97.7378096,851
3.56,-38.7,87830,1189.3,818.15,272.93,20,-30.27,-1.41,-2.33,480.76,3.96,0.91,-0.62,-0.14,-0.57,5.77,37.1668369,-97.7378096,851
3.57,-38.7,87815,1190.7,819.55,272.54,20,-29.76,-0.39,-2.05,481.55,4.45,2.13,-0.62,-0.17,-0.56,5.78,37.1668369,-97.7378096,851
3.58,-38.7,87749,1196.87,825.72,272.16,20,-29.81,-0.85,-2.78,481.18,4.51,-0.74,-0.62,-0.18,-0.55,5.82,37.1668369,-97.7378096,851
3.59,-38.7,87749,1196.87,825.72,271.77,20,-29.79,-1.19,-2.83,482.47,5.48,-2.94,-0.62,-0.19,-0.53,5.88,37.1668369,-97.7378096,851
3.6,-38.7,87702,1201.27,830.12,271.39,20,-29.77,-1.46,-3.33,483.75,6.52,-2.27,-0.62,-0.21,-0.52,5.95,37.1668369,-97.7378096,851
3.61,-38.7,87658,1205.39,834.23,271,20,-29.4,-2.51,-3.16,484.42,8.05,-2.02,-0.62,-0.22,-0.51,6.03,37.1668369,-97.7378096,851
3.62,-38.17,87644,1206.7,835.55,270.62,20,-29.66,-1.8,-3.24,486.74,9.27,-4.46,-0.62,-0.22,-0.49,6.13,37.1668369,-97.7378096,851
3.63,-38.17,87590,1211.76,840.6,270.24,20,-29.13,-0.48,-2.28,487.59,10.12,-4.77,-0.62,-0.23,-0.49,6.24,37.1668369,-97.7378096,851
3.64,-38.7,87590,1211.76,840.6,269.86,20,-29.21,-1.58,-1.93,487.04,10.43,-5.26,-0.63,-0.24,-0.47,6.36,37.1668369,-97.7378096,851
3.65,-37.64,87568,1213.82,842.66,269.48,20,-28.88,-1.02,-1.42,489.49,10.55,-5.13,-0.62,-0.26,-0.44,6.47,37.1668369,-97.7378096,851
3.66,-37.64,87529,1217.47,846.32,269.1,20,-28.93,-0.75,-0.99,487.9,9.27,-4.04,-0.62,-0.26,-0.43,6.57,37.1668369,-97.7378096,851
3.67,-38.17,87529,1217.47,846.32,268.72,20,-28.99,-0.85,-0.65,487.35,8.6,-7.76,-0.62,-0.25,-0.41,6.65,37.1668369,-97.7378096,851
3.68,-38.17,87511,1219.16,848,268.35,20,-29,1.15,0.34,485.09,6.64,-4.34,-0.62,-0.27,-0.4,6.72,37.1668369,-97.7378096,851
3.69,-38.17,87472,1222.81,851.66,267.97,20,-28.91,-0.65,-0.35,483.87,4.57,-4.04,-0.62,-0.26,-0.38,6.76,37.1668369,-97.7378096,851
3.7,-37.64,87472,1222.81,851.66,267.59,20,-28.68,-0.65,-0.87,482.77,2.43,-4.28,-0.62,-0.25,-0.35,6.77,37.1668369,-97.7378096,851
3.71,-37.64,87449,1224.97,853.82,267.22,20,-28.4,0.26,-1.62,482.41,1.33,-4.22,-0.62,-0.26,-0.34,6.78,37.1668369,-97.7378096,851
3.72,-37.11,87398,1229.75,858.6,266.85,20,-28.44,-0.72,-1.52,481.49,1.21,-4.4,-0.62,-0.26,-0.33,6.77,37.1668369,-97.7378096,851
3.73,-37.11,87369,1232.48,861.32,266.47,20,-28.2,0.86,-1.97,481.73,1.64,-4.83,-0.62,-0.24,-0.3,6.77,37.1668369,-97.7378096,851
3.74,-37.11,87330,1236.14,864.98,266.1,20,-28.06,0.07,-3.54,479.05,1.94,-5.62,-0.63,-0.23,-0.29,6.76,37.1668369,-97.7378096,851
3.75,-37.11,87330,1236.14,864.98,265.74,20,-27.86,0.97,-0.84,480.51,2.49,-3.06,-0.62,-0.22,-0.28,6.76,37.1668369,-97.7378096,851
3.76,-37.11,87300,1238.95,867.8,265.37,20,-28,-1.61,-4.17,480.15,2.74,-3.06,-0.62,-0.22,-0.26,6.76,37.1668369,-97.7378096,851
3.77,-37.11,87253,1243.37,872.22,265,20,-27.91,0.68,-3.74,475.63,3.29,-4.71,-0.62,-0.21,-0.25,6.75,37.1668369,-97.7378096,851
3.78,-36.58,87253,1243.37,872.22,264.63,20,-27.84,-0.88,-5.3,477.83,6.64,-3.36,-0.63,-0.18,-0.24,6.78,37.1668369,-97.7378096,851
3.79,-36.58,87222,1246.28,875.13,264.27,20,-27.69,0.63,-2.73,481.79,8.84,-4.4,-0.62,-0.18,-0.23,6.8,37.1668369,-97.7378096,851
3.8,-36.58,87191,1249.2,878.04,263.9,20,-27.6,-0.57,-2.8,483.32,11.16,-3.43,-0.62,-0.16,-0.22,6.83,37.1668369,-97.7378096,851
3.81,-36.58,87140,1253.99,882.84,263.54,20,-27.75,0.39,-0.82,482.71,11.1,-2.27,-0.63,-0.14,-0.21,6.87,37.1668369,-97.7378096,851
3.82,-36.58,87113,1256.53,885.38,263.18,20,-27.48,-0.71,-1.18,481.37,9.7,-1.66,-0.63,-0.12,-0.21,6.9,37.1668369,-97.7378096,851
3.83,-36.58,87078,1259.82,888.67,262.81,20,-27.39,1.26,0.82,479.23,7.74,-0.68,-0.63,-0.1,-0.2,6.93,37.1668369,-97.7378096,851
3.84,-36.05,87059,1261.61,890.46,262.45,20,-27.68,-1.66,-1.07,476.36,5.36,-0.25,-0.63,-0.08,-0.2,6.94,37.1668369,-97.7378096,851
3.85,-36.05,87030,1264.34,893.19,262.09,20,-27.21,-3.05,-0.3,476.48,4.39,-4.28,-0.62,-0.07,-0.19,6.91,37.1668369,-97.7378096,851
3.86,-36.05,87030,1264.34,893.19,261.73,20,-27.21,-1.22,0.23,476.85,1.64,-3.79,-0.63,-0.05,-0.2,6.88,37.1668369,-97.7378096,851
3.86,-36.05,87030,1264.34,893.19,261.73,20,-27.21,-1.22,0.23,476.85,1.64,-3.79,-0.63,-0.05,-0.2,6.88,37.1668369,-97.7378096,851
3.87,-36.05,87024,1264.91,893.75,261.37,20,-27.22,-1.06,-1.58,478.07,1.03,-6.9,-0.62,-0.03,-0.2,6.81,37.1668369,-97.7378096,851
3.88,-36.05,86971,1269.9,898.75,261.02,20,-27.04,0.27,-0.83,477.22,0.72,-7.45,-0.62,-0.02,-0.19,6.74,37.1668369,-97.7378096,851
3.89,-36.05,86971,1269.9,898.75,260.66,20,-26.92,-0.74,-2.77,476.12,0.84,-7.7,-0.63,0.01,-0.2,6.66,37.1668369,-97.7378096,851
3.9,-35.52,86925,1274.23,903.08,260.3,20,-26.88,0.3,-1.13,477.71,2.31,-8,-0.62,0.02,-0.2,6.58,37.1668369,-97.7378096,851
3.91,-36.05,86894,1277.16,906,259.94,20,-26.66,1.93,-1.63,476.67,2.37,-6.9,-0.62,0.04,-0.21,6.5,37.1668369,-97.7378096,851
3.92,-36.05,86841,1282.15,911,259.59,20,-26.77,-0.39,-3.96,477.83,4.08,-4.16,-0.63,0.06,-0.21,6.45,37.1668369,-97.7378096,851
3.93,-35.52,86841,1282.15,911,259.23,20,-26.89,1.24,-0.75,478.99,4.63,-5.2,-0.63,0.08,-0.22,6.39,37.1668369,-97.7378096,851
3.94,-34.99,86807,1285.36,914.21,258.88,20,-26.58,2.29,-3.54,479.23,5.24,-3.43,-0.63,0.1,-0.23,6.33,37.1668369,-97.7378096,851
3.95,-35.52,86771,1288.76,917.6,258.53,20,-26.19,1.79,-2.16,477.28,5.73,-1.59,-0.63,0.11,-0.24,6.29,37.1668369,-97.7378096,851
3.96,-35.52,86759,1289.89,918.74,258.18,20,-26.4,0.44,-1.99,477.34,5.85,-0.56,-0.63,0.13,-0.24,6.25,37.1668369,-97.7378096,851
3.97,-34.99,86759,1289.89,918.74,257.83,20,-26.16,-0.5,-2.61,477.09,5.79,1.64,-0.63,0.14,-0.25,6.22,37.1668369,-97.7378096,851
3.98,-34.99,86747,1291.02,919.87,257.48,20,-26.18,-1.46,-2.48,477.89,6.16,2.37,-0.62,0.14,-0.28,6.2,37.1668369,-97.7378096,851
3.99,-34.99,86672,1298.11,926.95,257.13,20,-26.08,-0.57,-1.6,478.86,5.61,0.05,-0.63,0.16,-0.29,6.16,37.1668369,-97.7378096,851
4,-34.99,86672,1298.11,926.95,256.78,20,-25.81,-0.46,-1.13,478.25,5.91,0.6,-0.63,0.17,-0.3,6.11,37.1668369,-97.7378096,851
4.01,-34.99,86647,1300.47,929.31,256.43,20,-26.17,-1.38,-3.23,478.93,5.24,-0.98,-0.62,0.17,-0.33,6.06,37.1668369,-97.7378096,851
4.02,-35.52,86598,1305.1,933.94,256.08,20,-26.05,-0.7,-1.28,479.35,5.97,-3.3,-0.63,0.18,-0.34,6,37.1668369,-97.7378096,851
4.03,-34.99,86566,1308.12,936.97,255.73,20,-26.19,-1.36,-1.69,479.48,5.61,-3.43,-0.63,0.2,-0.34,5.93,37.1668369,-97.7378096,851
4.04,-34.99,86537,1310.87,939.71,255.38,20,-25.86,-0.21,-2.75,480.02,6.46,-5.01,-0.63,0.2,-0.37,5.85,37.1668369,-97.7378096,851
4.05,-34.99,86509,1313.51,942.36,255.03,20,-25.81,-1.14,-1.41,479.17,6.34,-4.59,-0.63,0.2,-0.4,5.78,37.1668369,-97.7378096,851
4.06,-34.46,86497,1314.65,943.5,254.69,20,-25.8,-1.02,-1.27,480.09,5.79,-5.56,-0.63,0.2,-0.4,5.72,37.1668369,-97.7378096,851
4.07,-34.46,86463,1317.87,946.71,254.34,20,-25.37,-0.49,-1.31,479.6,5.3,-7.09,-0.63,0.2,-0.43,5.66,37.1668369,-97.7378096,851
4.08,-34.46,86463,1317.87,946.71,254,20,-25.33,-0.81,-1.51,479.48,4.81,-6.48,-0.63,0.2,-0.43,5.62,37.1668369,-97.7378096,851
4.09,-34.46,86437,1320.33,949.18,253.65,20,-25.21,0.31,-1.93,478.93,5.06,-7.33,-0.62,0.18,-0.45,5.58,37.1668369,-97.7378096,851
4.1,-34.46,86393,1324.5,953.34,253.31,20,-25.22,0.19,-1.33,478.56,5.24,-7.45,-0.63,0.17,-0.47,5.55,37.1668369,-97.7378096,851
4.11,-34.46,86393,1324.5,953.34,252.97,20,-25.34,0.11,-1.92,476.61,4.63,-5.07,-0.63,0.18,-0.49,5.52,37.1668369,-97.7378096,851
4.12,-33.93,86368,1326.86,955.71,252.63,20,-25.08,1.31,-0.94,475.94,4.45,-7.21,-0.62,0.16,-0.51,5.51,37.1668369,-97.7378096,851
4.13,-33.93,86314,1331.98,960.83,252.29,20,-24.98,0.47,-1.39,475.94,3.96,-5.62,-0.62,0.15,-0.51,5.51,37.1668369,-97.7378096,851
4.14,-33.93,86284,1334.82,963.67,251.95,20,-25.05,0.33,-2.27,475.14,3.9,-3.67,-0.63,0.15,-0.53,5.5,37.1668369,-97.7378096,851
4.15,-33.93,86249,1338.14,966.99,251.61,20,-24.87,0.45,-1.11,475.2,4.51,-3.3,-0.63,0.14,-0.54,5.48,37.1668369,-97.7378096,851
4.16,-33.93,86230,1339.95,968.79,251.28,20,-24.85,0.2,-2.21,473.92,4.2,-1.72,-0.63,0.12,-0.55,5.47,37.1668369,-97.7378096,851
4.17,-33.4,86202,1342.6,971.45,250.94,20,-24.96,-0.73,-2.28,475.2,4.57,-2.94,-0.63,0.11,-0.56,5.46,37.1668369,-97.7378096,851
4.18,-33.4,86175,1345.16,974.01,250.6,20,-24.38,0.1,-0.52,476.24,4.81,-5.13,-0.63,0.09,-0.58,5.48,37.1668369,-97.7378096,851
4.18,-33.4,86175,1345.16,974.01,250.6,20,-24.38,0.1,-0.52,476.24,4.81,-5.13,-0.63,0.09,-0.58,5.48,37.1668369,-97.7378096,851
4.19,-33.93,86175,1345.16,974.01,250.27,20,-24.76,-0.06,-3.16,475.14,5.12,-3.91,-0.63,0.08,-0.58,5.49,37.1668369,-97.7378096,851
4.2,-33.4,86146,1347.92,976.76,249.94,20,-24.71,-0.25,-1.41,475.08,5.42,-3.36,-0.62,0.04,-0.58,5.5,37.1668369,-97.7378096,851
4.21,-33.4,86104,1351.9,980.75,249.6,20,-24.54,0.82,-1.33,474.71,5.67,-2.75,-0.62,0.03,-0.59,5.51,37.1668369,-97.7378096,851
4.22,-33.4,86104,1351.9,980.75,249.27,20,-24.46,0.09,-1.57,474.9,5.42,-2.39,-0.63,0.02,-0.59,5.53,37.1668179,-97.7374584,1155
