time,acceleration,pressure,altitude,temperature,accel_x,accel_y,accel_z,gyro_roll,gyro_pitch,gyro_yaw,mag_x,mag_y,mag_z,tilt,latitude,longitude,altitude
-0.3,0,102156,-68.95,21.7,-9.86,-0.31,0.17,0.06,0.09,-0.08,-0.32,0.18,1.51,2.05,43.1051207,-70.9951685,33
-0.29,0,102177,-70.68,21.7,-9.82,-0.32,0.21,0,0.09,0.04,-0.32,0.18,1.52,2.05,43.1051207,-70.9951685,33
-0.28,0,102148,-68.28,21.7,-9.87,-0.32,0.23,0.06,0.02,0.04,-0.32,0.16,1.53,2.05,43.1051207,-70.9951685,33
-0.27,-0.54,102167,-69.86,21.7,-9.82,-0.25,0.2,0.06,0.21,-0.14,-0.33,0.18,1.53,2.05,43.1051207,-70.9951685,33
-0.26,0,102149,-68.37,21.7,-9.83,-0.3,0.2,-0.06,0.02,-0.08,-0.31,0.18,1.52,2.05,43.1051207,-70.9951685,33
-0.25,0,102171,-70.19,21.7,-9.89,-0.33,0.14,0,-0.04,-0.08,-0.31,0.18,1.54,2.05,43.1051207,-70.9951685,33
-0.24,0,102163,-69.52,21.7,-9.86,-0.33,0.26,0.06,0.09,-0.02,-0.31,0.18,1.54,2.05,43.1051207,-70.9951685,33
-0.23,0,102172,-70.27,21.7,-9.84,-0.29,0.21,0.06,0.15,0.04,-0.31,0.18,1.53,2.05,43.1051207,-70.9951685,33
-0.22,-0.54,102156,-68.95,21.7,-9.84,-0.34,0.18,-0.06,-0.04,-0.02,-0.31,0.17,1.53,2.05,43.1051207,-70.9951685,33
-0.21,0,102166,-69.77,21.7,-9.86,-0.33,0.2,0.06,0.15,-0.08,-0.31,0.18,1.53,2.05,43.1051207,-70.9951685,33
-0.2,0,102157,-69.03,21.7,-9.87,-0.32,0.22,0.06,0.02,-0.02,-0.32,0.18,1.52,2.05,43.1051207,-70.9951685,33
-0.19,-0.54,102170,-70.1,21.7,-9.8,-0.3,0.26,0.13,0.02,-0.08,-0.32,0.18,1.53,2.05,43.1051207,-70.9951685,33
-0.18,-0.54,102163,-69.52,21.7,-9.86,-0.32,0.16,0,-0.1,-0.02,-0.32,0.18,1.52,2.05,43.1051207,-70.9951685,33
-0.17,-0.54,102172,-70.27,21.7,-9.85,-0.28,0.14,0,0.09,-0.02,-0.32,0.18,1.52,2.05,43.1051207,-70.9951685,33
-0.16,0,102162,-69.44,21.7,-9.87,-0.31,0.19,0,0.02,-0.08,-0.3,0.18,1.54,2.05,43.1051207,-70.9951685,33
-0.15,-0.54,102165,-69.69,21.7,-9.86,-0.32,0.24,0.13,0.09,-0.02,-0.3,0.17,1.52,2.05,43.1051207,-70.9951685,33
-0.14,0,102156,-68.95,21.7,-9.87,-0.37,0.29,0.06,0.09,0.04,-0.31,0.17,1.52,2.05,43.1051207,-70.9951685,33
-0.13,-0.54,102176,-70.6,21.7,-9.84,-0.3,0.24,0,-0.04,0.1,-0.31,0.17,1.53,2.05,43.1051207,-70.9951685,33
-0.12,0,102174,-70.43,21.8,-9.85,-0.32,0.14,0.06,0.21,-0.02,-0.32,0.17,1.54,2.05,43.1051207,-70.9951685,33
-0.11,0,102162,-69.44,21.7,-9.84,-0.31,0.18,0.13,0.09,-0.08,-0.32,0.17,1.53,2.05,43.1051207,-70.9951685,33
-0.1,0,102154,-68.78,21.7,-9.87,-0.27,0.23,0,0.09,0.1,-0.31,0.18,1.52,2.05,43.1051207,-70.9951685,33
-0.09,-0.54,102159,-69.19,21.7,-9.85,-0.28,0.22,0.06,0.09,-0.02,-0.32,0.18,1.53,2.05,43.1051207,-70.9951685,33
-0.08,15.25,102141,-67.71,21.7,-9.91,-0.3,0.21,0.13,0.02,-0.02,-0.32,0.17,1.51,2.05,43.1051207,-70.9951685,33
-0.07,44.13,102182,-71.1,21.7,-27.04,1.5,-2.22,0.43,0.33,-0.08,-0.32,0.17,1.52,2.05,43.1051207,-70.9951685,33
-0.06,54.48,102167,-69.86,21.7,-53.84,-0.76,3.45,-6.83,4.66,1.75,-0.32,0.18,1.52,2.05,43.1051207,-70.9951685,33
-0.05,59.38,102161,-69.36,21.7,-64.14,1.34,1.4,11.84,3.14,-1.61,-0.32,0.18,1.53,2.05,43.1051207,-70.9951685,33
-0.04,58.3,102152,-68.61,21.7,-68.36,-1.9,-1.5,12.76,5.76,1.26,-0.31,0.17,1.53,2.05,43.1051207,-70.9951685,33
-0.03,65.92,102152,-68.61,21.7,-67.16,2.33,3.2,13.74,1.06,1.45,-0.31,0.18,1.53,2.05,43.1051207,-70.9951685,33
-0.02,65.38,102144,-67.95,21.7,-73.67,1.07,-0.18,-0.12,0.21,1.63,-0.31,0.18,1.52,2.05,43.1051207,-70.9951685,33
-0.01,67.01,102162,-69.44,21.7,-75.1,1.19,2.27,-8.91,1.31,0.71,-0.31,0.18,1.51,2.05,43.1051207,-70.9951685,33
0,67.01,102148,-68.28,21.7,-75.84,0.92,0.82,-15.26,2.83,-0.93,-0.32,0.18,1.52,2.05,43.1051207,-70.9951685,33
0,67.01,102148,-68.28,21.7,-75.84,0.92,0.82,-15.26,2.83,-0.93,-0.32,0.18,1.52,2.05,43.1051207,-70.9951685,33
0,67.01,102148,-68.28,21.7,-75.84,0.92,0.82,-15.26,2.83,-0.93,-0.32,0.18,1.52,2.05,43.1051207,-70.9951685,33
0,67.01,102148,-68.28,21.7,-75.84,0.92,0.82,-15.26,2.83,-0.93,-0.32,0.18,1.52,2.05,43.1051207,-70.9951685,33
0,67.01,102148,-68.28,21.7,-75.84,0.92,0.82,-15.26,2.83,-0.93,-0.32,0.18,1.52,2.05,43.1051207,-70.9951685,33
0,67.01,102148,-68.28,21.7,-75.84,0.92,0.82,-15.26,2.83,-0.93,-0.32,0.18,1.52,2.06,43.1051207,-70.9951685,33
0,67.01,102148,-68.28,21.7,-75.84,0.92,0.82,-15.26,2.83,-0.93,-0.32,0.18,1.52,2.06,43.1051207,-70.9951685,33
0,67.01,102148,-68.28,21.7,-75.84,0.92,0.82,-15.26,2.83,-0.93,-0.32,0.18,1.52,2.06,43.1051207,-70.9951685,33
0,67.01,102148,-68.28,21.7,-75.84,0.92,0.82,-15.26,2.83,-0.93,-0.32,0.18,1.52,2.06,43.1051207,-70.9951685,33
0,67.01,102148,-68.28,21.7,-75.84,0.92,0.82,-15.26,2.83,-0.93,-0.32,0.18,1.52,2.05,43.1051207,-70.9951685,33
0,67.01,102148,-68.28,21.7,-75.84,0.92,0.82,-15.26,2.83,-0.93,-0.32,0.18,1.52,2.05,43.1051207,-70.9951685,33
0,67.01,102148,-68.28,21.7,-75.84,0.92,0.82,-15.26,2.83,-0.93,-0.32,0.18,1.52,2.06,43.1051207,-70.9951685,33
0,67.01,102148,-68.28,21.7,-75.84,0.92,0.82,-15.26,2.83,-0.93,-0.32,0.18,1.52,2.06,43.1051207,-70.9951685,33
0,67.01,102148,-68.28,21.7,-75.84,0.92,0.82,-15.26,2.83,-0.93,-0.32,0.18,1.52,2.06,43.1051207,-70.9951685,33
0,67.01,102148,-68.28,21.7,-75.84,0.92,0.82,-15.26,2.83,-0.93,-0.32,0.18,1.52,2.06,43.1051207,-70.9951685,33
0,67.01,102148,-68.28,21.7,-75.84,0.92,0.82,-15.26,2.83,-0.93,-0.32,0.18,1.52,2.05,43.1051207,-70.9951685,33
0,67.01,102148,-68.28,21.7,-75.84,0.92,0.82,-15.26,2.83,-0.93,-0.32,0.18,1.52,2.05,43.1051207,-70.9951685,33
0,67.01,102148,-68.28,21.7,-75.84,0.92,0.82,-15.26,2.83,-0.93,-0.32,0.18,1.52,2.05,43.1051207,-70.9951685,33
0,67.01,102148,-68.28,21.7,-75.84,0.92,0.82,-15.26,2.83,-0.93,-0.32,0.18,1.52,2.05,43.1051207,-70.9951685,33
0,67.01,102148,-68.28,21.7,-75.84,0.92,0.82,-15.26,2.83,-0.93,-0.32,0.18,1.52,2.05,43.1051207,-70.9951685,33
0,67.01,102148,-68.28,21.7,-75.84,0.92,0.82,-15.26,2.83,-0.93,-0.32,0.18,1.52,2.06,43.1051207,-70.9951685,33
0,67.01,102148,-68.28,21.7,-75.84,0.92,0.82,-15.26,2.83,-0.93,-0.32,0.18,1.52,2.06,43.1051207,-70.9951685,33
0,67.01,102148,-68.28,21.7,-75.84,0.92,0.82,-15.26,2.83,-0.93,-0.32,0.18,1.52,2.06,43.1051207,-70.9951685,33
0,67.01,102148,-68.28,21.7,-75.84,0.92,0.82,-15.26,2.83,-0.93,-0.32,0.18,1.52,2.06,43.1051207,-70.9951685,33
0,67.01,102148,-68.28,21.7,-75.84,0.92,0.82,-15.26,2.83,-0.93,-0.32,0.18,1.52,2.06,43.1051207,-70.9951685,33
0,67.01,102148,-68.28,21.7,-75.84,0.92,0.82,-15.26,2.83,-0.93,-0.32,0.18,1.52,2.06,43.1051207,-70.9951685,33
0,67.01,102148,-68.28,21.7,-75.84,0.92,0.82,-15.26,2.83,-0.93,-0.32,0.18,1.52,2.06,43.1051207,-70.9951685,33
0,67.01,102148,-68.28,21.7,-75.84,0.92,0.82,-15.26,2.83,-0.93,-0.32,0.18,1.52,2.06,43.1051207,-70.9951685,33
0,67.01,102148,-68.28,21.7,-75.84,0.92,0.82,-15.26,2.83,-0.93,-0.32,0.18,1.52,2.1,43.1051207,-70.9951685,33
0,67.01,102148,-68.28,21.7,-75.84,0.92,0.82,-15.26,2.83,-0.93,-0.32,0.18,1.52,2.1,43.1051207,-70.9951685,33
0,67.01,102148,-68.28,21.7,-75.84,0.92,0.82,-15.26,2.83,-0.93,-0.32,0.18,1.52,2.15,43.1051207,-70.9951685,33
0,67.01,102148,-68.28,21.7,-75.84,0.92,0.82,-15.26,2.83,-0.93,-0.32,0.18,1.52,2.17,43.1051207,-70.9951685,33
0,67.01,102148,-68.28,21.7,-75.84,0.92,0.82,-15.26,2.83,-0.93,-0.32,0.18,1.52,2.18,43.1051207,-70.9951685,33
0,67.01,102148,-68.28,21.7,-75.84,0.92,0.82,-15.26,2.83,-0.93,-0.32,0.18,1.52,2.19,43.1051207,-70.9951685,33
0,67.01,102148,-68.28,21.7,-75.84,0.92,0.82,-15.26,2.83,-0.93,-0.32,0.18,1.52,2.2,43.1051207,-70.9951685,33
0.01,67.01,102149,-68.37,21.7,-76.19,-1.24,0.57,-19.89,9.55,-2.95,-0.32,0.18,1.53,2.24,43.1051207,-70.9951685,33
0.01,67.01,102149,-68.37,21.7,-76.19,-1.24,0.57,-19.89,9.55,-2.95,-0.32,0.18,1.53,2.24,43.1051207,-70.9951685,33
0.02,67.56,102150,-68.45,21.7,-76.98,0.42,0.64,-38.57,4.18,-2.64,-0.32,0.18,1.51,2.25,43.1051207,-70.9951685,33
0.02,67.56,102150,-68.45,21.7,-76.98,0.42,0.64,-38.57,4.18,-2.64,-0.32,0.18,1.51,2.25,43.1051207,-70.9951685,33
0.03,67.01,102128,-66.63,21.7,-76.61,-0.07,5.47,-53.53,7.17,-3.31,-0.33,0.18,1.52,2.27,43.1051207,-70.9951685,33
0.04,67.56,102142,-67.79,21.7,-76.06,-1.14,-4.22,-54.87,-9.56,-1.3,-0.32,0.18,1.55,2.19,43.1051207,-70.9951685,33
0.05,67.56,102153,-68.7,21.7,-76.78,1.45,4.14,-42.05,-6.87,-0.2,-0.31,0.17,1.52,2.15,43.1051207,-70.9951685,33
0.06,68.1,102141,-67.71,21.7,-76.03,1.61,4.93,-20.38,3.44,0.65,-0.32,0.18,1.53,2.17,43.1051207,-70.9951685,33
0.07,67.56,102154,-68.78,21.7,-77.61,1.52,-0.01,-11.35,7.9,1.32,-0.31,0.18,1.54,2.24,43.1051207,-70.9951685,33
0.08,67.56,102154,-68.78,21.7,-76.93,-0.36,-1.41,-12.26,10.1,2.48,-0.31,0.19,1.55,2.33,43.1051207,-70.9951685,33
0.09,68.1,102154,-68.78,21.8,-77.2,-1.28,6.16,10.87,17.66,1.63,-0.31,0.17,1.53,2.47,43.1051207,-70.9951685,33
0.1,68.65,102144,-67.95,21.7,-77.62,-0.25,-4.67,12.64,12.9,2.61,-0.32,0.19,1.54,2.58,43.1051207,-70.9951685,33
0.11,68.65,102145,-68.04,21.7,-77.37,-1.54,0.97,14.71,9.79,1.26,-0.31,0.18,1.54,2.66,43.1051207,-70.9951685,33
0.12,69.19,102131,-66.88,21.7,-78.53,1.57,3.98,12.76,5.64,-0.14,-0.32,0.18,1.54,2.71,43.1051207,-70.9951685,33
0.13,70.28,102139,-67.54,21.7,-79.88,-1.16,-2.79,17.7,-3.33,1.45,-0.32,0.17,1.56,2.69,43.1051207,-70.9951685,33
0.14,70.28,102141,-67.71,21.7,-78.84,5.78,10.75,11.42,-10.84,0.84,-0.31,0.18,1.55,2.61,43.1051207,-70.9951685,33
0.15,70.28,102128,-66.63,21.7,-81.55,-0.09,-2.74,12.27,-19.32,2.91,-0.32,0.17,1.54,2.49,43.1051207,-70.9951685,33
0.16,71.37,102123,-66.22,21.7,-79.59,-1.3,0.49,2.69,-17.8,1.51,-0.32,0.18,1.55,2.38,43.1051207,-70.9951685,33
0.17,71.37,102129,-66.71,21.7,-80.49,-2.09,2.6,-10.37,-6.81,-1.91,-0.31,0.2,1.54,2.32,43.1051207,-70.9951685,33
0.18,70.83,102125,-66.38,21.7,-80.37,-0.56,-2.01,-8.05,5.7,-5.88,-0.31,0.17,1.54,2.32,43.1051207,-70.9951685,33
0.19,70.28,102128,-66.63,21.7,-79.98,-1.36,-1.92,-6.59,11.74,-8.44,-0.32,0.17,1.53,2.34,43.1051207,-70.9951685,33
0.2,69.74,102120,-65.97,21.7,-79.9,0.02,1.47,-4.39,18.09,-9.78,-0.32,0.17,1.54,2.41,43.1051207,-70.9951685,33
0.21,70.28,102110,-65.14,21.7,-78.87,0.55,-0.14,-1.03,25.23,-11.62,-0.31,0.17,1.53,2.54,43.1051207,-70.9951685,33
0.22,70.28,102107,-64.89,21.7,-79.66,0.43,-0.68,1.29,28.04,-14,-0.32,0.19,1.55,2.71,43.1051207,-70.9951685,33
0.23,69.74,102100,-64.31,21.7,-78.97,-0.13,-0.32,2.57,25.05,-14,-0.32,0.17,1.55,2.88,43.1051207,-70.9951685,33
0.24,69.74,102106,-64.81,21.7,-78.54,1.04,-0.06,3.3,18.15,-13.02,-0.32,0.18,1.55,3,43.1051207,-70.9951685,33
0.25,69.74,102097,-64.07,21.7,-78.8,0,0,2.87,12.11,-14.36,-0.32,0.18,1.56,3.07,43.1051207,-70.9951685,33
0.26,69.74,102099,-64.23,21.7,-78.64,-0.89,-0.27,2.75,11.81,-15.52,-0.33,0.2,1.54,3.15,43.1051207,-70.9951685,33
0.27,69.74,102098,-64.15,21.7,-78.54,-0.27,0.24,3.42,11.5,-15.95,-0.33,0.18,1.55,3.23,43.1051206,-70.9951686,33
0.27,69.74,102098,-64.15,21.7,-78.54,-0.27,0.24,3.42,11.5,-15.95,-0.33,0.18,1.55,3.23,43.1051206,-70.9951686,33
0.27,69.74,102098,-64.15,21.7,-78.54,-0.27,0.24,3.42,11.5,-15.95,-0.33,0.18,1.55,3.23,43.1051206,-70.9951686,33
0.28,69.74,102089,-63.4,21.7,-79.13,-0.73,0.99,5.86,12.66,-16.93,-0.33,0.18,1.55,3.33,43.1051206,-70.9951686,33
0.29,68.65,102081,-62.74,21.7,-78.18,-0.28,-0.21,5.56,13.21,-17.84,-0.33,0.17,1.54,3.44,43.1051206,-70.9951686,33
0.3,69.19,102084,-62.99,21.7,-77.88,-0.52,-0.31,3.18,13.21,-18.94,-0.33,0.18,1.55,3.57,43.1051206,-70.9951686,33
0.31,69.19,102080,-62.66,21.7,-78.84,-0.4,-0.34,3.06,14.37,-20.34,-0.33,0.17,1.56,3.72,43.1051206,-70.9951686,33
0.32,68.65,102073,-62.08,21.7,-78.44,-0.96,-0.63,0.31,-1.62,-17.96,-0.32,0.17,1.56,3.71,43.1051206,-70.9951686,33
0.33,68.65,102062,-61.17,21.7,-78.19,-0.19,-0.19,0.92,-0.89,-18.63,-0.33,0.17,1.54,3.73,43.1051206,-70.9951686,33
0.34,68.1,102061,-61.09,21.7,-76.91,-0.68,-0.12,2.08,4.91,-20.89,-0.33,0.17,1.55,3.81,43.1051206,-70.9951686,33
0.34,68.1,102061,-61.09,21.7,-76.91,-0.68,-0.12,2.08,4.91,-20.89,-0.33,0.17,1.55,3.81,43.1051206,-70.9951686,33
0.35,69.19,102068,-61.67,21.7,-77.24,-0.6,0.23,5.99,13.33,-22.54,-0.34,0.2,1.55,3.99,43.1051206,-70.9951686,33
0.36,69.19,102059,-60.92,21.7,-78.41,-1.02,-0.06,10.44,23.46,-24.49,-0.35,0.18,1.56,4.28,43.1051206,-70.9951686,33
0.37,67.56,102038,-59.18,21.7,-77.37,-1.65,-0.25,14.9,30.48,-26.2,-0.35,0.18,1.54,4.65,43.1051206,-70.9951686,33
0.38,67.56,102048,-60.01,21.7,-76.22,-1.38,0.27,18.38,34.57,-26.81,-0.34,0.18,1.56,5.07,43.1051206,-70.9951686,33
0.39,67.56,102035,-58.93,21.7,-76.8,-1.2,-0.31,20.57,19.92,-24.43,-0.35,0.19,1.56,5.34,43.1051206,-70.9951686,33
0.4,66.47,102017,-57.44,21.7,-76.49,-1.3,-0.26,23.08,17.54,-24.68,-0.33,0.17,1.55,5.6,43.1051206,-70.9951686,33
0.41,65.92,102014,-57.2,21.7,-75.75,-1.07,-0.94,25.82,16.93,-24.62,-0.35,0.18,1.57,5.85,43.1051206,-70.9951686,33
0.42,65.92,102015,-57.28,21.7,-75.18,-1.61,-1.18,27.1,16.87,-24.86,-0.35,0.19,1.56,6.11,43.1051206,-70.9951686,33
0.43,67.01,102007,-56.62,21.7,-75.55,-1.58,-0.69,31.32,17.24,-25.17,-0.35,0.19,1.56,6.37,43.1051206,-70.9951686,33
0.44,67.01,102022,-57.86,21.7,-76.15,-2.16,-1.25,34.86,16.87,-24.56,-0.34,0.19,1.55,6.63,43.1051206,-70.9951686,33
0.45,66.47,101994,-55.54,21.7,-75.39,-2.32,-0.44,38.64,16.02,-24.86,-0.34,0.19,1.56,6.89,43.1051206,-70.9951686,33
0.46,65.92,101987,-54.96,21.7,-75.52,-2.86,-0.44,43.71,28.16,-27.36,-0.35,0.19,1.57,7.27,43.1051206,-70.9951686,33
0.47,65.92,101975,-53.97,21.7,-75.36,-3.02,-0.8,48.77,33.41,-27.3,-0.34,0.19,1.56,7.69,43.1051206,-70.9951686,33
0.48,65.92,101977,-54.13,21.7,-74.76,-2.33,-0.96,53.53,33.41,-26.63,-0.35,0.18,1.56,8.11,43.1051206,-70.9951686,33
0.49,65.38,101967,-53.3,21.7,-75.15,-2.19,-2.41,57.13,28.65,-25.1,-0.36,0.19,1.57,8.49,43.1051206,-70.9951686,33
0.5,65.38,101970,-53.55,21.7,-74.43,-1.82,-1.85,61.35,21.69,-23.58,-0.36,0.19,1.57,8.79,43.1051206,-70.9951686,33
0.51,64.29,101956,-52.39,21.7,-75.8,-1.66,-2.19,62.14,12.11,-21.99,-0.35,0.19,1.54,9,43.1051206,-70.9951686,33
0.52,63.2,101949,-51.81,21.7,-73.54,-1.89,-2.02,62.02,3.14,-19.67,-0.36,0.19,1.56,9.13,43.1051206,-70.9951686,33
0.53,63.74,101934,-50.57,21.7,-72.61,-1.81,-1.11,65.86,12.6,-21.26,-0.36,0.19,1.57,9.34,43.1051206,-70.9951686,33
0.54,64.29,101947,-51.65,21.7,-73.8,-2.91,-2.77,70.93,13.09,-21.69,-0.36,0.18,1.55,9.56,43.1051206,-70.9951686,33
0.55,64.29,101941,-51.15,21.7,-73.55,-2.67,-1.71,78.99,11.87,-20.83,-0.36,0.19,1.55,9.77,43.1051206,-70.9951686,33
0.56,64.29,101917,-49.16,21.7,-73.56,-3.54,-1.28,84.97,11.5,-20.22,-0.35,0.18,1.55,9.97,43.1051206,-70.9951686,33
0.57,61.56,101922,-49.58,21.7,-72.73,-3.97,-2.71,87.29,10.83,-19.86,-0.37,0.18,1.54,10.16,43.1051206,-70.9951686,33
0.58,61.56,101915,-49,21.7,-70.9,-4.05,-2.03,93.88,10.77,-19.12,-0.36,0.19,1.56,10.35,43.1051206,-70.9951686,33
0.59,61.56,101897,-47.51,21.7,-71.72,-3.44,-2.28,99.43,10.71,-18.02,-0.36,0.19,1.55,10.53,43.1051206,-70.9951686,33
0.6,61.56,101900,-47.75,21.7,-71.11,-3.28,-2.08,106.82,19.43,-18.15,-0.37,0.2,1.56,10.79,43.1051206,-70.9951686,33
0.61,61.56,101882,-46.26,21.7,-70.41,-3.06,-2.36,115.67,13.21,-16.62,-0.37,0.2,1.55,10.98,43.1051206,-70.9951686,33
0.62,61.02,101896,-47.42,21.7,-70.89,-3.03,-2.11,125.37,3.69,-14.18,-0.36,0.19,1.55,11.08,43.1051206,-70.9951686,33
0.63,61.56,101872,-45.43,21.7,-70.03,-3.19,-3.72,135.63,-5.29,-13.75,-0.37,0.19,1.54,11.09,43.1051206,-70.9951686,33
0.64,61.02,101871,-45.35,21.7,-71.26,-2.72,-3.44,144.17,-11.45,-14.06,-0.36,0.2,1.55,11.05,43.1051206,-70.9951686,33
0.65,61.56,101875,-45.68,21.7,-70.81,-3.09,-4.94,155.4,-12.98,-14.06,-0.37,0.18,1.53,10.99,43.1051206,-70.9951686,33
0.66,61.56,101856,-44.11,21.7,-70.44,-2.91,-3.77,169.38,-9.44,-14.97,-0.37,0.21,1.54,10.97,43.1051206,-70.9951686,33
0.66,61.56,101856,-44.11,21.7,-70.44,-2.91,-3.77,169.38,-9.44,-14.97,-0.37,0.21,1.54,10.97,43.1051206,-70.9951686,33
0.67,62.11,101842,-42.95,21.7,-71.18,-3.32,-4.13,185.86,1.43,-16.99,-0.36,0.18,1.54,11.05,43.1051206,-70.9951686,33
0.68,61.02,101833,-42.2,21.7,-71.16,-4.4,-4.49,200.69,1.31,-17.47,-0.37,0.19,1.55,11.13,43.1051206,-70.9951686,33
0.69,61.02,101832,-42.12,21.7,-69.85,-3.77,-4.15,214.67,-0.59,-17.35,-0.37,0.2,1.53,11.19,43.1051206,-70.9951686,33
0.7,58.84,101816,-40.79,21.7,-69.64,-3.43,-4.94,223.15,-2.6,-17.78,-0.37,0.19,1.52,11.23,43.1051206,-70.9951686,33
0.71,59.38,101825,-41.54,21.7,-68.17,-3.44,-4.72,234.39,-3.88,-18.88,-0.38,0.2,1.52,11.25,43.1051206,-70.9951686,33
0.72,58.84,101817,-40.87,21.7,-69.04,-3.17,-5.14,251.84,-4.67,-18.39,-0.39,0.2,1.52,11.26,43.1051206,-70.9951686,33
0.73,58.84,101802,-39.63,21.7,-67.94,-2.82,-4.43,265.51,-5.53,-18.21,-0.37,0.21,1.5,11.26,43.1051206,-70.9951686,33
0.74,58.3,101801,-39.55,21.7,-68.06,-3.59,-5.21,279.13,-6.75,-20.04,-0.38,0.19,1.5,11.25,43.1051206,-70.9951686,33
0.75,57.21,101807,-40.05,21.7,-67.69,-3.96,-4.38,299.33,-7.97,-19.73,-0.37,0.19,1.49,11.21,43.1051206,-70.9951686,33
0.76,57.75,101779,-37.72,21.7,-66.6,-2.27,-4.51,313.49,-8.58,-20.34,-0.38,0.19,1.48,11.16,43.1051206,-70.9951686,33
0.77,57.75,101791,-38.72,21.8,-66.78,-2.63,-4.86,324.35,-10.29,-21.69,-0.39,0.2,1.48,11.1,43.1051206,-70.9951686,33
0.78,57.21,101783,-38.06,21.7,-66.65,-3.41,-5.32,339.13,-12.18,-21.5,-0.39,0.21,1.48,11,43.1051206,-70.9951686,33
0.79,58.3,101770,-36.98,21.7,-66.53,-3.05,-5.1,353.22,-13.1,-22.3,-0.41,0.2,1.47,10.89,43.1051206,-70.9951686,33
0.8,58.3,101771,-37.06,21.7,-67.28,-2.29,-5.15,358.6,-13.46,-23.94,-0.41,0.2,1.48,10.76,43.1051206,-70.9951686,33
0.81,56.12,101769,-36.89,21.7,-66.71,-2.77,-4.54,365.98,-14.5,-25.29,-0.4,0.19,1.46,10.62,43.1051206,-70.9951686,33
0.82,55.57,101768,-36.81,21.7,-65.77,-1.95,-4.11,373.55,-14.5,-26.02,-0.41,0.21,1.45,10.46,43.1051206,-70.9951686,33
0.83,56.12,101750,-35.32,21.7,-64.85,-1.36,-4.21,378.31,-14.14,-27,-0.41,0.2,1.46,10.3,43.1051206,-70.9951686,33
0.84,55.57,101753,-35.57,21.7,-65.55,-1.33,-3.56,387.65,-14.07,-27.91,-0.41,0.21,1.44,10.12,43.1051206,-70.9951686,33
0.85,56.12,101735,-34.07,21.7,-64.72,-2.35,-4.78,394.3,-13.77,-28.34,-0.42,0.19,1.43,9.94,43.1051206,-70.9951686,33
0.86,56.12,101729,-33.58,21.7,-64.84,-2.66,-4.64,391.68,-12.43,-28.95,-0.43,0.19,1.43,9.76,43.1051206,-70.9951686,33
0.87,56.66,101711,-32.08,21.7,-65.4,-2.11,-3.71,383.74,-11.08,-30.96,-0.44,0.21,1.44,9.57,43.1051206,-70.9951686,33
0.88,56.66,101706,-31.67,21.7,-65.5,-1.77,-4.64,381.55,-10.35,-32.61,-0.44,0.2,1.43,9.38,43.1051206,-70.9951686,33
0.89,55.57,101703,-31.42,21.7,-65.03,-1.34,-4.79,379.84,-10.96,-32.61,-0.46,0.19,1.43,9.17,43.1051206,-70.9951686,33
0.9,55.03,101686,-30.01,21.7,-65.53,-2.6,-4.78,381.18,-10.47,-34.44,-0.47,0.2,1.44,8.95,43.1051206,-70.9951686,33
0.91,55.03,101682,-29.68,21.7,-64.36,-3.22,-5.81,380.51,-9.37,-34.2,-0.46,0.21,1.43,8.74,43.1051206,-70.9951686,33
0.92,55.57,101655,-27.43,21.7,-64.44,-2.44,-5.82,374.1,-8.52,-35.24,-0.47,0.19,1.42,8.51,43.1051206,-70.9951686,33
0.93,55.03,101656,-27.52,21.7,-65.03,-2.81,-5.34,374.59,-7.91,-36.64,-0.5,0.19,1.43,8.28,43.1051206,-70.9951686,33
0.94,55.03,101656,-27.52,21.7,-64.02,-2.67,-5.63,378.62,-8.46,-36.52,-0.48,0.19,1.45,8.03,43.1051206,-70.9951686,33
0.95,53.94,101633,-25.61,21.7,-64.42,-2.94,-5.8,383.13,-9.19,-36.76,-0.5,0.2,1.43,7.76,43.1051206,-70.9951686,33
0.96,52.85,101638,-26.02,21.7,-63.34,-2.68,-6.53,389.85,-9.99,-37.25,-0.5,0.19,1.44,7.48,43.1051206,-70.9951686,33
0.97,53.39,101620,-24.53,21.7,-62.11,-2.33,-6.86,392.72,-10.05,-36.95,-0.51,0.19,1.44,7.19,43.1051206,-70.9951686,33
0.98,52.85,101609,-23.61,21.7,-62.66,-2.15,-5.49,401.38,-10.29,-37.5,-0.52,0.2,1.43,6.89,43.1051206,-70.9951686,33
0.98,52.85,101609,-23.61,21.7,-62.66,-2.15,-5.49,401.38,-10.29,-37.5,-0.52,0.2,1.43,6.89,43.1051206,-70.9951686,33
0.99,52.85,101620,-24.53,21.7,-62.5,-3.43,-6.45,401.57,-10.84,-37.8,-0.52,0.2,1.45,6.57,43.1051206,-70.9951686,33
1,52.85,101586,-21.7,21.7,-62.08,-3.31,-6.15,400.35,-10.78,-37.56,-0.52,0.19,1.45,6.25,43.1051206,-70.9951686,33
1.01,51.21,101595,-22.45,21.7,-62.65,-3.35,-6.12,403.89,-11.94,-38.11,-0.54,0.2,1.47,5.9,43.1051206,-70.9951686,33
1.02,51.21,101582,-21.37,21.7,-60.62,-2.97,-5.91,404.92,-12.91,-38.72,-0.54,0.18,1.48,5.54,43.1051206,-70.9951686,33
1.03,49.03,101573,-20.62,21.7,-61.06,-2.38,-5.82,401.57,-12.85,-39.39,-0.54,0.19,1.47,5.16,43.1051206,-70.9951686,33
1.04,48.49,101560,-19.54,21.7,-58.98,-2.63,-5.71,405.05,-12.55,-39.88,-0.55,0.19,1.5,4.78,43.1051206,-70.9951686,33
1.05,47.4,101561,-19.63,21.7,-58.01,-2.86,-5.33,406.63,-11.45,-40.55,-0.54,0.19,1.5,4.4,43.1051206,-70.9951686,33
1.06,45.22,101547,-18.46,21.7,-56.99,-3.96,-4.26,412.37,-11.57,-40.73,-0.55,0.19,1.5,4,43.1051206,-70.9951686,33
1.07,43.59,101538,-17.72,21.7,-55.14,-4.08,-5.4,418.6,-10.96,-40.18,-0.57,0.18,1.5,3.61,43.1051206,-70.9951686,33
1.08,44.67,101535,-17.47,21.7,-53.01,-3.82,-5.56,425.31,-9.99,-40,-0.56,0.18,1.51,3.22,43.1051206,-70.9951686,33
1.09,38.68,101513,-15.64,21.7,-54.99,-4.32,-6.26,436.24,-9.56,-39.57,-0.56,0.19,1.53,2.84,43.1051206,-70.9951686,33
1.1,38.68,101507,-15.14,21.7,-48.62,-2.89,-6.56,446.98,-10.29,-39.2,-0.57,0.18,1.52,2.44,43.1051206,-70.9951686,33
1.11,37.59,101505,-14.97,21.7,-47.07,-2.94,-4.73,454.67,-9.8,-38.23,-0.56,0.18,1.54,2.06,43.1051206,-70.9951686,33
1.12,33.23,101493,-13.98,21.7,-44.74,-4.35,-4.5,464.5,-9.19,-37.74,-0.58,0.18,1.56,1.68,43.1051206,-70.9951686,33
1.13,33.23,101483,-13.14,21.7,-42.88,-3.07,-6.01,464.43,-8.34,-37.74,-0.58,0.19,1.58,1.3,43.1051206,-70.9951686,33
1.14,26.15,101467,-11.81,21.7,-39.49,-2.84,-5.19,460.53,-5.77,-37.37,-0.58,0.18,1.58,0.93,43.1051206,-70.9951686,33
1.15,23.97,101452,-10.57,21.7,-36.28,-2.74,-5.75,459.12,-4.06,-36.64,-0.57,0.19,1.59,0.58,43.1051206,-70.9951686,33
1.16,20.7,101455,-10.82,21.7,-33.74,-2.49,-6.5,460.71,-3.58,-36.15,-0.57,0.19,1.62,0.26,43.1051206,-70.9951686,33
1.17,18.52,101434,-9.07,21.7,-30.66,-1.81,-8.02,458.94,-2.17,-34.99,-0.56,0.17,1.62,0.23,43.1051206,-70.9951686,33
1.18,16.34,101427,-8.49,21.7,-28.52,-1.39,-6.86,458.45,-3.27,-33.41,-0.55,0.17,1.64,0.51,43.1051206,-70.9951686,33
1.19,14.17,101440,-9.57,21.7,-26.61,-3.48,-4.65,458.33,-3.39,-32.43,-0.55,0.18,1.64,0.81,43.1051206,-70.9951686,33
1.2,11.44,101426,-8.4,21.7,-24.07,-2.86,-3.58,449.54,-3.52,-31.82,-0.56,0.18,1.65,1.12,43.1051206,-70.9951686,33
1.21,11.44,101409,-6.99,21.7,-21.81,-1.36,-5.72,442.34,-2.17,-31.64,-0.53,0.18,1.65,1.42,43.1051206,-70.9951686,33
1.22,8.72,101395,-5.83,21.7,-19.3,-1.98,-4.94,438.62,-0.89,-30.78,-0.52,0.18,1.67,1.72,43.1051206,-70.9951686,33
1.23,4.9,101388,-5.24,21.7,-18.19,-2.72,-4.97,433.18,0.57,-29.62,-0.52,0.17,1.68,2.01,43.1051206,-70.9951686,33
1.24,4.9,101385,-4.99,21.7,-15.28,-2.23,-5.72,428.61,1.67,-28.1,-0.52,0.17,1.69,2.28,43.1051206,-70.9951686,33
1.25,1.09,101372,-3.91,21.7,-13.03,-1.67,-6.25,425.86,2.53,-27.12,-0.5,0.18,1.69,2.55,43.1051206,-70.9951686,33
1.26,-1.09,101358,-2.75,21.7,-11.32,-1.93,-6.17,423.48,2.89,-26.08,-0.51,0.17,1.7,2.8,43.1051428,-70.9951568,48
1.26,-1.09,101358,-2.75,21.7,-11.32,-1.93,-6.17,423.48,2.89,-26.08,-0.51,0.17,1.7,2.8,43.1051428,-70.9951568,48
1.26,-1.09,101358,-2.75,21.7,-11.32,-1.93,-6.17,423.48,2.89,-26.08,-0.51,0.17,1.7,2.8,43.1051428,-70.9951568,48
1.27,-2.72,101353,-2.33,21.7,-9.5,-1.22,-6.35,421.1,2.59,-24.25,-0.5,0.18,1.71,3.03,43.1051428,-70.9951568,48
1.28,-4.36,101358,-2.75,21.7,-7.82,-0.79,-5.79,418.47,1.49,-22.6,-0.48,0.19,1.71,3.24,43.1051428,-70.9951568,48
1.29,-5.45,101354,-2.41,21.7,-6.15,-0.04,-4.95,416.34,0.7,-21.63,-0.47,0.18,1.71,3.43,43.1051428,-70.9951568,48
1.3,-5.99,101344,-1.58,21.7,-4.81,-0.12,-4.71,411.45,0.45,-20.95,-0.46,0.18,1.71,3.61,43.1051428,-70.9951568,48
1.3,-5.99,101344,-1.58,21.7,-4.81,-0.12,-4.71,411.45,0.45,-20.95,-0.46,0.18,1.71,3.61,43.1051428,-70.9951568,48
1.31,-7.63,101330,-0.42,21.7,-4,-0.24,-5.02,405.78,0.76,-20.53,-0.45,0.17,1.71,3.78,43.1051428,-70.9951568,48
1.32,-7.63,101332,-0.58,21.7,-2.66,0.02,-4.85,399.73,-0.28,-20.34,-0.45,0.17,1.72,3.94,43.1051428,-70.9951568,48
1.33,-8.72,101317,0.67,21.7,-1.87,0.14,-4.52,394.36,-0.1,-20.47,-0.46,0.18,1.71,4.1,43.1051428,-70.9951568,48
1.34,-10.35,101319,0.5,21.7,-1,-0.28,-4.61,388.69,-1.26,-19.98,-0.44,0.17,1.73,4.24,43.1051428,-70.9951568,48
1.35,-10.35,101312,1.08,21.7,-0.24,-0.45,-4.46,382.89,-0.4,-20.16,-0.42,0.18,1.73,4.38,43.1051428,-70.9951568,48
1.36,-11.99,101298,2.25,21.7,0.61,-0.35,-4.08,378.74,-0.95,-20.34,-0.42,0.18,1.73,4.52,43.1051428,-70.9951568,48
1.37,-13.08,101290,2.91,21.7,1.75,-0.96,-4.31,372.51,-0.71,-20.16,-0.41,0.18,1.72,4.65,43.1051428,-70.9951568,48
1.38,-13.08,101289,3,21.7,2.88,-0.59,-3.78,367.57,-1.07,-19.98,-0.4,0.18,1.72,4.78,43.1051428,-70.9951568,48
1.39,-13.62,101272,4.41,21.7,3.06,-0.5,-4,362.56,-1.75,-20.16,-0.38,0.17,1.71,4.89,43.1051428,-70.9951568,48
1.4,-13.62,101263,5.16,21.7,3.18,-0.83,-3.77,357.92,-2.66,-20.1,-0.39,0.17,1.71,4.99,43.1051428,-70.9951568,48
1.41,-13.62,101264,5.08,21.7,3.16,-0.52,-3.88,354.2,-2.66,-19.61,-0.39,0.18,1.7,5.09,43.1051428,-70.9951568,48
1.42,-13.62,101243,6.83,21.7,3.12,-0.66,-3.62,350.78,-2.72,-19.18,-0.36,0.18,1.68,5.17,43.1051428,-70.9951568,48
1.43,-13.62,101252,6.08,21.7,3.14,-0.61,-4.01,347.24,-2.72,-18.76,-0.37,0.18,1.67,5.25,43.1051428,-70.9951568,48
1.44,-13.62,101226,8.24,21.7,3.15,-0.38,-3.73,343.7,-2.23,-17.96,-0.36,0.18,1.67,5.33,43.1051428,-70.9951568,48
1.45,-13.62,101222,8.58,21.7,3.12,-0.34,-4.24,340.53,-2.23,-17.29,-0.38,0.18,1.67,5.39,43.1051428,-70.9951568,48
1.46,-13.62,101209,9.66,21.7,3.16,-0.69,-3.72,337.23,-2.54,-16.56,-0.36,0.18,1.66,5.45,43.1051428,-70.9951568,48
1.47,-13.08,101203,10.16,21.7,3.02,-0.62,-3.83,332.72,-3.21,-15.95,-0.35,0.18,1.66,5.49,43.1051428,-70.9951568,48
1.48,-13.62,101195,10.83,21.7,2.97,-0.4,-3.53,327.53,-4.19,-16.25,-0.35,0.17,1.65,5.52,43.1051428,-70.9951568,48
1.49,-13.62,101197,10.66,21.7,2.96,-0.5,-3.44,323.56,-4.86,-16.68,-0.36,0.18,1.65,5.54,43.1051428,-70.9951568,48
1.5,-13.62,101184,11.74,21.7,2.99,-0.34,-3.89,319.17,-4.92,-17.29,-0.34,0.18,1.62,5.56,43.1051428,-70.9951568,48
1.51,-13.08,101163,13.49,21.7,2.93,-0.32,-4.35,314.71,-4.92,-17.35,-0.34,0.18,1.62,5.57,43.1051428,-70.9951568,48
1.52,-13.08,101158,13.91,21.7,2.94,-0.23,-3.26,310.38,-5.65,-17.29,-0.34,0.18,1.61,5.58,43.1051428,-70.9951568,48
1.53,-13.08,101157,13.99,21.7,2.95,-0.16,-3.84,308.48,-6.51,-17.41,-0.34,0.18,1.61,5.57,43.1051428,-70.9951568,48
1.54,-13.08,101142,15.24,21.7,2.9,-0.17,-3.9,305.37,-7.6,-17.78,-0.33,0.19,1.6,5.55,43.1051428,-70.9951568,48
1.55,-13.08,101135,15.83,21.7,2.9,-0.06,-3.42,301.4,-8.28,-18.21,-0.32,0.19,1.58,5.52,43.1051428,-70.9951568,48
1.56,-13.08,101137,15.66,21.7,2.89,0.14,-3.73,297.31,-8.83,-18.63,-0.33,0.18,1.57,5.48,43.1051428,-70.9951568,48
1.57,-13.08,101118,17.25,21.7,2.92,-0.25,-3.72,293.65,-8.83,-19.37,-0.31,0.19,1.58,5.44,43.1051428,-70.9951568,48
1.58,-13.08,101110,17.91,21.7,2.92,-0.23,-3.05,289.69,-9.01,-19.49,-0.34,0.18,1.55,5.39,43.1051428,-70.9951568,48
1.59,-13.08,101105,18.33,21.7,2.89,0.13,-2.87,286.15,-9.68,-20.1,-0.33,0.18,1.56,5.34,43.1051428,-70.9951568,48
1.6,-13.08,101096,19.08,21.7,2.89,0.12,-3.06,283.28,-9.99,-20.47,-0.33,0.18,1.55,5.29,43.1051428,-70.9951568,48
1.61,-13.08,101103,18.5,21.7,2.89,0.02,-3.06,280.04,-9.8,-20.89,-0.33,0.19,1.53,5.23,43.1051428,-70.9951568,48
1.62,-13.08,101071,21.17,21.7,2.91,-0.03,-2.6,277.6,-10.05,-21.44,-0.33,0.19,1.52,5.18,43.1051428,-70.9951568,48
1.62,-13.08,101071,21.17,21.7,2.91,-0.03,-2.6,277.6,-10.05,-21.44,-0.33,0.19,1.52,5.18,43.1051428,-70.9951568,48
1.63,-13.08,101069,21.33,21.7,2.92,0.43,-2.24,275.46,-9.99,-22.11,-0.33,0.18,1.51,5.12,43.1051428,-70.9951568,48
1.64,-13.08,101073,21,21.7,2.91,-0.03,-2.24,273.63,-9.44,-22.11,-0.34,0.18,1.5,5.07,43.1051428,-70.9951568,48
1.65,-13.08,101053,22.67,21.7,2.91,0.19,-2.22,270.95,-8.76,-23.03,-0.35,0.19,1.5,5.03,43.1051428,-70.9951568,48
1.66,-13.08,101042,23.58,21.7,2.91,-0.32,-2.11,268.81,-7.85,-23.4,-0.33,0.18,1.49,4.99,43.1051428,-70.9951568,48
1.67,-13.08,101050,22.92,21.7,2.87,-0.7,-2.5,267.16,-7.6,-23.88,-0.35,0.17,1.49,4.97,43.1051428,-70.9951568,48
1.68,-13.08,101049,23,21.7,2.9,-0.9,-1.89,265.51,-7.24,-24.01,-0.35,0.19,1.48,4.94,43.1051428,-70.9951568,48
1.69,-13.08,101024,25.09,21.7,2.92,-0.94,-1.62,262.58,-6.45,-24.49,-0.36,0.19,1.46,4.93,43.1051428,-70.9951568,48
1.7,-13.08,101020,25.42,21.7,2.92,-1.7,-1.73,259.72,-5.83,-24.37,-0.37,0.18,1.45,4.92,43.1051428,-70.9951568,48
1.71,-13.08,100992,27.76,21.7,2.98,-1.96,-1.84,256.36,-5.22,-25.04,-0.35,0.19,1.46,4.92,43.1051428,-70.9951568,48
1.72,-13.08,100990,27.92,21.7,2.9,-2.68,-2.86,251.9,-4.43,-25.1,-0.36,0.19,1.45,4.93,43.1051428,-70.9951568,48
1.73,-13.62,101001,27.01,21.7,2.89,-3.2,-3.2,247.33,-3.33,-25.17,-0.37,0.18,1.44,4.96,43.1051428,-70.9951568,48
1.74,-13.08,100988,28.09,21.7,2.94,-3.06,-2.52,245.49,-3.45,-24.74,-0.38,0.2,1.43,4.98,43.1051428,-70.9951568,48
1.75,-13.08,100963,30.18,21.7,2.92,-3.34,-3.16,243.42,-3.03,-24.07,-0.38,0.19,1.43,5.01,43.1051428,-70.9951568,48
1.76,-13.08,100955,30.85,21.7,2.97,-2.91,-3.03,243.11,-3.88,-23.46,-0.39,0.18,1.44,5.03,43.1051428,-70.9951568,48
1.77,-13.08,100947,31.51,21.7,2.91,-2.9,-3.03,243.24,-4.19,-22.72,-0.39,0.19,1.42,5.04,43.1051428,-70.9951568,48
1.77,-13.08,100947,31.51,21.7,2.91,-2.9,-3.03,243.24,-4.19,-22.72,-0.39,0.19,1.42,5.04,43.1051428,-70.9951568,48
1.78,-13.08,100934,32.6,21.7,2.89,-3.38,-2.74,243.72,-4.98,-22.24,-0.41,0.19,1.42,5.05,43.1051428,-70.9951568,48
1.79,-13.08,100936,32.43,21.7,2.82,-3.48,-2.39,240.61,-16.03,-20.04,-0.39,0.17,1.42,4.94,43.1051428,-70.9951568,48
1.8,-13.08,100952,31.1,21.7,2.78,-3.85,-2.98,236.64,-23.96,-18.51,-0.39,0.2,1.4,4.76,43.1051428,-70.9951568,48
1.81,-13.08,100927,33.18,21.7,2.86,-3.67,-3.18,237.07,-21.03,-18.76,-0.42,0.2,1.42,4.61,43.1051428,-70.9951568,48
1.82,-13.08,100913,34.35,21.7,2.78,-3.98,-3.82,239.09,-15.23,-19.55,-0.42,0.2,1.41,4.51,43.1051428,-70.9951568,48
1.83,-13.08,100903,35.19,21.7,2.77,-4.09,-3.05,240.86,-6.81,-20.47,-0.42,0.2,1.4,4.51,43.1051428,-70.9951568,48
1.84,-13.08,100895,35.86,21.7,2.76,-4.13,-3.02,245.25,0.64,-21.14,-0.42,0.18,1.41,4.57,43.1051428,-70.9951568,48
1.85,-13.08,100888,36.44,21.7,2.75,-4.6,-4.56,249.58,5.76,-20.89,-0.42,0.2,1.4,4.69,43.1051428,-70.9951568,48
1.86,-13.08,100876,37.44,21.7,2.75,-4.46,-3.41,251.11,-6.32,-18.51,-0.43,0.19,1.4,4.68,43.1051428,-70.9951568,48
1.87,-13.08,100831,41.2,21.7,2.75,-4.73,-3.15,250.68,-13.16,-16.8,-0.44,0.18,1.39,4.6,43.1051428,-70.9951568,48
1.88,-13.08,100831,41.2,21.7,2.71,-4.69,-3.66,251.66,-13.1,-16.32,-0.45,0.19,1.39,4.52,43.1051428,-70.9951568,48
1.88,-13.08,100831,41.2,21.7,2.71,-4.69,-3.66,251.66,-13.1,-16.32,-0.45,0.19,1.39,4.52,43.1051428,-70.9951568,48
1.89,-13.08,100865,38.36,21.7,2.78,-4.69,-3.92,255.87,-15.48,-15.7,-0.45,0.18,1.38,4.41,43.1051428,-70.9951568,48
1.9,-13.08,100855,39.2,21.7,2.72,-4.86,-3.82,259.41,-17,-15.09,-0.46,0.19,1.4,4.29,43.1051428,-70.9951568,48
1.91,-13.08,100843,40.2,21.7,2.73,-4.48,-3.74,261.85,-17.86,-14.24,-0.46,0.19,1.39,4.16,43.1051428,-70.9951568,48
1.92,-13.08,100829,41.37,21.7,2.66,-4.72,-4.24,266.8,-19.08,-13.87,-0.47,0.19,1.39,4.01,43.1051428,-70.9951568,48
1.93,-13.08,100826,41.62,21.7,2.68,-4.66,-3.34,269.42,-32.94,-11.62,-0.48,0.19,1.39,3.73,43.1051428,-70.9951568,48
1.94,-13.08,100817,42.37,21.7,2.65,-4.6,-3.62,270.46,-40.69,-10.82,-0.48,0.2,1.4,3.37,43.1051428,-70.9951568,48
1.94,-13.08,100817,42.37,21.7,2.65,-4.6,-3.62,270.46,-40.69,-10.82,-0.48,0.2,1.4,3.37,43.1051428,-70.9951568,48
1.95,-13.08,100809,43.04,21.7,2.66,-4.54,-4.01,272.84,-39.28,-11.37,-0.49,0.19,1.37,3.03,43.1051428,-70.9951568,48
1.96,-13.08,100789,44.71,21.7,2.69,-3.96,-3.72,277.23,-34.77,-12.29,-0.48,0.19,1.38,2.74,43.1051428,-70.9951568,48
1.97,-13.08,100785,45.05,21.7,2.61,-4.37,-2.97,282.36,-27.32,-13.81,-0.48,0.19,1.38,2.54,43.1051428,-70.9951568,48
1.98,-13.08,100780,45.47,21.7,2.62,-4.7,-3.23,288.28,-19.93,-15.4,-0.51,0.19,1.38,2.42,43.1051428,-70.9951568,48
1.99,-13.08,100785,45.05,21.7,2.58,-4.41,-3.36,292.49,-14.44,-16.38,-0.5,0.19,1.39,2.36,43.1051428,-70.9951568,48
2,-13.08,100778,45.63,21.7,2.62,-4.04,-2.67,293.04,-23.41,-14.73,-0.53,0.18,1.39,2.22,43.1051428,-70.9951568,48
2.01,-13.08,100770,46.3,21.7,2.6,-3.69,-2.49,293.35,-29.27,-14,-0.52,0.18,1.39,2.05,43.1051428,-70.9951568,48
2.02,-13.08,100762,46.97,21.7,2.64,-3.5,-2.78,294.57,-29.7,-13.93,-0.52,0.19,1.39,1.9,43.1051428,-70.9951568,48
2.03,-13.08,100747,48.23,21.7,2.65,-3.18,-2.79,295.54,-29.39,-14.42,-0.54,0.18,1.39,1.78,43.1051428,-70.9951568,48
2.04,-13.08,100742,48.64,21.7,2.62,-3.35,-2,296.16,-29.46,-15.03,-0.53,0.19,1.41,1.71,43.1051428,-70.9951568,48
2.05,-13.08,100741,48.73,21.7,2.64,-3.59,-2.36,295.12,-29.15,-15.58,-0.55,0.18,1.4,1.69,43.1051428,-70.9951568,48
2.06,-13.08,100735,49.23,21.7,2.63,-3.67,-2,294.81,-28.72,-16.25,-0.55,0.17,1.39,1.72,43.1051428,-70.9951568,48
2.07,-13.08,100729,49.73,21.7,2.5,-3.31,-1.99,296.4,-20.12,-17.47,-0.55,0.17,1.4,1.83,43.1051428,-70.9951568,48
2.08,-12.53,100724,50.15,21.7,2.58,-2.97,-1.2,297.01,-21.64,-17.72,-0.56,0.18,1.42,1.95,43.1051428,-70.9951568,48
2.09,-12.53,100722,50.32,21.7,2.53,-3.58,-0.95,294.26,-29.88,-16.68,-0.56,0.18,1.41,2.08,43.1051428,-70.9951568,48
2.1,-13.08,100702,51.99,21.7,2.5,-3.34,-1.48,289.5,-37.21,-16.07,-0.56,0.18,1.41,2.24,43.1051428,-70.9951568,48
2.11,-13.08,100701,52.07,21.7,2.51,-3.7,-1.15,286.63,-41.85,-15.89,-0.56,0.18,1.41,2.45,43.1051428,-70.9951568,48
2.12,-13.08,100696,52.49,21.7,2.49,-3.97,-1.02,282.85,-42.58,-16.13,-0.56,0.18,1.41,2.7,43.1051428,-70.9951568,48
2.13,-12.53,100679,53.91,21.7,2.53,-3.23,-0.28,280.1,-39.22,-16.68,-0.56,0.18,1.41,2.97,43.1051428,-70.9951568,48
2.14,-12.53,100669,54.75,21.7,2.44,-3.53,-0.5,277.78,-31.9,-17.78,-0.56,0.18,1.41,3.25,43.1051428,-70.9951568,48
2.15,-13.08,100670,54.67,21.7,2.45,-3.41,-0.56,276.87,-22.68,-19.37,-0.56,0.18,1.41,3.51,43.1051428,-70.9951568,48
2.16,-13.08,100671,54.58,21.7,2.43,-4.02,-0.68,276.87,-13.1,-20.04,-0.56,0.18,1.41,3.74,43.1051428,-70.9951568,48
2.17,-12.53,100652,56.17,21.7,2.48,-4.14,-0.91,276.13,-5.29,-21.02,-0.56,0.18,1.41,3.96,43.1051428,-70.9951568,48
2.18,-12.53,100650,56.34,21.7,2.43,-4.08,-1.36,274.98,-1.26,-20.95,-0.56,0.18,1.41,4.17,43.1051428,-70.9951568,48
2.19,-12.53,100638,57.35,21.7,2.44,-4.47,-0.92,273.69,-2.17,-19.86,-0.56,0.18,1.41,4.37,43.1051428,-70.9951568,48
2.2,-12.53,100635,57.6,21.7,2.45,-4.51,-0.31,269.73,-7.79,-18.39,-0.59,0.17,1.5,4.56,43.1051428,-70.9951568,48
2.21,-12.53,100628,58.18,21.7,2.45,-4.69,0.41,265.45,-16.03,-16.19,-0.6,0.17,1.5,4.74,43.1051428,-70.9951568,48
2.22,-12.53,100610,59.69,21.7,2.36,-4.23,0.95,260.14,-24.45,-14.06,-0.63,0.21,1.53,4.91,43.1051428,-70.9951568,48
2.23,-12.53,100600,60.53,21.7,2.3,-4.3,0.08,253.25,-30.13,-12.16,-0.61,0.17,1.52,5.06,43.1051428,-70.9951568,48
2.24,-12.53,100598,60.69,21.7,2.3,-4.29,0.3,246.65,-33.06,-10.58,-0.59,0.17,1.52,5.21,43.1051428,-70.9951568,48
2.25,-12.53,100592,61.2,21.7,2.31,-4.35,0.45,241.65,-31.71,-10.33,-0.59,0.17,1.53,5.36,43.1051428,-70.9951568,48
2.26,-12.53,100579,62.28,21.7,2.34,-4.41,0.35,237.07,-26.16,-10.52,-0.6,0.18,1.55,5.5,43.1051376,-70.9951241,99
2.26,-12.53,100579,62.28,21.7,2.34,-4.41,0.35,237.07,-26.16,-10.52,-0.6,0.18,1.55,5.5,43.1051376,-70.9951241,99
2.26,-12.53,100579,62.28,21.7,2.34,-4.41,0.35,237.07,-26.16,-10.52,-0.6,0.18,1.55,5.5,43.1051376,-70.9951241,99
2.26,-12.53,100579,62.28,21.7,2.34,-4.41,0.35,237.07,-26.16,-10.52,-0.6,0.18,1.55,5.5,43.1051376,-70.9951241,99
2.27,-12.53,100567,63.29,21.7,2.36,-4.7,0.71,232.8,-18.1,-10.88,-0.6,0.17,1.55,5.64,43.1051376,-70.9951241,99
2.28,-12.53,100579,62.28,21.7,2.35,-5.09,-0.07,230.17,-12.43,-10.15,-0.6,0.17,1.55,5.76,43.1051376,-70.9951241,99
2.29,-12.53,100571,62.95,21.7,2.28,-4.58,0.7,225.9,-11.57,-9.05,-0.6,0.16,1.56,5.86,43.1051376,-70.9951241,99
2.3,-12.53,100546,65.05,21.7,2.28,-4.73,0.2,221.14,-11.57,-7.95,-0.59,0.17,1.55,5.95,43.1051376,-70.9951241,99
2.31,-12.53,100565,63.46,21.7,2.26,-4.5,0.53,216.93,-11.02,-6.43,-0.59,0.18,1.57,6.02,43.1051376,-70.9951241,99
2.32,-12.53,100531,66.3,21.7,2.26,-4.29,0.31,213.08,-10.72,-5.02,-0.61,0.17,1.58,6.08,43.1051376,-70.9951241,99
2.33,-12.53,100541,65.47,21.7,2.2,-4.56,0.59,208.44,-10.17,-3.68,-0.59,0.16,1.58,6.12,43.1051376,-70.9951241,99
2.34,-12.53,100541,65.47,21.7,2.19,-4.26,0.29,205.21,-9.99,-2.46,-0.58,0.17,1.61,6.14,43.1051376,-70.9951241,99
2.35,-12.53,100518,67.39,21.7,2.17,-4.03,0.12,202.71,1.98,-3.5,-0.58,0.17,1.6,6.18,43.1051376,-70.9951241,99
2.36,-12.53,100513,67.81,21.7,2.19,-3.67,-0.01,200.69,7.23,-3.19,-0.6,0.17,1.6,6.22,43.1051376,-70.9951241,99
2.37,-12.53,100497,69.15,21.7,2.11,-4.4,0.23,198.43,1.67,-1.42,-0.58,0.16,1.62,6.23,43.1051376,-70.9951241,99
2.38,-12.53,100490,69.74,21.7,2.11,-4.51,0.26,195.69,-5.77,0.71,-0.59,0.16,1.63,6.22,43.1051376,-70.9951241,99
2.39,-12.53,100499,68.99,21.7,2.1,-4.33,0.34,191.6,-14.81,3.22,-0.58,0.16,1.63,6.16,43.1051376,-70.9951241,99
2.4,-12.53,100477,70.83,21.7,2.13,-3.47,0.21,186.11,-21.7,5.17,-0.58,0.17,1.62,6.08,43.1051376,-70.9951241,99
2.41,-12.53,100483,70.33,21.7,2.05,-3.66,-0.55,181.1,-25.31,6.51,-0.57,0.18,1.63,5.97,43.1051376,-70.9951241,99
2.42,-12.53,100470,71.42,21.7,2.05,-3.51,-0.41,178.78,-14.93,5.29,-0.57,0.16,1.64,5.9,43.1051376,-70.9951241,99
2.43,-12.53,100468,71.58,21.7,2.08,-4.14,-0.57,176.52,-8.22,4.99,-0.57,0.17,1.65,5.84,43.1051376,-70.9951241,99
2.44,-12.53,100456,72.59,21.7,2.07,-3.41,-0.63,174.39,-7.97,5.29,-0.56,0.17,1.64,5.77,43.1051376,-70.9951241,99
2.45,-12.53,100461,72.17,21.7,2.11,-2.9,-0.49,173.53,-8.09,5.72,-0.56,0.17,1.67,5.7,43.1051376,-70.9951241,99
2.46,-12.53,100460,72.25,21.7,2.01,-3.06,-0.52,173.47,-8.83,6.09,-0.56,0.18,1.66,5.62,43.1051376,-70.9951241,99
2.47,-12.53,100441,73.85,21.7,2.01,-3.01,-0.8,173.29,-9.07,6.51,-0.57,0.18,1.65,5.53,43.1051376,-70.9951241,99
2.48,-12.53,100444,73.6,21.7,2.06,-2.41,-0.32,172.31,-9.31,6.82,-0.56,0.16,1.68,5.44,43.1051376,-70.9951241,99
2.49,-12.53,100440,73.93,21.7,2.02,-2.32,-0.77,171.46,-9.68,6.88,-0.56,0.17,1.66,5.35,43.1051376,-70.9951241,99
2.5,-12.53,100425,75.19,21.7,1.97,-2.71,-0.7,171.03,-9.86,6.39,-0.54,0.18,1.67,5.26,43.1051376,-70.9951241,99
2.51,-12.53,100415,76.03,21.7,2.03,-2.95,-0.48,170.11,-10.29,6.27,-0.54,0.17,1.68,5.17,43.1051376,-70.9951241,99
2.52,-11.99,100405,76.87,21.7,2.01,-2.25,-0.03,169.01,-10.29,5.9,-0.53,0.17,1.68,5.08,43.1051376,-70.9951241,99
2.53,-11.99,100421,75.52,21.7,1.96,-2.35,-0.35,168.53,-10.6,5.9,-0.53,0.17,1.68,4.99,43.1051376,-70.9951241,99
2.54,-12.53,100393,77.87,21.7,1.9,-2.87,-0.85,168.1,-10.11,4.93,-0.54,0.17,1.68,4.91,43.1051376,-70.9951241,99
2.55,-12.53,100380,78.96,21.7,1.87,-2.39,-0.41,167.12,-10.53,4.86,-0.52,0.18,1.69,4.83,43.1051376,-70.9951241,99
2.56,-12.53,100382,78.79,21.7,1.92,-2.53,-0.55,166.94,-10.6,4.68,-0.53,0.18,1.71,4.75,43.1051376,-70.9951241,99
2.57,-11.99,100371,79.72,21.7,1.87,-3.03,-0.63,168.47,-10.35,4.07,-0.51,0.17,1.69,4.67,43.1051376,-70.9951241,99
2.58,-11.99,100365,80.22,21.7,1.88,-3.41,-0.65,168.59,-10.29,4.07,-0.52,0.17,1.7,4.59,43.1051376,-70.9951241,99
2.58,-11.99,100365,80.22,21.7,1.88,-3.41,-0.65,168.59,-10.29,4.07,-0.52,0.17,1.7,4.59,43.1051376,-70.9951241,99
2.59,-11.99,100361,80.56,21.7,1.81,-3.68,-0.65,168.71,-10.53,4.01,-0.51,0.18,1.71,4.51,43.1051376,-70.9951241,99
2.6,-11.99,100353,81.23,21.7,1.85,-3.41,-1,167.86,-10.23,4.19,-0.51,0.18,1.71,4.43,43.1051376,-70.9951241,99
2.61,-11.99,100342,82.15,21.7,1.93,-2.75,-1.18,167.55,-10.53,4.32,-0.51,0.18,1.71,4.35,43.1051376,-70.9951241,99
2.62,-11.99,100356,80.98,21.7,1.83,-2.83,-0.66,168.4,-10.72,4.13,-0.49,0.18,1.71,4.27,43.1051376,-70.9951241,99
2.63,-11.99,100339,82.4,21.7,1.81,-3.44,-1.13,168.53,-11.51,4.38,-0.48,0.18,1.7,4.18,43.1051376,-70.9951241,99
2.64,-11.99,100336,82.65,21.7,1.79,-2.68,-1.14,167.49,-11.51,4.38,-0.49,0.17,1.71,4.09,43.1051376,-70.9951241,99
2.65,-11.99,100328,83.33,21.7,1.83,-2.56,-0.91,167.37,-12.37,4.56,-0.49,0.17,1.7,3.99,43.1051376,-70.9951241,99
2.66,-11.99,100326,83.49,21.7,1.75,-2.34,-1.13,167.55,-12.73,4.13,-0.48,0.17,1.71,3.9,43.1051376,-70.9951241,99
2.67,-11.99,100316,84.33,21.7,1.68,-2.67,-1.08,167.73,-12.98,4.07,-0.47,0.17,1.72,3.8,43.1051376,-70.9951241,99
2.68,-11.99,100318,84.16,21.7,1.71,-2.15,-0.53,167.06,-13.46,4.25,-0.46,0.18,1.7,3.7,43.1051376,-70.9951241,99
2.69,-11.99,100300,85.67,21.7,1.67,-2.07,-0.46,167,-13.53,4.32,-0.46,0.18,1.7,3.6,43.1051376,-70.9951241,99
2.7,-11.99,100296,86.01,21.7,1.66,-1.78,-0.44,167.06,-13.83,4.32,-0.46,0.18,1.72,3.49,43.1051376,-70.9951241,99
2.71,-11.99,100306,85.17,21.7,1.61,-2.07,-0.27,166.15,-13.95,4.01,-0.44,0.17,1.71,3.39,43.1051376,-70.9951241,99
2.72,-11.99,100274,87.86,21.7,1.65,-2.04,-0.57,164.74,-14.01,3.7,-0.46,0.17,1.71,3.29,43.1051376,-70.9951241,99
2.73,-11.99,100287,86.77,21.7,1.6,-1.81,-0.19,163.46,-13.83,3.09,-0.44,0.18,1.71,3.2,43.1051376,-70.9951241,99
2.74,-11.99,100266,88.53,21.7,1.62,-1.86,-0.34,162.12,-13.65,2.3,-0.45,0.18,1.7,3.12,43.1051376,-70.9951241,99
2.75,-11.99,100283,87.1,21.7,1.6,-2.18,-0.24,160.59,-13.83,2.18,-0.44,0.19,1.7,3.04,43.1051376,-70.9951241,99
2.76,-11.99,100261,88.95,21.7,1.63,-2.17,0.24,159.49,-13.34,1.81,-0.44,0.19,1.71,2.96,43.1051376,-70.9951241,99
2.77,-11.99,100254,89.54,21.7,1.58,-1.68,0,159.68,-13.04,1.32,-0.42,0.19,1.72,2.89,43.1051376,-70.9951241,99
2.78,-11.99,100249,89.96,21.7,1.53,-2.06,0.02,159.19,-12.85,1.32,-0.42,0.19,1.72,2.83,43.1051376,-70.9951241,99
2.79,-11.99,100246,90.21,21.7,1.59,-1.62,-0.34,156.14,-12.37,0.9,-0.42,0.18,1.7,2.77,43.1051376,-70.9951241,99
2.8,-11.99,100225,91.97,21.7,1.58,-1.44,-0.15,155.53,-12.18,0.59,-0.42,0.18,1.7,2.71,43.1051376,-70.9951241,99
2.81,-11.99,100228,91.72,21.7,1.56,-1.55,-0.41,154.24,-12.06,0.35,-0.42,0.19,1.71,2.66,43.1051376,-70.9951241,99
2.82,-11.99,100223,92.14,21.7,1.54,-1.72,-0.23,153.39,-11.51,-0.02,-0.42,0.17,1.69,2.62,43.1051376,-70.9951241,99
2.83,-11.99,100203,93.82,21.7,1.59,-1.74,-0.1,152.66,-11.27,-0.32,-0.41,0.18,1.7,2.58,43.1051376,-70.9951241,99
2.84,-11.99,100219,92.48,21.7,1.56,-1.5,-0.33,151.74,-11.21,-0.69,-0.4,0.18,1.69,2.55,43.1051376,-70.9951241,99
2.85,-11.99,100211,93.15,21.7,1.57,-1.45,0.08,150.95,-10.96,-0.99,-0.41,0.18,1.68,2.52,43.1051376,-70.9951241,99
2.86,-11.99,100205,93.65,21.7,1.59,-1.63,0.06,151.07,-7.97,-1.24,-0.4,0.18,1.69,2.5,43.1051376,-70.9951241,99
2.87,-11.99,100216,92.73,21.7,1.54,-1.5,0.25,149.61,-15.72,0.1,-0.42,0.18,1.68,2.45,43.1051376,-70.9951241,99
2.88,-11.99,100178,95.92,21.7,1.57,-1.38,0.39,146.68,-22.8,0.65,-0.4,0.18,1.69,2.39,43.1051376,-70.9951241,99
2.89,-11.99,100187,95.16,21.7,1.54,-1.36,0.35,144.97,-25.49,0.65,-0.4,0.18,1.69,2.33,43.1051376,-70.9951241,99
2.9,-11.99,100162,97.26,21.7,1.56,-1.54,0.33,142.04,-26.77,0.16,-0.39,0.19,1.68,2.3,43.1051376,-70.9951241,99
2.9,-11.99,100162,97.26,21.7,1.56,-1.54,0.33,142.04,-26.77,0.16,-0.39,0.19,1.68,2.3,43.1051376,-70.9951241,99
2.91,-11.99,100149,98.36,21.7,1.58,-1.45,0.31,141.55,-25.06,-0.57,-0.39,0.19,1.68,2.3,43.1051376,-70.9951241,99
2.92,-11.99,100155,97.85,21.7,1.54,-1.68,0.3,141.49,-18.41,-1.97,-0.4,0.18,1.69,2.33,43.1051376,-70.9951241,99
2.93,-11.99,100162,97.26,21.7,1.56,-1.58,0.37,142.4,-9.92,-3.68,-0.38,0.19,1.67,2.37,43.1051376,-70.9951241,99
2.94,-11.99,100140,99.11,21.7,1.5,-1.39,0.69,143.01,-0.83,-5.15,-0.39,0.19,1.67,2.42,43.1051376,-70.9951241,99
2.95,-11.99,100137,99.36,21.7,1.57,-1.73,0.59,144.42,6.01,-5.88,-0.38,0.17,1.66,2.48,43.1051376,-70.9951241,99
2.96,-11.99,100139,99.2,21.7,1.49,-1.55,0.48,144.36,10.77,-6.12,-0.39,0.19,1.67,2.54,43.1051376,-70.9951241,99
2.97,-11.99,100120,100.79,21.7,1.56,-1.33,0.2,143.32,9.61,-5.45,-0.37,0.18,1.67,2.6,43.1051376,-70.9951241,99
2.98,-11.99,100128,100.12,21.7,1.49,-1.45,0.16,140.88,1.25,-3.92,-0.38,0.19,1.66,2.64,43.1051376,-70.9951241,99
2.99,-11.99,100122,100.63,21.7,1.49,-1.61,0.2,139.05,-6.99,-2.7,-0.38,0.19,1.67,2.66,43.1051376,-70.9951241,99
3,-11.99,100114,101.3,21.7,1.49,-1.53,0.48,137.95,-11.45,-2.22,-0.38,0.19,1.67,2.67,43.1051376,-70.9951241,99
3.01,-11.99,100104,102.14,21.7,1.53,-1.63,0.89,135.32,-21.77,-1.12,-0.37,0.18,1.65,2.66,43.1051376,-70.9951241,99
3.02,-11.99,100087,103.57,21.6,1.52,-1.73,1.05,134.53,-23.11,-1.12,-0.37,0.18,1.65,2.67,43.1051376,-70.9951241,99
3.03,-11.99,100099,102.56,21.7,1.48,-1.89,0.69,132.7,-19.51,-1.48,-0.37,0.18,1.66,2.69,43.1051376,-70.9951241,99
3.04,-11.99,100091,103.23,21.7,1.49,-1.24,0.1,132.64,-13.22,-2.46,-0.37,0.18,1.64,2.72,43.1051376,-70.9951241,99
3.05,-11.99,100090,103.32,21.7,1.44,-1.57,0.66,132.94,-4.92,-3.86,-0.37,0.18,1.63,2.76,43.1051376,-70.9951241,99
3.06,-11.99,100082,103.99,21.7,1.47,-1.73,0.42,134.04,3.5,-4.9,-0.36,0.19,1.63,2.81,43.1051376,-70.9951241,99
3.07,-11.99,100075,104.58,21.7,1.48,-1.38,0.87,133.19,-3.52,-3.07,-0.36,0.18,1.62,2.84,43.1051376,-70.9951241,99
3.08,-11.99,100078,104.32,21.7,1.52,-1.37,0.35,132.21,-3.21,-2.83,-0.37,0.18,1.63,2.87,43.1051376,-70.9951241,99
3.09,-11.99,100058,106.01,21.7,1.49,-1.55,0.68,131.72,-2.97,-2.7,-0.35,0.19,1.63,2.9,43.1051376,-70.9951241,99
3.1,-11.99,100067,105.25,21.7,1.45,-1.47,0.14,130.74,-2.66,-2.58,-0.36,0.18,1.64,2.92,43.1051376,-70.9951241,99
3.11,-11.99,100038,107.69,21.7,1.44,-1.59,0.91,129.95,-2.66,-2.95,-0.36,0.18,1.64,2.95,43.1051376,-70.9951241,99
3.12,-11.99,100031,108.28,21.7,1.43,-2.01,0.65,129.65,-2.6,-3.07,-0.36,0.19,1.61,2.98,43.1051376,-70.9951241,99
3.13,-11.44,100027,108.61,21.7,1.44,-2.16,0.91,128.43,-2.23,-2.95,-0.36,0.19,1.61,3.01,43.1051376,-70.9951241,99
3.14,-11.99,100022,109.03,21.7,1.46,-2.34,1.02,130.13,9.55,-4.47,-0.35,0.18,1.62,3.06,43.1051376,-70.9951241,99
3.15,-11.44,100012,109.87,21.6,1.49,-2.52,1.08,128.43,2.77,-2.83,-0.34,0.18,1.63,3.09,43.1051376,-70.9951241,99
3.16,-11.99,100015,109.62,21.7,1.48,-2.49,0.77,125.07,-5.83,-0.75,-0.35,0.18,1.61,3.09,43.1051376,-70.9951241,99
3.17,-11.99,100005,110.46,21.7,1.48,-2.7,1.24,120.98,-12.85,0.47,-0.35,0.19,1.6,3.07,43.1051376,-70.9951241,99
3.18,-11.99,100001,110.8,21.7,1.49,-2.96,1.13,117.56,-17.31,1.57,-0.34,0.19,1.6,3.04,43.1051376,-70.9951241,99
3.19,-11.99,99986,112.06,21.7,1.53,-2.58,0.55,113.96,-17.07,2.36,-0.35,0.18,1.59,3,43.1051376,-70.9951241,99
3.2,-11.99,99986,112.06,21.7,1.47,-2.83,1.02,111.88,-12.37,2.91,-0.35,0.18,1.59,2.97,43.1051376,-70.9951241,99
3.21,-11.99,99979,112.65,21.7,1.45,-2.05,0.93,113.78,0.88,2.06,-0.35,0.19,1.59,2.95,43.1051376,-70.9951241,99
3.22,-11.99,99962,114.08,21.7,1.44,-2.25,0.79,112.37,1.67,3.22,-0.35,0.17,1.59,2.91,43.1051376,-70.9951241,99
3.22,-11.99,99962,114.08,21.7,1.44,-2.25,0.79,112.37,1.67,3.22,-0.35,0.17,1.59,2.91,43.1051376,-70.9951241,99
3.23,-11.99,99962,114.08,21.6,1.39,-1.57,0.86,109.87,2.04,4.68,-0.34,0.18,1.59,2.87,43.1051376,-70.9951241,99
3.24,-11.99,99968,113.58,21.7,1.44,-1.44,0.67,109.14,1.86,5.72,-0.36,0.19,1.59,2.82,43.1051376,-70.9951241,99
3.25,-11.44,99958,114.42,21.7,1.36,-0.89,0.91,109.14,2.53,5.96,-0.34,0.19,1.58,2.76,43.1051376,-70.9951241,99
3.26,-11.44,99961,114.17,21.7,1.44,-1.13,0.4,108.47,2.95,6.27,-0.33,0.18,1.57,2.7,43.1050888,-70.9950909,163
3.26,-11.44,99961,114.17,21.7,1.44,-1.13,0.4,108.47,2.95,6.27,-0.33,0.18,1.57,2.7,43.1050888,-70.9950909,163
3.26,-11.44,99961,114.17,21.7,1.44,-1.13,0.4,108.47,2.95,6.27,-0.33,0.18,1.57,2.7,43.1050888,-70.9950909,163
3.27,-11.44,99952,114.92,21.7,1.36,-1.24,0.11,107.98,3.26,6.57,-0.34,0.19,1.57,2.65,43.1050888,-70.9950909,163
3.28,-11.99,99960,114.25,21.7,1.39,-1.29,0.31,108.28,10.83,4.86,-0.34,0.19,1.57,2.63,43.1050888,-70.9950909,163
3.29,-11.44,99930,116.78,21.7,1.39,-1.07,-0.21,110.3,17.3,3.52,-0.33,0.18,1.56,2.65,43.1050888,-70.9950909,163
3.3,-11.44,99938,116.1,21.7,1.34,-1.35,0.68,110.54,20.84,3.03,-0.35,0.19,1.57,2.71,43.1050888,-70.9950909,163
3.31,-11.99,99940,115.93,21.6,1.35,-1.59,0.06,111.58,19.19,3.34,-0.33,0.19,1.56,2.78,43.1050888,-70.9950909,163
3.32,-11.99,99920,117.62,21.7,1.37,-1.28,0.16,111.4,13.76,4.56,-0.34,0.19,1.57,2.82,43.1050888,-70.9950909,163
3.33,-11.99,99924,117.28,21.7,1.31,-1.54,0.11,109.87,5.88,5.9,-0.33,0.18,1.57,2.81,43.1050888,-70.9950909,163
3.34,-11.44,99906,118.8,21.7,1.3,-1.75,-0.07,108.34,-3.15,7.25,-0.34,0.18,1.55,2.74,43.1050888,-70.9950909,163
3.35,-11.44,99905,118.88,21.7,1.33,-1.67,-0.16,106.88,-10.29,8.4,-0.33,0.19,1.55,2.6,43.1050888,-70.9950909,163
3.36,-11.44,99893,119.89,21.7,1.34,-1.44,-0.19,105.72,-14.44,8.71,-0.35,0.19,1.56,2.44,43.1050888,-70.9950909,163
3.37,-11.44,99888,120.31,21.7,1.34,-1.3,-0.25,105.11,-14.38,8.71,-0.33,0.2,1.55,2.28,43.1050888,-70.9950909,163
3.38,-11.44,99887,120.4,21.6,1.28,-1.22,-0.28,104.93,-9.92,7.79,-0.34,0.18,1.54,2.16,43.1050888,-70.9950909,163
3.39,-11.44,99883,120.73,21.7,1.28,-1.18,-0.27,105.11,-3.09,6.51,-0.33,0.18,1.54,2.09,43.1050888,-70.9950909,163
3.4,-11.44,99883,120.73,21.7,1.28,-1.11,-0.09,106.7,6.01,5.23,-0.33,0.17,1.53,2.1,43.1050888,-70.9950909,163
3.41,-11.44,99879,121.07,21.6,1.26,-1.13,-0.31,107.98,13.64,4.13,-0.33,0.17,1.54,2.17,43.1050888,-70.9950909,163
3.42,-11.44,99871,121.74,21.7,1.28,-1.17,-0.07,108.59,18.52,3.58,-0.34,0.2,1.54,2.3,43.1050888,-70.9950909,163
3.43,-11.44,99873,121.58,21.7,1.3,-0.97,-0.11,109.26,19.13,3.52,-0.33,0.19,1.54,2.44,43.1050888,-70.9950909,163
3.44,-11.44,99870,121.83,21.7,1.29,-1.1,0,109.14,15.1,4.44,-0.33,0.18,1.52,2.55,43.1050888,-70.9950909,163
3.45,-11.44,99852,123.34,21.7,1.3,-0.84,0.08,108.1,8.14,5.6,-0.33,0.18,1.53,2.6,43.1050888,-70.9950909,163
3.46,-11.44,99841,124.27,21.7,1.29,-0.87,0.02,106.15,-0.52,7.25,-0.33,0.18,1.54,2.57,43.1050888,-70.9950909,163
3.47,-11.44,99845,123.93,21.6,1.28,-0.79,-0.14,103.77,-8.58,8.28,-0.32,0.18,1.53,2.46,43.1050888,-70.9950909,163
3.48,-11.44,99833,124.94,21.6,1.24,-0.54,-0.64,102.18,-14.87,8.71,-0.33,0.19,1.51,2.29,43.1050888,-70.9950909,163
3.49,-11.44,99833,124.94,21.6,1.25,-0.84,-0.16,103.16,0.51,5.6,-0.32,0.18,1.51,2.28,43.1050888,-70.9950909,163
3.5,-11.44,99827,125.45,21.7,1.27,-0.77,-0.52,102.06,1.06,5.41,-0.32,0.18,1.5,2.28,43.1050888,-70.9950909,163
3.51,-11.44,99822,125.87,21.6,1.23,-0.73,-0.4,101.26,1.25,5.17,-0.33,0.18,1.51,2.28,43.1050888,-70.9950909,163
3.52,-11.44,99821,125.96,21.7,1.27,-0.68,-0.31,100.59,1.18,5.05,-0.33,0.19,1.5,2.29,43.1050888,-70.9950909,163
3.53,-11.44,99806,127.22,21.6,1.24,-0.78,-0.34,99.74,1.06,4.93,-0.32,0.18,1.5,2.29,43.1050888,-70.9950909,163
3.54,-11.44,99808,127.05,21.7,1.21,-0.59,-0.15,99.07,0.7,4.8,-0.34,0.19,1.52,2.29,43.1050888,-70.9950909,163
3.54,-11.44,99808,127.05,21.7,1.21,-0.59,-0.15,99.07,0.7,4.8,-0.34,0.19,1.52,2.29,43.1050888,-70.9950909,163
3.55,-11.44,99799,127.81,21.7,1.23,-0.7,-0.03,99.01,0.45,4.5,-0.32,0.18,1.51,2.3,43.1050888,-70.9950909,163
3.56,-11.44,99812,126.71,21.7,1.25,-0.43,-0.08,96.38,-4.31,4.62,-0.33,0.18,1.49,2.25,43.1050888,-70.9950909,163
3.57,-11.44,99787,128.82,21.7,1.21,-0.48,-0.26,97.42,4.24,3.22,-0.34,0.19,1.51,2.3,43.1050888,-70.9950909,163
3.58,-11.44,99789,128.65,21.7,1.25,-0.27,-0.58,99.31,11.93,1.69,-0.33,0.19,1.49,2.42,43.1050888,-70.9950909,163
3.59,-11.44,99778,129.58,21.6,1.18,-0.41,-0.23,100.29,17.48,1.08,-0.35,0.19,1.49,2.59,43.1050888,-70.9950909,163
3.6,-11.44,99775,129.83,21.6,1.22,-0.45,-0.55,101.08,18.52,0.96,-0.34,0.18,1.49,2.78,43.1050888,-70.9950909,163
3.61,-11.44,99770,130.25,21.7,1.21,-0.53,-0.65,101.14,14.86,1.51,-0.34,0.19,1.49,2.93,43.1050888,-70.9950909,163
3.62,-11.44,99755,131.52,21.6,1.21,-0.56,-0.57,100.71,8.14,2.97,-0.33,0.18,1.47,3.01,43.1050888,-70.9950909,163
3.63,-11.44,99758,131.26,21.6,1.2,-0.51,-0.58,98.52,0.88,3.34,-0.34,0.18,1.47,3.03,43.1050888,-70.9950909,163
3.64,-11.44,99765,130.67,21.6,1.12,-0.43,-0.61,99.01,0.51,3.03,-0.35,0.19,1.48,3.04,43.1050888,-70.9950909,163
3.65,-11.44,99738,132.95,21.6,1.17,-0.52,-0.77,99.25,0.33,2.91,-0.33,0.18,1.47,3.05,43.1050888,-70.9950909,163
3.66,-11.44,99744,132.45,21.6,1.13,-0.47,-0.44,99.55,0.09,2.97,-0.34,0.17,1.47,3.05,43.1050888,-70.9950909,163
3.67,-11.44,99723,134.22,21.6,1.17,-0.4,-0.57,99.8,-0.16,2.79,-0.33,0.18,1.46,3.06,43.1050888,-70.9950909,163
3.68,-11.44,99720,134.47,21.6,1.11,-0.58,-0.64,99.92,-0.16,2.55,-0.34,0.19,1.47,3.06,43.1050888,-70.9950909,163
3.69,-11.44,99731,133.54,21.7,1.17,-0.41,-0.46,100.1,-0.16,2.36,-0.34,0.18,1.48,3.07,43.1050888,-70.9950909,163
3.7,-11.44,99720,134.47,21.6,1.11,-0.52,-0.52,99.92,-0.4,2.48,-0.33,0.18,1.46,3.07,43.1050888,-70.9950909,163
3.71,-11.44,99697,136.41,21.7,1.12,-0.36,-0.48,99.98,-0.65,2.3,-0.35,0.17,1.46,3.08,43.1050888,-70.9950909,163
3.72,-11.44,99714,134.97,21.6,1.1,-0.45,-0.55,99.8,-0.71,2.06,-0.35,0.19,1.45,3.08,43.1050888,-70.9950909,163
3.73,-11.44,99700,136.16,21.6,1.1,-0.28,-0.39,100.47,-0.71,2.18,-0.34,0.19,1.43,3.08,43.1050888,-70.9950909,163
3.74,-11.44,99692,136.83,21.7,1.08,-0.21,-0.7,101.26,-0.83,2.12,-0.35,0.18,1.43,3.08,43.1050888,-70.9950909,163
3.75,-11.44,99680,137.84,21.6,1.1,-0.22,-0.57,102,-0.89,2.12,-0.34,0.19,1.46,3.08,43.1050888,-70.9950909,163
3.76,-11.44,99704,135.82,21.7,1.08,-0.19,-0.66,102.67,-0.89,1.69,-0.34,0.19,1.45,3.08,43.1050888,-70.9950909,163
3.77,-11.44,99687,137.25,21.6,1.09,-0.32,-0.59,103.28,-0.89,1.57,-0.35,0.19,1.45,3.08,43.1050888,-70.9950909,163
3.78,-11.44,99687,137.25,21.6,1.05,-0.36,-0.54,103.4,-1.13,1.45,-0.34,0.19,1.44,3.08,43.1050888,-70.9950909,163
3.79,-11.44,99673,138.43,21.7,1.04,-0.29,-0.7,103.77,-1.26,1.14,-0.35,0.18,1.44,3.08,43.1050888,-70.9950909,163
3.8,-11.44,99665,139.11,21.6,1.03,-0.33,-0.35,103.58,-1.32,1.02,-0.36,0.19,1.44,3.07,43.1050888,-70.9950909,163
3.81,-11.44,99674,138.35,21.7,1.02,-0.4,-0.58,104.8,-1.56,1.08,-0.36,0.19,1.42,3.06,43.1050888,-70.9950909,163
3.82,-11.44,99657,139.78,21.7,1.04,-0.37,-0.48,105.9,-1.87,0.96,-0.35,0.18,1.42,3.06,43.1050888,-70.9950909,163
3.83,-11.44,99633,141.81,21.7,1.04,-0.23,-0.73,105.84,-1.81,0.59,-0.35,0.19,1.44,3.04,43.1050888,-70.9950909,163
3.84,-11.44,99653,140.12,21.7,1.01,-0.28,-0.51,105.48,-1.68,0.53,-0.36,0.18,1.42,3.04,43.1050888,-70.9950909,163
3.85,-11.44,99658,139.7,21.6,1.04,-0.11,-0.8,105.11,-1.93,0.59,-0.36,0.18,1.42,3.02,43.1050888,-70.9950909,163
3.86,-11.44,99628,142.23,21.6,1.03,-0.04,-0.56,105.48,-1.87,0.41,-0.36,0.18,1.41,3.01,43.1050888,-70.9950909,163
3.86,-11.44,99628,142.23,21.6,1.03,-0.04,-0.56,105.48,-1.87,0.41,-0.36,0.18,1.41,3.01,43.1050888,-70.9950909,163
3.87,-11.44,99610,143.75,21.7,1,-0.03,-0.46,105.72,-2.05,0.47,-0.36,0.18,1.42,3,43.1050888,-70.9950909,163
3.88,-11.44,99646,140.71,21.6,0.98,0.17,-0.74,105.9,-2.36,0.35,-0.37,0.17,1.42,2.99,43.1050888,-70.9950909,163
3.89,-11.44,99631,141.98,21.7,0.99,-0.05,-0.44,106.09,-2.54,0.16,-0.36,0.17,1.4,2.97,43.1050888,-70.9950909,163
3.9,-11.44,99606,144.09,21.6,1.02,-0.11,-0.34,106.82,-2.9,0.1,-0.37,0.18,1.41,2.95,43.1050888,-70.9950909,163
3.91,-11.44,99623,142.65,21.6,0.99,-0.03,-0.35,106.76,-2.9,-0.14,-0.37,0.18,1.41,2.93,43.1050888,-70.9950909,163
3.92,-11.44,99615,143.33,21.7,1,0.22,-0.31,106.94,-2.97,-0.45,-0.36,0.17,1.4,2.91,43.1050888,-70.9950909,163
3.93,-11.44,99599,144.68,21.6,0.98,0.1,-0.21,107.37,-3.03,-0.63,-0.37,0.17,1.4,2.89,43.1050888,-70.9950909,163
3.94,-11.44,99590,145.44,21.6,0.94,-0.16,-0.29,107.06,-3.03,-0.51,-0.37,0.18,1.38,2.86,43.1050888,-70.9950909,163
3.95,-11.44,99601,144.51,21.6,0.97,-0.07,-0.3,107,-2.78,-0.93,-0.38,0.18,1.38,2.84,43.1050888,-70.9950909,163
3.96,-11.44,99597,144.85,21.6,0.95,-0.11,-0.45,106.82,-2.72,-1.36,-0.38,0.18,1.38,2.81,43.1050888,-70.9950909,163
3.97,-11.44,99575,146.7,21.6,0.93,-0.15,-0.51,106.57,-2.6,-1.3,-0.38,0.19,1.37,2.79,43.1050888,-70.9950909,163
3.98,-11.44,99578,146.45,21.6,0.97,0.06,-0.41,106.33,-2.54,-1.42,-0.39,0.18,1.4,2.76,43.1050888,-70.9950909,163
3.99,-11.44,99570,147.13,21.7,0.99,0.05,-0.25,107.61,-2.48,-1.61,-0.38,0.19,1.4,2.74,43.1050888,-70.9950909,163
4,-10.9,99563,147.72,21.7,0.98,-0.05,-0.4,108.22,-2.48,-1.67,-0.38,0.16,1.38,2.71,43.1050888,-70.9950909,163
4.01,-11.44,99558,148.14,21.6,0.93,-0.03,-0.4,107.92,-2.66,-1.61,-0.38,0.2,1.38,2.68,43.1050888,-70.9950909,163
4.02,-11.44,99549,148.9,21.7,0.93,-0.18,-0.3,108.1,-2.66,-1.97,-0.39,0.19,1.39,2.65,43.1050888,-70.9950909,163
4.03,-11.44,99564,147.63,21.6,0.94,-0.38,-0.24,108.1,-2.72,-2.52,-0.39,0.17,1.37,2.62,43.1050888,-70.9950909,163
4.04,-11.44,99560,147.97,21.7,0.97,-0.28,-0.11,107.73,-2.66,-2.34,-0.39,0.17,1.36,2.59,43.1050888,-70.9950909,163
4.05,-10.9,99551,148.73,21.6,0.95,-0.24,-0.33,107.55,-2.48,-2.34,-0.39,0.18,1.37,2.56,43.1050888,-70.9950909,163
4.06,-11.44,99541,149.57,21.7,0.96,-0.11,-0.35,107.92,-2.23,-2.64,-0.4,0.18,1.36,2.52,43.1050888,-70.9950909,163
4.07,-11.44,99526,150.84,21.6,0.95,-0.19,-0.51,108.89,-2.23,-2.7,-0.39,0.18,1.36,2.49,43.1050888,-70.9950909,163
4.08,-11.44,99521,151.26,21.6,0.94,-0.2,-0.42,109.63,-2.17,-2.46,-0.41,0.18,1.36,2.46,43.1050888,-70.9950909,163
4.09,-11.44,99524,151.01,21.6,0.94,0.3,-0.33,110.54,-1.75,-2.77,-0.41,0.19,1.35,2.43,43.1050888,-70.9950909,163
4.1,-11.44,99520,151.35,21.6,0.92,-0.23,-0.58,110.72,-1.81,-2.83,-0.41,0.18,1.37,2.4,43.1050888,-70.9950909,163
4.11,-11.44,99523,151.09,21.6,0.97,-0.02,-0.37,110.48,-1.81,-2.77,-0.41,0.17,1.35,2.37,43.1050888,-70.9950909,163
4.12,-11.44,99512,152.02,21.6,0.92,0,-0.27,110.18,-1.87,-2.77,-0.41,0.18,1.37,2.34,43.1050888,-70.9950909,163
4.13,-11.44,99496,153.37,21.6,0.91,0.16,-0.34,109.99,-1.75,-3.07,-0.42,0.17,1.37,2.3,43.1050888,-70.9950909,163
4.14,-11.44,99506,152.53,21.7,0.93,0.03,-0.31,110.3,-1.87,-3.13,-0.42,0.18,1.36,2.27,43.1050888,-70.9950909,163
4.15,-11.44,99492,153.71,21.6,0.9,-0.14,-0.2,109.69,-1.87,-3.13,-0.42,0.19,1.36,2.24,43.1050888,-70.9950909,163
4.16,-10.9,99502,152.87,21.6,0.89,-0.04,-0.13,109.5,-1.93,-3.31,-0.43,0.17,1.34,2.2,43.1050888,-70.9950909,163
4.17,-11.44,99498,153.21,21.7,0.9,-0.09,-0.12,109.38,-1.75,-3.56,-0.42,0.18,1.36,2.16,43.1050888,-70.9950909,163
4.18,-11.44,99488,154.05,21.7,0.88,-0.12,-0.33,108.65,-1.75,-3.62,-0.43,0.18,1.34,2.13,43.1050888,-70.9950909,163
4.18,-11.44,99488,154.05,21.7,0.88,-0.12,-0.33,108.65,-1.75,-3.62,-0.43,0.18,1.34,2.13,43.1050888,-70.9950909,163
4.19,-10.9,99479,154.81,21.7,0.86,-0.01,-0.06,108.22,-1.75,-3.68,-0.42,0.18,1.35,2.09,43.1050888,-70.9950909,163
4.2,-10.9,99484,154.39,21.6,0.84,-0.29,-0.44,108.16,-1.44,-3.8,-0.44,0.18,1.35,2.05,43.1050888,-70.9950909,163
4.21,-10.9,99471,155.49,21.6,0.89,-0.06,-0.15,107.55,-1.38,-3.86,-0.43,0.18,1.36,2.01,43.1050888,-70.9950909,163
4.22,-10.9,99466,155.91,21.6,0.89,-0.14,-0.27,107.31,-1.38,-3.86,-0.44,0.19,1.35,1.98,43.1050888,-70.9950909,163
4.23,-11.44,99457,156.67,21.6,0.92,-0.06,-0.11,107,-1.38,-3.92,-0.45,0.18,1.36,1.94,43.1050888,-70.9950909,163
4.24,-10.9,99454,156.92,21.6,0.84,-0.22,-0.13,107,-1.38,-3.92,-0.45,0.18,1.34,1.9,43.1050888,-70.9950909,163
4.25,-10.9,99463,156.16,21.7,0.83,-0.14,-0.09,106.82,-1.32,-4.11,-0.45,0.17,1.35,1.86,43.1050888,-70.9950909,163
4.26,-10.9,99457,156.67,21.7,0.86,-0.07,-0.03,106.15,-1.44,-4.05,-0.45,0.17,1.34,1.82,43.1050413,-70.9950488,216
4.26,-10.9,99457,156.67,21.7,0.86,-0.07,-0.03,106.15,-1.44,-4.05,-0.45,0.17,1.34,1.82,43.1050413,-70.9950488,216
4.26,-10.9,99457,156.67,21.7,0.86,-0.07,-0.03,106.15,-1.44,-4.05,-0.45,0.17,1.34,1.82,43.1050413,-70.9950488,216
4.27,-10.9,99459,156.5,21.6,0.86,-0.24,0.16,105.72,-1.26,-4.23,-0.46,0.18,1.34,1.78,43.1050413,-70.9950488,216
4.28,-10.9,99446,157.6,21.6,0.83,-0.26,0,105.54,-1.07,-4.29,-0.45,0.18,1.35,1.74,43.1050413,-70.9950488,216
4.29,-10.9,99435,158.53,21.6,0.83,-0.34,-0.1,103.89,-0.89,-4.41,-0.46,0.18,1.34,1.7,43.1050413,-70.9950488,216
4.3,-10.9,99435,158.53,21.6,0.83,-0.13,0.12,102.91,-1.07,-4.35,-0.45,0.18,1.34,1.67,43.1050413,-70.9950488,216
4.31,-10.9,99426,159.29,21.6,0.88,-0.25,0.17,102.61,-0.83,-4.35,-0.46,0.17,1.36,1.63,43.1050413,-70.9950488,216
4.32,-10.9,99416,160.14,21.6,0.83,-0.33,0.13,102.24,-0.59,-4.35,-0.48,0.17,1.36,1.59,43.1050413,-70.9950488,216
4.33,-10.9,99420,159.8,21.6,0.83,-0.33,0.11,101.57,-0.34,-4.29,-0.47,0.18,1.34,1.55,43.1050413,-70.9950488,216
4.34,-10.9,99405,161.07,21.6,0.83,-0.13,0.22,101.2,-0.28,-4.29,-0.47,0.17,1.36,1.51,43.1050413,-70.9950488,216
4.35,-10.9,99419,159.88,21.7,0.83,-0.18,0.07,100.71,-0.16,-4.6,-0.47,0.18,1.36,1.47,43.1050413,-70.9950488,216
4.36,-10.9,99398,161.66,21.6,0.79,-0.21,0.19,100.41,-0.1,-4.41,-0.47,0.18,1.34,1.43,43.1050413,-70.9950488,216
4.37,-10.9,99384,162.84,21.6,0.8,-0.25,0,100.41,0.09,-4.41,-0.47,0.17,1.34,1.39,43.1050413,-70.9950488,216
4.38,-10.9,99387,162.59,21.6,0.84,-0.37,0.38,99.19,0.39,-4.6,-0.49,0.18,1.35,1.35,43.1050413,-70.9950488,216
4.39,-10.9,99398,161.66,21.6,0.73,-0.36,0.03,97.6,0.51,-4.41,-0.48,0.19,1.35,1.31,43.1050413,-70.9950488,216
4.4,-10.9,99386,162.67,21.7,0.79,-0.24,0.3,96.26,0.51,-4.47,-0.49,0.19,1.35,1.27,43.1050413,-70.9950488,216
4.41,-10.9,99389,162.42,21.6,0.77,-0.34,0.11,95.22,0.57,-4.72,-0.48,0.17,1.35,1.23,43.1050413,-70.9950488,216
4.42,-10.9,99390,162.33,21.6,0.79,-0.57,0.29,94.31,0.94,-4.6,-0.49,0.17,1.36,1.19,43.1050413,-70.9950488,216
