time,acceleration,pressure,altitude,height,speed,temperature,accel_x,accel_y,accel_z,gyro_roll,gyro_pitch,gyro_yaw,mag_x,mag_y,mag_z,tilt,latitude,longitude,altitude
-0.3,0,98835,209.37,-1.36,0,38.2,9.86,-0.11,0.36,0.2,-0.03,0.1,0.23,0.07,0.18,1.6,45.5438795,-92.9300688,259
-0.29,0,98802,212.17,1.44,0,38.2,9.81,-0.03,0.29,0.02,0.09,0.04,0.23,0.09,0.19,1.6,45.5438795,-92.9300688,259
-0.28,0,98825,210.22,-0.51,0,38.2,9.87,0.02,0.18,0.14,0.09,0.04,0.23,0.09,0.18,1.6,45.5438795,-92.9300688,259
-0.27,0,98826,210.13,-0.59,0,38.1,9.89,-0.07,0.2,0.38,-0.09,-0.02,0.23,0.09,0.18,1.6,45.5438795,-92.9300688,259
-0.26,0,98822,210.47,-0.25,0,38.2,9.83,-0.11,0.27,0.38,0.09,-0.02,0.24,0.08,0.18,1.6,45.5438795,-92.9300688,259
-0.25,0,98828,209.96,-0.76,0,38.2,9.8,-0.04,0.26,0.81,-0.09,-0.02,0.23,0.09,0.18,1.6,45.5438795,-92.9300688,259
-0.24,0,98818,210.81,0.08,0,38.2,9.84,0.01,0.25,0.45,0.03,0.04,0.22,0.1,0.18,1.6,45.5438795,-92.9300688,259
-0.23,0,98819,210.73,0,0,38.2,9.84,0,0.31,0.51,-0.09,-0.14,0.23,0.07,0.18,1.6,45.5438795,-92.9300688,259
-0.22,0,98822,210.47,-0.25,0,38.2,9.85,-0.08,0.23,0.87,-0.03,-0.02,0.24,0.1,0.18,1.6,45.5438795,-92.9300688,259
-0.21,0,98805,211.91,1.19,0,38.2,9.85,-0.02,0.16,1.54,-0.15,-0.02,0.24,0.09,0.19,1.6,45.5438795,-92.9300688,259
-0.2,0,98830,209.79,-0.93,0,38.2,9.88,0.02,0.3,1.79,-0.09,-0.08,0.24,0.09,0.17,1.6,45.5438795,-92.9300688,259
-0.19,0,98810,211.49,0.76,0,38.2,9.88,0,0.3,2.03,-0.09,0.04,0.24,0.08,0.18,1.6,45.5438795,-92.9300688,259
-0.18,0,98834,209.45,-1.27,0,38.2,9.87,-0.05,0.33,2.52,0.09,0.1,0.23,0.09,0.18,1.6,45.5438795,-92.9300688,259
-0.17,0,98821,210.56,-0.17,0,38.2,9.86,-0.08,0.28,2.64,-0.03,-0.02,0.23,0.09,0.18,1.6,45.5438795,-92.9300688,259
-0.16,0,98805,211.91,1.19,0,38.2,9.84,-0.06,0.3,2.95,0.15,0.04,0.24,0.09,0.18,1.6,45.5438795,-92.9300688,259
-0.15,0,98833,209.54,-1.19,0,38.2,9.88,-0.03,0.34,2.83,0.03,-0.02,0.23,0.1,0.17,1.6,45.5438795,-92.9300688,259
-0.14,0,98822,210.47,-0.25,0,38.2,9.84,-0.07,0.3,2.58,-0.09,-0.02,0.24,0.1,0.18,1.6,45.5438795,-92.9300688,259
-0.13,0,98812,211.32,0.59,0,38.2,10.03,-0.06,0.16,2.64,-0.22,-0.08,0.23,0.08,0.18,1.6,45.5438795,-92.9300688,259
-0.12,0,98831,209.71,-1.02,0,38.2,9.79,-0.01,0.17,3.07,-0.03,-0.02,0.23,0.09,0.18,1.6,45.5438795,-92.9300688,259
-0.11,0,98819,210.73,0,0,38.2,9.85,-0.03,0.29,3.92,-0.09,0.04,0.22,0.1,0.18,1.6,45.5438795,-92.9300688,259
-0.1,0,98823,210.39,-0.34,0,38.2,9.76,0.04,0.21,4.6,-0.28,0.1,0.23,0.08,0.18,1.6,45.5438795,-92.9300688,259
-0.09,0,98817,210.9,0.17,0,38.2,9.9,-0.09,0.16,5.94,-0.22,0.04,0.24,0.09,0.18,1.6,45.5438795,-92.9300688,259
-0.08,0,98818,210.81,0.08,0,38.2,9.83,0,-0.14,6.12,-0.09,0.1,0.23,0.08,0.18,1.6,45.5438795,-92.9300688,259
-0.07,0,98821,210.56,-0.17,0,38.2,9.84,0.27,0.24,4.96,-0.28,-0.02,0.23,0.08,0.18,1.6,45.5438795,-92.9300688,259
-0.06,0,98819,210.73,0,0.01,38.2,10.01,-0.43,0.36,4.54,0.03,-0.08,0.23,0.08,0.19,1.6,45.5438795,-92.9300688,259
-0.05,0,98819,210.73,0,0.06,38.2,9.78,-0.13,0.48,5.51,0.03,0.04,0.23,0.1,0.18,1.6,45.5438795,-92.9300688,259
-0.04,0,98830,209.79,-0.93,0.28,38.2,9.83,-0.11,0.22,7.04,-0.09,-0.02,0.23,0.09,0.19,1.6,45.5438795,-92.9300688,259
-0.03,0.54,98808,211.66,0.93,0.84,38.1,9.88,0.07,0.27,6.73,-0.09,-0.02,0.24,0.08,0.19,1.6,45.5438795,-92.9300688,259
-0.02,51.21,98834,209.45,-1.27,1.93,38.2,10.28,0.12,0.11,7.77,0.03,0.04,0.23,0.1,0.17,1.6,45.5438795,-92.9300688,259
-0.01,324.71,98863,206.99,-3.74,3.64,38.2,20.78,2.2,0.06,11.62,0.03,0.34,0.25,0.08,0.19,1.6,45.5438795,-92.9300688,259
0,329.61,99192,179.09,-31.64,5.89,38.2,156.93,-41.34,12.72,9.3,-7.36,-1.91,0.23,0.08,0.19,1.69,45.5438795,-92.9300688,259
0.01,329.61,98787,213.44,2.72,8.52,38.2,156.93,-9.71,-44.6,16.32,0.39,10.35,0.23,0.08,0.19,1.67,45.5438795,-92.9300688,259
0.01,329.61,98787,213.44,2.72,8.52,38.2,156.93,-9.71,-44.6,16.32,0.39,10.35,0.23,0.08,0.19,1.67,45.5438795,-92.9300688,259
0.02,260.97,98834,209.45,-1.27,11.29,38.2,156.93,-9.55,-24.01,-30.44,-0.95,7.12,0.21,0.07,0.22,1.68,45.5438795,-92.9300688,259
0.02,260.97,98834,209.45,-1.27,11.29,38.2,156.93,-9.55,-24.01,-30.44,-0.95,7.12,0.21,0.07,0.22,1.68,45.5438795,-92.9300688,259
0.03,255.52,98826,210.13,-0.59,14.02,38.2,156.93,-17.69,-23.7,-53.08,6.86,1.08,0.21,0.03,0.25,1.61,45.5438795,-92.9300688,259
0.04,247.35,98816,210.98,0.25,16.64,38.2,156.93,17.03,-9.42,-33.74,1.92,10.05,0.2,-0.01,0.27,1.59,45.5438795,-92.9300688,259
0.05,247.35,98792,213.02,2.29,19.16,38.2,156.93,-17.57,-5,-18.54,0.82,7.85,0.18,-0.1,0.28,1.59,45.5438795,-92.9300688,259
0.06,240.81,98809,211.57,0.85,21.63,38.2,156.93,-19.1,-13.31,53.18,8.76,-9.05,0.19,-0.17,0.23,1.49,45.5438795,-92.9300688,259
0.07,241.9,98810,211.49,0.76,24.07,38.2,156.93,13.52,3.08,64.29,5.28,-5.27,0.19,-0.19,0.13,1.44,45.5438795,-92.9300688,259
0.08,242.44,98801,212.25,1.53,26.49,38.2,156.93,-8.46,16.04,59.53,2.47,-6.67,0.19,-0.19,0.13,1.42,45.5438795,-92.9300688,259
0.09,241.35,98789,213.27,2.55,28.91,38.2,156.93,-3.19,-13.96,61.24,3.69,0.16,0.19,-0.19,0.13,1.38,45.5438795,-92.9300688,259
0.1,240.81,98794,212.85,2.12,31.32,38.1,156.93,6.25,6,53.85,-1.92,2.79,0.21,-0.11,0.07,1.4,45.5438795,-92.9300688,259
0.11,240.81,98784,213.7,2.97,33.73,38.2,156.93,-1.17,4.36,51.53,23.96,1.44,0.2,-0.1,0.05,1.16,45.5438795,-92.9300688,259
0.12,240.81,98781,213.95,3.23,36.13,38.2,156.93,-1.05,4.24,67.65,0.03,12.98,0.19,-0.1,0.06,1.15,45.5438795,-92.9300688,259
0.13,239.17,98769,214.97,4.25,38.53,38.2,156.93,-1.52,-1.47,60.45,-6.44,16.09,0.19,-0.1,0.06,1.23,45.5438795,-92.9300688,259
0.14,239.17,98788,213.36,2.63,40.92,38.2,156.93,-3.31,0.56,54.16,2.41,12.86,0.19,-0.1,0.06,1.23,45.5438795,-92.9300688,259
0.15,238.08,98779,214.12,3.4,43.31,38.2,156.93,-3.19,1.94,59.59,24.38,12,0.18,-0.09,0.04,1.03,45.5438795,-92.9300688,259
0.16,237.54,98772,214.72,3.99,45.69,38.2,156.93,-2.67,-1.8,71.25,10.59,20.24,0.18,-0.09,0.04,1.03,45.5438795,-92.9300688,259
0.17,238.08,98755,216.16,5.44,48.07,38.2,156.93,-2.88,2.32,66,0.27,24.45,0.19,-0.08,0.05,1.18,45.5438795,-92.9300688,259
0.18,238.08,98748,216.76,6.03,50.45,38.2,156.93,-3.52,3.61,56.84,13.03,20.3,0.18,-0.09,0.03,1.24,45.5438795,-92.9300688,259
0.19,238.08,98742,217.27,6.54,52.83,38.2,156.93,-2.09,0.6,63.31,28.23,18.72,0.18,-0.09,0.04,1.27,45.5438795,-92.9300688,259
0.2,236.99,98744,217.1,6.37,55.2,38.2,156.93,-2.3,2.36,76.86,18.95,27.32,0.18,-0.1,0.05,1.48,45.5438795,-92.9300688,259
0.21,236.99,98743,217.18,6.46,57.57,38.2,156.93,-3.99,3.44,76.31,2.53,32.08,0.18,-0.09,0.03,1.79,45.5438795,-92.9300688,259
0.22,236.99,98735,217.86,7.14,59.94,38.2,156.93,-2.1,1.81,66.49,13.21,27.45,0.18,-0.1,0.04,2.04,45.5438795,-92.9300688,259
0.23,236.45,98724,218.8,8.07,62.3,38.1,156.93,-3.29,2.45,69.23,32.93,25.8,0.18,-0.08,0.04,2.3,45.5438795,-92.9300688,259
0.24,235.9,98697,221.09,10.37,64.66,38.2,156.93,-3.57,3.55,82.36,25.97,31.78,0.16,-0.09,0.02,2.64,45.5438795,-92.9300688,259
0.25,235.9,98708,220.16,9.43,67.02,38.2,156.93,-2.81,1.7,85.41,8.33,37.58,0.16,-0.09,0.02,3.02,45.5438794,-92.9300692,259
0.25,235.9,98708,220.16,9.43,67.02,38.2,156.93,-2.81,1.7,85.41,8.33,37.58,0.16,-0.09,0.02,3.02,45.5438794,-92.9300692,259
0.25,235.9,98708,220.16,9.43,67.02,38.2,156.93,-2.81,1.7,85.41,8.33,37.58,0.16,-0.09,0.02,3.02,45.5438794,-92.9300692,259
0.26,235.36,98698,221.01,10.28,69.37,38.2,156.93,-3.8,3.22,76.62,15.17,34.89,0.15,-0.1,0.02,3.39,45.5438794,-92.9300692,259
0.27,234.81,98681,222.45,11.73,71.72,38.2,156.93,-3.68,3.71,79.55,34.82,30.44,0.15,-0.1,0.02,3.75,45.5438794,-92.9300692,259
0.28,234.81,98668,223.56,12.84,74.06,38.2,156.93,-3.5,2.76,94.56,32.26,35.56,0.14,-0.08,0.02,4.17,45.5438794,-92.9300692,259
0.29,235.9,98665,223.82,13.09,76.41,38.2,156.93,-4.38,3.09,101.4,14.01,42.64,0.14,-0.09,0.01,4.62,45.5438794,-92.9300692,259
0.3,234.81,98616,227.98,17.26,78.74,38.1,156.93,-3.99,3.49,93.4,15.72,38.92,0.14,-0.09,0.01,5.04,45.5438794,-92.9300692,259
0.31,233.73,98625,227.22,16.49,81.08,38.2,156.93,-4.29,3.36,100.85,26.15,38.25,0.13,-0.08,0.01,5.47,45.5438794,-92.9300692,259
0.32,233.18,98584,230.71,19.98,83.41,38.2,156.93,-5.15,3.43,104.39,27.37,38.13,0.13,-0.09,0.01,5.91,45.5438794,-92.9300692,259
0.33,233.18,98584,230.71,19.98,85.73,38.2,156.93,-4.12,3.56,107.63,27.62,37.46,0.13,-0.08,0.01,6.34,45.5438794,-92.9300692,259
0.34,234.27,98574,231.56,20.83,88.05,38.1,156.93,-5.64,2.64,110.37,28.17,37.7,0.11,-0.1,0,6.78,45.5438794,-92.9300692,259
0.34,234.27,98574,231.56,20.83,88.05,38.1,156.93,-5.64,2.64,110.37,28.17,37.7,0.11,-0.1,0,6.78,45.5438794,-92.9300692,259
0.35,233.73,98542,234.28,23.56,90.37,38.1,156.93,-5.81,3.77,110.62,29.02,36.66,0.1,-0.08,0,7.22,45.5438794,-92.9300692,259
0.36,233.73,98530,235.3,24.58,92.69,38.2,156.93,-5.13,4.43,109.34,29.33,35.38,0.1,-0.08,0,7.64,45.5438794,-92.9300692,259
0.37,234.81,98503,237.6,26.88,95.01,38.2,156.93,-6.02,3.56,108.48,30.24,34.83,0.11,-0.08,-0.01,8.06,45.5438794,-92.9300692,259
0.38,234.81,98493,238.46,27.73,97.33,38.2,156.93,-6.2,4.86,100.36,43.91,27.81,0.11,-0.08,-0.01,8.46,45.5438794,-92.9300692,259
0.39,234.81,98446,242.46,31.73,99.64,38.1,156.93,-6.1,4.31,105.67,37.99,30.62,0.09,-0.07,0,8.87,45.5438794,-92.9300692,259
0.4,233.73,98450,242.12,31.39,101.96,38.2,156.93,-6.53,4.77,100.3,19.38,33.92,0.09,-0.08,-0.01,9.25,45.5438794,-92.9300692,259
0.41,234.27,98414,245.19,34.46,104.27,38.2,156.93,-6.57,5.24,78.94,24.69,26.65,0.09,-0.08,-0.01,9.58,45.5438794,-92.9300692,259
0.42,233.73,98400,246.38,35.65,106.57,38.2,156.93,-7.18,5.37,67.53,43.98,18.59,0.08,-0.06,0,9.9,45.5438794,-92.9300692,259
0.43,234.27,98397,246.64,35.91,108.88,38.2,156.93,-7.88,5.66,71.19,43.06,19.08,0.07,-0.08,-0.01,10.23,45.5438794,-92.9300692,259
0.44,234.27,98386,247.57,36.85,111.18,38.2,156.93,-7.53,6.32,63.68,24.32,21.59,0.08,-0.08,-0.01,10.52,45.5438794,-92.9300692,259
0.45,234.27,98354,250.3,39.58,113.47,38.2,156.93,-7.95,6.14,46.59,35.13,13.28,0.06,-0.07,-0.02,10.77,45.5438794,-92.9300692,259
0.46,233.18,98340,251.5,40.77,115.77,38.1,156.93,-8.46,6.53,35.85,35.61,9.81,0.06,-0.07,-0.03,11,45.5438794,-92.9300692,259
0.47,233.18,98343,251.24,40.51,118.05,38.1,156.93,-9.36,6.93,31.09,35.86,6.02,0.06,-0.07,-0.03,11.2,45.5438794,-92.9300692,259
0.48,232.64,98318,253.37,42.65,120.34,38.1,156.93,-8.61,5.56,28.71,37.02,2.73,0.07,-0.06,-0.03,11.38,45.5438794,-92.9300692,259
0.49,232.64,98297,255.16,44.44,122.62,38.1,156.93,-9.13,6.28,27.73,39.09,-0.75,0.07,-0.06,-0.03,11.55,45.5438794,-92.9300692,259
0.5,232.64,98293,255.5,44.78,124.9,38.2,156.93,-8.86,7.49,41.58,38.48,-3.32,0.05,-0.06,-0.02,11.7,45.5438794,-92.9300692,259
0.51,233.18,98282,256.44,45.72,127.18,38.2,156.93,-9.49,6.42,53.24,38.85,-5.82,0.06,-0.06,-0.03,11.84,45.5438794,-92.9300692,259
0.52,232.64,98293,255.5,44.78,129.45,38.2,156.93,-8.57,7.79,69.91,37.99,-5.64,0.06,-0.06,-0.03,11.98,45.5438794,-92.9300692,259
0.53,232.64,98259,258.41,47.68,131.72,38.1,156.93,-8.87,8.76,70.64,25.36,-6.31,0.05,-0.06,-0.03,12.06,45.5438794,-92.9300692,259
0.54,232.64,98249,259.26,48.53,134,38.2,156.93,-8.1,8.78,64.41,37.57,-14.98,0.05,-0.05,-0.04,12.13,45.5438794,-92.9300692,259
0.55,232.64,98231,260.8,50.07,136.27,38.2,156.93,-9.39,9.5,76.99,51.36,-19.19,0.05,-0.06,-0.05,12.25,45.5438794,-92.9300692,259
0.56,232.64,98220,261.73,51.01,138.54,38.2,156.93,-9.04,9.57,102.8,39.28,-15.22,0.06,-0.05,-0.04,12.35,45.5438794,-92.9300692,259
0.57,232.09,98190,264.3,53.57,140.81,38.1,156.93,-9.88,9.07,117.21,20.66,-13.08,0.05,-0.06,-0.04,12.36,45.5438794,-92.9300692,259
0.58,232.09,98184,264.81,54.08,143.08,38.2,156.93,-9.58,10.3,127.22,28.35,-20.53,0.04,-0.06,-0.05,12.36,45.5438794,-92.9300692,259
0.59,232.64,98130,269.42,58.69,145.35,38.1,156.93,-10.58,8.69,156.46,31.34,-20.9,0.06,-0.05,-0.05,12.38,45.5438794,-92.9300692,259
0.6,233.18,98123,270.02,59.29,147.62,38.2,156.93,-11.09,8.86,190.58,29.14,-21.26,0.06,-0.05,-0.05,12.37,45.5438794,-92.9300692,259
0.61,233.18,98119,270.36,59.63,149.89,38.1,156.93,-10.93,9.96,229.03,26.7,-21.75,0.04,-0.05,-0.05,12.35,45.5438794,-92.9300692,259
0.62,233.18,98100,271.98,61.26,152.16,38.2,156.93,-11.56,8.83,264.55,23.65,-22.67,0.04,-0.05,-0.05,12.3,45.5438794,-92.9300692,259
0.63,232.64,98105,271.56,60.83,154.44,38.2,156.93,-11.65,9.44,305.87,23.41,-23.34,0.03,-0.05,-0.06,12.24,45.5438794,-92.9300692,259
0.64,232.64,98060,275.4,64.68,156.71,38.2,156.93,-12.51,8.13,346.53,19.32,-23.76,0.01,-0.05,-0.02,12.14,45.5438794,-92.9300692,259
0.65,232.64,98059,275.49,64.76,158.99,38.1,156.93,-12.68,9.58,390.23,19.56,-25.29,0,-0.06,-0.04,12.02,45.5438794,-92.9300692,259
0.66,232.64,98017,279.08,68.35,161.26,38.1,156.93,-12.95,8.34,432.4,32.26,-31.94,0,-0.04,-0.02,11.89,45.5438794,-92.9300692,259
0.66,232.64,98017,279.08,68.35,161.26,38.1,156.93,-12.95,8.34,432.4,32.26,-31.94,0,-0.04,-0.02,11.89,45.5438794,-92.9300692,259
0.67,232.64,98013,279.42,68.69,163.54,38.2,156.93,-12.62,9.2,484.71,19.93,-27.49,-0.01,-0.04,-0.03,11.72,45.5438794,-92.9300692,259
0.68,232.64,98008,279.85,69.12,165.81,38.2,156.93,-13.12,9.01,518.28,6.38,-26.76,-0.04,-0.05,-0.01,11.5,45.5438794,-92.9300692,259
0.69,232.64,97983,281.99,71.26,168.09,38.1,156.93,-13.2,8.21,548.19,22,-36.7,-0.05,-0.05,0,11.21,45.5438794,-92.9300692,259
0.7,232.64,97969,283.18,72.46,170.37,38.2,156.93,-12.82,8.56,589.64,40.01,-40.55,-0.05,-0.06,0.03,10.92,45.5438794,-92.9300692,259
0.71,232.64,97930,286.52,75.79,172.66,38.1,156.93,-13.35,8.32,638.34,32.99,-36.58,-0.06,-0.05,0.03,10.62,45.5438794,-92.9300692,259
0.72,233.18,97950,284.81,74.08,174.95,38.2,156.93,-12.86,8.07,670.82,18.46,-32.55,-0.07,-0.05,0.05,10.31,45.5438794,-92.9300692,259
0.73,232.64,97917,287.63,76.91,177.24,38.2,156.93,-13.2,8.33,696.82,39.58,-38.05,-0.08,-0.06,0.07,9.94,45.5438794,-92.9300692,259
0.74,232.64,97921,287.29,76.56,179.53,38.2,156.93,-12.85,8.89,728.68,47.76,-38.47,-0.09,-0.05,0.09,9.52,45.5438794,-92.9300692,259
0.75,232.64,97898,289.26,78.53,181.82,38.1,156.93,-14.23,9.11,751.26,51.36,-35.61,-0.09,-0.05,0.11,9.09,45.5438794,-92.9300692,259
0.76,232.64,97857,292.77,82.04,184.12,38.1,156.93,-13.01,9.42,775.19,57.46,-31.7,-0.1,-0.07,0.13,8.65,45.5438794,-92.9300692,259
0.77,232.64,97827,295.34,84.61,186.42,38.2,156.93,-14.02,9.15,796.55,59.91,-26.27,-0.1,-0.07,0.16,8.22,45.5438794,-92.9300692,259
0.78,232.64,97833,294.82,84.1,188.72,38.1,156.93,-14.38,9.24,817,65.22,-21.51,-0.1,-0.07,0.16,7.78,45.5438794,-92.9300692,259
0.79,231.55,97788,298.68,87.95,191.02,38.1,156.93,-14.82,9.74,837.93,73.76,-17.54,-0.1,-0.07,0.16,7.29,45.5438794,-92.9300692,259
0.8,231.55,97748,302.11,91.38,193.32,38.1,156.93,-15.81,10.57,857.77,77.42,-11.5,-0.1,-0.06,0.23,6.81,45.5438794,-92.9300692,259
0.81,232.64,97693,306.82,96.1,195.63,38.2,156.93,-16.16,11.03,879.13,76.81,-4.17,-0.07,-0.07,0.26,6.35,45.5438794,-92.9300692,259
0.82,232.64,97632,312.05,101.33,197.93,38.1,156.93,-18.1,10.8,894.45,78.46,2.11,-0.06,-0.07,0.29,5.91,45.5438794,-92.9300692,259
0.83,232.09,97597,315.05,104.33,200.24,38.1,156.93,-18.56,12.66,901.78,76.45,8.16,-0.05,-0.08,0.29,5.49,45.5438794,-92.9300692,259
0.84,231.55,97519,321.75,111.02,202.55,38.1,156.93,-19.38,11.4,895.55,79.13,10.97,-0.02,-0.08,0.31,5.05,45.5438794,-92.9300692,259
0.85,231,97462,326.65,115.92,204.86,38.1,156.93,-21.87,10.18,887.56,79.62,14.2,0.01,-0.08,0.32,4.61,45.5438794,-92.9300692,259
0.86,232.09,97409,331.2,120.47,207.17,38.1,156.93,-22.15,10.84,882.37,75.41,17.62,0.03,-0.07,0.33,4.23,45.5438794,-92.9300692,259
0.87,231.55,97380,333.69,122.97,209.48,38.1,156.93,-23.96,8.57,871.38,81.21,15.12,0.04,-0.09,0.33,3.79,45.5438794,-92.9300692,259
0.88,231.55,97335,337.56,126.84,211.79,38.1,156.93,-24.54,8.01,855.15,86.76,14.02,0.07,-0.08,0.33,3.34,45.5438794,-92.9300692,259
0.89,231.55,97293,341.17,130.45,214.1,38.1,156.93,-25.81,8.96,833.78,83.89,14.2,0.1,-0.08,0.32,2.96,45.5438794,-92.9300692,259
0.9,232.09,97271,343.07,132.34,216.42,38.2,156.93,-25.58,9.48,813.64,95.25,11.21,0.1,-0.09,0.31,2.62,45.5438794,-92.9300692,259
0.91,232.09,97222,347.28,136.56,218.73,38.1,156.93,-28.15,7.26,788.92,96.53,8.83,0.13,-0.1,0.29,2.44,45.5438794,-92.9300692,259
0.92,231,97174,351.42,140.69,221.04,38.1,156.93,-28.58,6.9,782.09,105.56,4.74,0.16,-0.09,0.3,2.48,45.5438794,-92.9300692,259
0.93,231,97140,354.34,143.62,223.35,38.1,156.93,-27.91,9.66,774.88,110.38,1.87,0.17,-0.09,0.28,2.8,45.5438794,-92.9300692,259
0.94,231,97124,355.72,145,225.65,38.1,156.93,-29.25,7.86,765.73,112.89,-1.12,0.18,-0.09,0.26,3.35,45.5438794,-92.9300692,259
0.95,230.46,97091,358.56,147.84,227.95,38.1,156.93,-29.31,8.08,770.49,120.64,-3.44,0.19,-0.08,0.24,4.07,45.5438794,-92.9300692,259
0.96,229.37,97048,362.27,151.55,230.25,38.1,156.93,-28.86,8.53,774.09,126.31,-4.78,0.2,-0.08,0.22,4.91,45.5438794,-92.9300692,259
0.97,229.91,97015,365.12,154.39,232.54,38.1,156.93,-30.98,8.49,780.68,133.15,-7.35,0.22,-0.07,0.19,5.84,45.5438794,-92.9300692,259
0.98,230.46,96965,369.43,158.7,234.82,38.1,156.93,-31.1,10.85,784.59,136.26,-7.71,0.2,-0.09,0.15,6.82,45.5438794,-92.9300692,259
0.98,230.46,96965,369.43,158.7,234.82,38.1,156.93,-31.1,10.85,784.59,136.26,-7.71,0.2,-0.09,0.15,6.82,45.5438794,-92.9300692,259
0.99,230.46,96918,373.48,162.76,237.11,38.1,156.93,-31.57,12.3,789.59,141.88,-8.87,0.21,-0.1,0.15,7.84,45.5438794,-92.9300692,259
1,230.46,96837,380.48,169.75,239.38,38.1,156.93,-33.91,11.58,793.87,151.52,-10.28,0.21,-0.1,0.11,8.91,45.5438794,-92.9300692,259
1.01,230.46,96780,385.4,174.67,241.65,38.1,156.93,-34.47,15.04,805.22,152.01,-11.07,0.19,-0.09,0.08,9.97,45.5438794,-92.9300692,259
1.02,230.46,96743,388.6,177.87,243.92,38.1,156.93,-36.14,16.99,818.89,154.64,-11.31,0.16,-0.07,0.06,11.01,45.5438794,-92.9300692,259
1.03,230.46,96681,393.96,183.23,246.17,38.1,156.93,-39.15,17.11,831.46,155.67,-11.5,0.16,-0.1,0.04,12.01,45.5438794,-92.9300692,259
1.04,230.46,96651,396.55,185.82,248.42,38.1,156.93,-41.31,19.3,836.84,150.91,-12.9,0.15,-0.08,0,12.91,45.5438794,-92.9300692,259
1.05,229.91,96578,402.86,192.14,250.66,38.1,156.93,-44.98,16.31,840.19,157.2,-16.81,0.14,-0.07,0,13.76,45.5438794,-92.9300692,259
1.06,229.91,96507,409.01,198.29,252.89,38.1,156.93,-46.26,18.62,830.06,149.14,-17.17,0.11,-0.07,-0.03,14.49,45.5438794,-92.9300692,259
1.07,230.46,96468,412.39,201.66,255.11,38.1,156.93,-48.6,19.35,822.55,158.42,-24.92,0.08,-0.07,-0.03,15.14,45.5438794,-92.9300692,259
1.08,230.46,96412,417.24,206.52,257.33,38.1,156.93,-50.07,19.42,820.66,152.8,-28.83,0.06,-0.06,-0.04,15.65,45.5438794,-92.9300692,259
1.09,231,96367,421.14,210.42,259.55,38.1,156.93,-49.62,24.22,811.93,155.49,-34.57,0.04,-0.07,-0.03,16.06,45.5438794,-92.9300692,259
1.1,231,96306,426.43,215.71,261.76,38.1,156.93,-52.76,23.76,802.72,163.85,-41.34,0.01,-0.05,-0.04,16.36,45.5438794,-92.9300692,259
1.11,230.46,96223,433.63,222.91,263.97,38.1,156.93,-54.29,24.81,793.62,165.74,-48.18,-0.01,-0.05,-0.03,16.55,45.5438794,-92.9300692,259
1.12,230.46,96165,438.67,227.94,266.18,38.1,156.93,-57.78,24.03,782.76,165.32,-54.77,-0.02,-0.04,-0.01,16.6,45.5438794,-92.9300692,259
1.13,230.46,96115,443.01,232.29,268.39,38.1,156.93,-57.28,27.72,758.89,160.43,-60.14,-0.05,-0.04,-0.01,16.53,45.5438794,-92.9300692,259
1.14,231,96007,452.4,241.67,270.59,38.1,156.93,-60.07,26.38,739.91,164.71,-66.37,-0.07,-0.05,0,16.36,45.5438794,-92.9300692,259
1.15,229.91,95924,459.62,248.89,272.8,38.1,156.93,-52.73,36.26,727.76,163.91,-74.24,-0.08,-0.04,0.01,16.07,45.5438794,-92.9300692,259
1.16,229.37,95813,469.28,258.56,275.01,38.1,156.93,-60.35,33.26,744,157.99,-79.49,-0.1,-0.04,0.03,15.68,45.5438794,-92.9300692,259
1.17,228.82,95702,478.95,268.23,277.22,38.1,156.93,-57.62,31.91,749.43,159.27,-87.12,-0.11,-0.05,0.05,15.17,45.5438794,-92.9300692,259
1.18,229.37,95665,482.18,271.45,279.44,38.1,156.93,-61.81,35.5,754.13,149.14,-89.87,-0.12,-0.04,0.07,14.58,45.5438794,-92.9300692,259
1.19,229.91,95618,486.28,275.55,281.66,38.1,156.93,-57.34,36,802.29,140.66,-98.41,-0.13,-0.03,0.08,13.86,45.5438794,-92.9300692,259
1.2,229.91,95580,489.6,278.87,283.89,38.1,156.93,-59.36,42.73,851.97,139.25,-60.02,-0.12,-0.04,0.11,13.46,45.5438794,-92.9300692,259
1.21,229.91,95551,492.13,281.4,286.12,38.1,156.93,-63.15,36.55,908.13,125.89,-65.45,-0.12,-0.05,0.13,12.92,45.5438794,-92.9300692,259
1.22,229.91,95499,496.67,285.94,288.37,38.1,156.93,-60.54,41,979.3,128.63,-81.02,-0.14,-0.05,0.17,12.16,45.5438794,-92.9300692,259
1.23,230.46,95497,496.84,286.12,290.62,38.1,156.93,-62.93,35.14,1057.24,127.54,-99.15,-0.11,-0.05,0.18,11.12,45.5438794,-92.9300692,259
1.24,230.46,95550,492.21,281.49,292.88,38.1,156.93,-64.83,35.3,1128.71,132.97,49.3,-0.13,-0.05,0.21,11.47,45.5438794,-92.9300692,259
1.25,229.91,95545,492.65,281.92,295.14,38.1,156.93,-64.76,34.54,1199.52,131.44,-206.57,-0.1,-0.07,0.24,9.19,45.5436255,-92.9300858,277
1.25,229.91,95545,492.65,281.92,295.14,38.1,156.93,-64.76,34.54,1199.52,131.44,-206.57,-0.1,-0.07,0.24,9.19,45.5436255,-92.9300858,277
1.25,229.91,95545,492.65,281.92,295.14,38.1,156.93,-64.76,34.54,1199.52,131.44,-206.57,-0.1,-0.07,0.24,9.19,45.5436255,-92.9300858,277
1.26,229.91,95601,487.76,277.04,297.42,38.1,156.93,-65.36,29.53,1264.4,171.97,-187.53,-0.07,-0.06,0.27,6.88,45.5436255,-92.9300858,277
1.27,229.91,95675,481.31,270.58,299.7,38.1,156.93,-64.96,27.82,1324.16,154.88,-137.6,-0.04,-0.08,0.29,5.03,45.5436255,-92.9300858,277
1.28,229.37,95682,480.7,269.97,301.98,38.1,156.93,-66.34,28.88,1400.33,79.56,-211.58,0.02,-0.09,0.31,2.83,45.5436255,-92.9300858,277
1.29,228.82,95653,483.23,272.5,304.27,38.1,156.93,-66.11,28.88,1474.06,189.43,-99.63,0.06,-0.08,0.32,0.82,45.5436255,-92.9300858,277
1.3,228.82,95606,487.33,276.6,306.55,38.1,156.93,-69.33,25.82,1527.84,201.21,-174.4,0.1,-0.09,0.3,1.86,45.5436255,-92.9300858,277
1.3,228.82,95606,487.33,276.6,306.55,38.1,156.93,-69.33,25.82,1527.84,201.21,-174.4,0.1,-0.09,0.3,1.86,45.5436255,-92.9300858,277
1.31,228.82,95478,498.5,287.78,308.83,38.1,156.93,-69.68,26.41,1598.33,211.71,-127.83,0.15,-0.1,0.29,4.32,45.5436255,-92.9300858,277
1.32,228.82,95392,506.02,295.29,311.1,38.1,156.93,-70.81,24.89,1633.67,118.44,-127.1,0.17,-0.09,0.25,5.81,45.5436255,-92.9300858,277
1.33,227.73,95304,513.71,302.98,313.36,38.1,156.93,-75.3,23.99,1655.89,206.33,-38.23,0.19,-0.09,0.21,7.9,45.5436255,-92.9300858,277
1.34,227.19,95221,520.97,310.25,315.6,38.1,156.93,-78.95,22.44,1657.42,24.99,-18.7,0.21,-0.08,0.17,8.12,45.5436255,-92.9300858,277
1.35,227.19,95178,524.74,314.01,317.83,38.1,156.93,-84.95,12.45,1705.39,405.44,97.82,0.2,-0.1,0.12,12.23,45.5436255,-92.9300858,277
1.36,226.64,95090,532.45,321.72,320.04,38.1,156.93,-84.56,14.03,1729.99,229.1,98.86,0.17,-0.08,0.07,14.65,45.5436255,-92.9300858,277
1.37,226.64,94985,541.65,330.93,322.22,38.1,156.93,-89.14,8.49,1790.6,272.62,-12.05,0.15,-0.08,0.03,16.34,45.5436255,-92.9300858,277
1.38,226.64,94933,546.22,335.49,324.38,38.1,156.93,-94.85,6.29,1832.04,271.09,-34.45,0.1,-0.09,0,17.44,45.5436255,-92.9300858,277
1.39,223.37,94936,545.95,335.23,326.52,38.1,156.93,-96.28,3.87,1895.77,266.09,-94.2,0.05,-0.05,0,17.51,45.5436255,-92.9300858,277
1.4,221.74,94922,547.18,336.45,328.64,38.1,156.93,-96.6,-6.85,1886.79,290.75,113.39,0,-0.06,0.01,19.16,45.5436255,-92.9300858,277
1.41,221.19,94852,553.33,342.6,330.76,38.1,156.93,-98.27,-5.84,1899.06,325.6,-20.41,-0.06,-0.05,0.03,18.98,45.5436255,-92.9300858,277
1.42,220.1,94716,565.27,354.55,332.87,38.1,156.93,-101.83,-11.36,1912.43,318.21,-314.06,-0.11,-0.04,0.06,15.34,45.5436255,-92.9300858,277
1.43,220.1,94565,578.56,367.83,334.98,38.1,156.93,-103.42,-7.56,1875.69,303.69,192.86,-0.13,-0.04,0.11,16.22,45.5436255,-92.9300858,277
1.44,219.56,94317,600.41,389.69,337.1,38.1,156.93,-104.59,-6.74,1800.43,308.45,-129.18,-0.14,-0.04,0.17,13.67,45.5436255,-92.9300858,277
1.45,216.84,94030,625.76,415.04,339.21,38.1,156.93,-109.71,-13.61,1687.88,301,93.67,-0.14,-0.03,0.23,12.73,45.5436255,-92.9300858,277
1.46,216.84,93688,656.05,445.33,341.32,38.1,156.93,-115.85,-15.99,1499.64,362.34,-212,-0.12,-0.05,0.28,8.74,45.5436255,-92.9300858,277
1.47,211.39,93173,701.83,491.11,343.42,38.1,156.93,-119.51,-7.92,93.77,-138.04,-51.9,-0.11,-0.05,0.31,9.61,45.5436255,-92.9300858,277
1.48,209.21,92755,739.14,528.41,345.51,38.1,156.93,-126.79,9.75,1102.35,-231.61,-166.23,-0.11,-0.05,0.31,11.14,45.5436255,-92.9300858,277
1.49,209.21,92564,756.23,545.51,347.6,38.1,156.93,-135.67,27.76,935.47,378.76,157.58,-0.01,-0.05,0.33,7.72,45.5436255,-92.9300858,277
1.5,209.75,92709,743.25,532.53,349.69,38.1,156.93,-139.68,51.36,697.37,473.92,59.31,0.02,-0.07,0.32,3.4,45.5436255,-92.9300858,277
1.51,209.21,92085,799.23,588.5,351.79,38.1,156.93,-153.85,78.85,396.82,421.92,-89.68,0.03,-0.07,0.29,1.27,45.5436255,-92.9300858,277
1.52,215.2,91231,876.33,665.6,353.9,38.1,156.93,-156.96,112.41,90.9,319.5,-154.44,0.04,-0.1,0.26,4.39,45.5436255,-92.9300858,277
1.53,217.38,91346,865.91,655.19,356.02,38.1,156.93,-141.55,136.74,-67,222.08,-203.21,0.06,-0.11,0.26,7.13,45.5436255,-92.9300858,277
1.54,217.38,92902,726,515.28,358.14,38.1,156.93,-101.4,156.74,-383.54,36.47,-192.59,0.07,-0.1,0.22,8.41,45.5436255,-92.9300858,277
1.55,216.29,94201,610.65,399.93,360.23,38.1,156.93,-51.74,128.07,38.23,368.81,-403.66,0.08,-0.1,0.23,13.84,45.5436255,-92.9300858,277
1.56,208.12,94925,546.92,336.19,362.3,38.1,156.93,-13.62,132.85,306.97,-136.33,-170.13,0.1,-0.1,0.24,14.13,45.5436255,-92.9300858,277
1.57,208.12,95321,512.22,301.5,364.35,38.1,156.93,-13.35,80,519.32,-411.18,-36.7,0.1,-0.1,0.24,12.07,45.5436255,-92.9300858,277
1.58,201.58,95488,497.63,286.9,366.37,38.1,156.93,-30.16,40.4,846.11,-267.86,-137.54,0.14,-0.1,0.27,12.18,45.5436255,-92.9300858,277
1.59,208.66,95693,479.74,269.01,368.39,38.1,156.93,-12.29,31.61,1078.48,-298.5,-166.47,0.15,-0.09,0.27,12.8,45.5436255,-92.9300858,277
1.6,208.12,95056,535.43,324.7,370.4,38.1,156.93,0.03,17.6,1157.28,37.44,-271.88,0.21,-0.08,0.28,15.47,45.5436255,-92.9300858,277
1.61,209.21,94766,560.88,350.15,372.4,38.1,156.93,36.29,-33,1209.22,-200.72,-244.6,0.24,-0.07,0.27,16.79,45.5436255,-92.9300858,277
1.62,213.57,94856,552.97,342.25,374.41,38.1,156.93,10.16,1.45,1281.61,-95.37,-209.93,0.28,-0.05,0.25,18.12,45.5436255,-92.9300858,277
1.62,213.57,94856,552.97,342.25,374.41,38.1,156.93,10.16,1.45,1281.61,-95.37,-209.93,0.28,-0.05,0.25,18.12,45.5436255,-92.9300858,277
1.63,213.02,94889,550.08,339.35,376.4,38.1,156.93,34.95,-2.46,1252.38,-90.55,-111.29,0.31,-0.06,0.21,18.44,45.5436255,-92.9300858,277
1.64,208.12,94942,545.43,334.7,378.38,38.1,156.93,58.7,28.65,1544.01,92.87,-68.93,0.32,-0.04,0.15,19.6,45.5436255,-92.9300858,277
1.65,208.12,95078,533.5,322.77,380.34,38.1,156.93,38.61,55.15,1754.28,8.63,7.55,0.32,-0.05,0.07,19.64,45.5436255,-92.9300858,277
1.66,205.94,95357,509.08,298.35,382.29,38.1,156.93,34.87,65.63,1798.78,37.38,-12.17,0.28,-0.04,0.02,20.03,45.5436255,-92.9300858,277
1.67,201.04,95681,480.78,270.06,384.23,38.1,156.93,-0.1,57.36,1658.33,-136.57,32.45,0.21,-0.04,-0.02,18.74,45.5436255,-92.9300858,277
1.68,201.04,95792,471.11,260.39,386.18,38.1,156.93,-3.3,39.2,1676.89,-199.62,-16.14,0.16,-0.05,-0.02,16.92,45.5436255,-92.9300858,277
1.69,208.12,95611,486.89,276.16,388.14,38.1,156.93,-1.47,26.89,1670.54,-218.36,117.47,0.12,-0.06,-0.03,16.47,45.5436255,-92.9300858,277
1.7,208.12,95267,516.95,306.22,390.12,38.1,156.93,-9.9,12.12,1668.28,-115.21,-127.04,0.06,-0.06,0,14.93,45.5436255,-92.9300858,277
1.71,208.12,95478,498.5,287.78,392.11,38.1,156.93,2.18,-1.79,1481.63,-43.61,95.26,0.01,-0.07,0.02,15.9,45.5436255,-92.9300858,277
1.72,209.21,95764,473.55,262.82,394.11,38.1,156.93,6.57,11.52,1636.79,118.26,5.04,0,-0.07,0.04,15.63,45.5436255,-92.9300858,277
1.73,207.57,95945,457.79,247.07,396.11,38.1,156.93,28.94,6.79,979.11,59.11,-355.5,-0.01,-0.09,0.09,12.32,45.5436255,-92.9300858,277
1.74,204.31,95889,462.66,251.94,398.1,38.1,156.93,25.33,24.68,1750.38,37.38,81.95,-0.03,-0.08,0.13,12.65,45.5436255,-92.9300858,277
1.75,202.67,95706,478.61,267.88,400.09,38.1,156.93,13.21,34.76,1778.52,8.76,12.06,-0.04,-0.09,0.17,12.64,45.5436255,-92.9300858,277
1.76,202.67,95542,492.91,282.19,402.06,38.1,156.93,6.89,39.84,1721.45,-109.96,62.66,-0.04,-0.09,0.21,13.86,45.5436255,-92.9300858,277
1.77,201.04,95556,491.69,280.96,404.02,38.1,156.93,-11.15,30.94,1754.89,-129.98,70.78,0,-0.09,0.25,15.15,45.5436255,-92.9300858,277
1.78,203.76,95235,519.75,309.02,405.97,38.1,156.93,-11.15,25.48,1745.74,-144.2,131.57,0.01,-0.09,0.3,16.23,45.5436255,-92.9300858,277
1.79,203.76,95054,535.6,324.88,407.93,38.1,156.93,-9.35,21.5,1713.82,-130.77,-85.41,0.04,-0.08,0.32,17.79,45.5436255,-92.9300858,277
1.8,203.22,95284,515.46,304.73,409.88,38.1,156.93,-2.97,-20.07,1648.32,242.22,303.21,0.11,-0.07,0.33,13.93,45.5436255,-92.9300858,277
1.81,202.67,95596,488.2,277.47,411.83,38.1,156.93,2.02,4.96,1580.33,-27.32,-108.61,0.15,-0.08,0.34,15.01,45.5436255,-92.9300858,277
1.82,203.22,95934,458.75,248.02,413.78,38.1,156.93,3.67,4.45,1560.49,-114.78,83.9,0.2,-0.07,0.31,14.49,45.5436255,-92.9300858,277
1.83,201.58,96155,439.54,228.81,415.73,38.1,156.93,12.89,8.29,509.8,106.42,-31.88,0.24,-0.08,0.29,14.82,45.5436255,-92.9300858,277
1.84,201.58,96154,439.62,228.9,417.66,38.1,156.93,0.7,19.4,1063.65,317.6,-154.75,0.26,-0.06,0.23,17.03,45.5436255,-92.9300858,277
1.85,199.95,95934,458.75,248.02,419.58,38.1,156.93,3.86,19.59,1475.95,25.97,64.07,0.28,-0.06,0.18,16.6,45.5436255,-92.9300858,277
1.86,199.4,95552,492.04,281.31,421.49,38.1,156.93,-6.22,20.4,1438.29,-40.13,-225.86,0.28,-0.07,0.14,18.01,45.5436255,-92.9300858,277
1.87,199.4,95088,532.62,321.9,423.39,38.1,156.93,-19.34,20.05,1468.94,11.44,-47.63,0.27,-0.07,0.09,18.39,45.5436255,-92.9300858,277
1.88,199.4,94745,562.73,352,425.29,38.1,156.93,-16.9,16.45,1393.25,-84.69,7.55,0.24,-0.08,0.07,17.59,45.5436255,-92.9300858,277
1.89,198.86,94683,568.18,357.45,427.19,38.1,156.93,-12.02,5.97,1363.52,-140.66,62.66,0.21,-0.07,0.04,16.1,45.5436255,-92.9300858,277
1.9,198.86,94782,559.47,348.75,429.1,38.1,156.93,-14.59,-0.78,1308.77,-41.35,69.32,0.18,-0.08,0.02,15.76,45.5436255,-92.9300858,277
1.91,199.95,94924,547,336.28,431,38.1,156.93,-7.8,1.83,1160.27,99.89,-112.33,0.15,-0.07,0.01,16.36,45.5436255,-92.9300858,277
1.92,198.86,95148,527.37,316.64,432.91,38.1,156.93,-5.1,0.55,79.61,-52.46,-40.61,0.1,-0.07,0,15.71,45.5436255,-92.9300858,277
1.93,197.77,95296,514.41,303.68,434.81,38.1,156.93,-3.53,3.37,1131.77,-30.67,111.92,0.07,-0.06,0,16,45.5436255,-92.9300858,277
1.94,197.22,95297,514.32,303.6,436.7,38.1,156.93,-6.46,10.15,1128.35,54.47,38.43,0.05,-0.06,0.01,16.66,45.5436255,-92.9300858,277
1.94,197.22,95297,514.32,303.6,436.7,38.1,156.93,-6.46,10.15,1128.35,54.47,38.43,0.05,-0.06,0.01,16.66,45.5436255,-92.9300858,277
1.95,196.68,95262,517.38,306.66,438.59,38.1,156.93,-9.66,14.04,1210.87,159.82,-154.08,0.02,-0.07,0.02,16.49,45.5436255,-92.9300858,277
1.96,196.68,95157,526.58,315.85,440.48,38.1,156.93,-14.03,20.16,1062.73,-39.71,-18.39,-0.01,-0.08,0.03,16.13,45.5436255,-92.9300858,277
1.97,196.13,94923,547.09,336.37,442.36,38.1,156.93,-16.66,18.85,1124.5,-38.42,51.19,-0.03,-0.07,0.05,16.49,45.5436255,-92.9300858,277
1.98,196.13,94605,575.04,364.31,444.24,38.1,156.93,-17.63,15.93,1081.66,-6.01,27.45,-0.06,-0.06,0.07,16.75,45.5436255,-92.9300858,277
1.99,195.59,94456,588.16,377.43,446.11,38.1,156.93,-22.26,15.08,1073.66,-41.35,-30.72,-0.07,-0.07,0.12,16.49,45.5436255,-92.9300858,277
2,197.22,94481,585.96,375.23,447.99,38.1,156.93,-16.34,12.02,1070.06,-13.7,-68.32,-0.08,-0.08,0.15,15.87,45.5436255,-92.9300858,277
2.01,197.22,94678,568.62,357.89,449.86,38.1,156.93,-16.54,9.7,996.87,-69.68,-8.02,-0.08,-0.07,0.18,16.15,45.5436255,-92.9300858,277
2.02,193.41,94967,543.23,332.51,451.71,38.1,156.93,-10.88,12.13,964.89,-193.95,31.84,-0.07,-0.08,0.21,17.7,45.5436255,-92.9300858,277
2.03,192.32,95210,521.94,311.21,453.55,38.1,156.93,-7.88,12.69,997,22.19,-34.51,-0.06,-0.08,0.24,17.32,45.5436255,-92.9300858,277
2.04,190.14,95409,504.53,293.8,455.37,38.1,156.93,-7.44,13.76,987.96,74.55,-69.36,-0.05,-0.08,0.26,16.35,45.5436255,-92.9300858,277
2.05,186.87,95562,491.17,280.44,457.16,38.1,156.93,-5.41,20.03,1011.28,27.07,-39.02,-0.01,-0.07,0.29,16,45.5436255,-92.9300858,277
2.06,181.97,95657,482.88,272.15,458.92,38.1,156.93,-6.13,19.39,1033.74,57.89,-4.66,0.01,-0.08,0.3,15.42,45.5436255,-92.9300858,277
2.07,176.52,95672,481.57,270.84,460.65,38.1,156.93,-8.85,20.64,1076.71,5.58,90.37,0.04,-0.07,0.32,15.27,45.5436255,-92.9300858,277
2.08,172.16,95616,486.45,275.73,462.34,38.1,156.93,-10.09,20.44,1077.75,40.56,-181.36,0.06,-0.08,0.32,15.45,45.5436255,-92.9300858,277
2.09,172.16,95557,491.6,280.88,463.99,38.1,156.93,-10.64,17.76,1053.88,-28.29,-53.49,0.11,-0.08,0.34,15.98,45.5436255,-92.9300858,277
2.1,167.8,95503,496.32,285.59,465.6,38.1,156.93,-11.65,14.82,1039.42,-44.47,-47.45,0.13,-0.08,0.31,16.63,45.5436255,-92.9300858,277
2.11,160.18,95481,498.24,287.51,467.17,38.1,156.93,-9.43,13.8,1072.32,-54.23,-27.92,0.15,-0.08,0.32,17.18,45.5436255,-92.9300858,277
2.12,160.18,95446,501.3,290.57,468.7,38.1,156.93,-7.09,9.02,1047.72,42.08,-45.01,0.15,-0.08,0.32,17.41,45.5436255,-92.9300858,277
2.13,154.73,95516,495.18,284.46,470.2,38.2,156.93,-7.61,11.09,998.71,-84.02,-5.15,0.15,-0.08,0.32,17.67,45.5436255,-92.9300858,277
2.14,151.46,95633,484.97,274.25,471.66,38.1,156.93,-2.77,13.84,1042.04,10.53,-34.87,0.22,-0.08,0.26,18.01,45.5436255,-92.9300858,277
2.15,149.28,95700,479.13,268.4,473.09,38.1,156.93,-3.59,12.46,1023.49,-15.05,5.04,0.24,-0.07,0.24,17.95,45.5436255,-92.9300858,277
2.16,146.55,95698,479.3,268.58,474.49,38.2,156.93,-4.44,13.81,985.03,9.49,-68.26,0.26,-0.07,0.22,18.63,45.5436255,-92.9300858,277
2.17,143.83,95643,484.1,273.37,475.87,38.2,155.09,-5.07,15.02,996.75,-33.36,17.37,0.26,-0.08,0.18,18.34,45.5436255,-92.9300858,277
2.18,141.65,95593,488.46,277.74,477.22,38.1,152.31,-7.35,15.05,988.57,-50.63,24.82,0.27,-0.07,0.16,17.85,45.5436255,-92.9300858,277
2.19,138.93,95524,494.48,283.76,478.55,38.2,150.9,-10.13,13.99,1025.56,36.35,-184.35,0.27,-0.07,0.13,19.48,45.5436255,-92.9300858,277
2.2,138.93,95494,497.1,286.38,479.85,38.2,148.14,-9.54,11.99,993.03,-14.13,22.75,0.26,-0.08,0.09,19.22,45.5436255,-92.9300858,277
2.21,137.29,95421,503.48,292.76,481.13,38.2,147.09,-9.9,11.1,925.16,53.99,-15.16,0.24,-0.08,0.08,19.77,45.5436255,-92.9300858,277
2.22,131.3,95417,503.83,293.1,482.38,38.2,143.36,-7.82,10.66,959.09,91.95,-33.9,0.22,-0.08,0.06,20.75,45.5436255,-92.9300858,277
2.23,131.3,95442,501.65,290.92,483.59,38.2,140.63,-5.97,9.58,873.95,64.91,-11.19,0.2,-0.08,0.03,21.41,45.5436255,-92.9300858,277
2.24,123.67,95459,500.16,289.44,484.76,38.2,136.36,-6.24,10.29,897.26,-58.32,23.78,0.19,-0.07,0.01,20.82,45.5424513,-92.9301189,329
2.24,123.67,95459,500.16,289.44,484.76,38.2,136.36,-6.24,10.29,897.26,-58.32,23.78,0.19,-0.07,0.01,20.82,45.5424513,-92.9301189,329
2.24,123.67,95459,500.16,289.44,484.76,38.2,136.36,-6.24,10.29,897.26,-58.32,23.78,0.19,-0.07,0.01,20.82,45.5424513,-92.9301189,329
2.25,118.77,95480,498.33,287.6,485.88,38.2,132.6,-5.25,10.58,859.42,56.98,-74,0.16,-0.07,0.01,21.3,45.5424513,-92.9301189,329
2.26,113.32,95477,498.59,287.86,486.94,38.2,127.5,-6.83,12.6,893.36,58.62,107.4,0.14,-0.08,0,22.15,45.5424513,-92.9301189,329
2.26,113.32,95477,498.59,287.86,486.94,38.2,127.5,-6.83,12.6,893.36,58.62,107.4,0.14,-0.08,0,22.15,45.5424513,-92.9301189,329
2.27,107.33,95457,500.34,289.61,487.95,38.2,122.11,-6.49,13.19,882.13,81.57,-45.49,0.11,-0.06,0,22.7,45.5424513,-92.9301189,329
2.28,101.34,95390,506.19,295.46,488.9,38.2,116.01,-9.95,12.11,915.27,100.13,-69.54,0.09,-0.06,-0.01,23.2,45.5424513,-92.9301189,329
2.29,93.71,95364,508.46,297.74,489.79,38.2,109.45,-8.75,14.06,888.11,15.29,-13.57,0.06,-0.06,-0.01,23.23,45.5424513,-92.9301189,329
2.3,85.54,95350,509.69,298.96,490.62,38.2,102.74,-8.47,10.72,849.59,-9.62,81.52,0.03,-0.07,0,23.77,45.5424513,-92.9301189,329
2.31,85.54,95321,512.22,301.5,491.38,38.2,94.48,-8.8,13.4,877.18,-23.9,-8.08,0.02,-0.06,0.01,23.58,45.5424513,-92.9301189,329
2.32,76.82,95298,514.24,303.51,492.08,38.2,84.71,-6.7,9.75,874.8,-2.47,-17.91,-0.01,-0.06,0.03,23.4,45.5424513,-92.9301189,329
2.33,59.38,95292,514.76,304.03,492.7,38.2,76.02,-6,11.39,822.06,57.59,107.04,-0.02,-0.07,0.05,24.59,45.5424513,-92.9301189,329
2.34,59.38,95297,514.32,303.6,493.25,38.2,68.35,-6.07,10.81,902.57,-39.22,-67.16,-0.05,-0.06,0.06,23.87,45.5424513,-92.9301189,329
2.35,45.76,95279,515.9,305.17,493.72,38.2,60.65,-5.49,10.18,814.13,26.46,-10.46,-0.05,-0.07,0.06,23.76,45.5424513,-92.9301189,329
2.36,40.32,95237,519.57,308.85,494.13,38.2,55.22,-6.24,12.67,888.17,-93.36,3.46,-0.06,-0.07,0.1,23.97,45.5424513,-92.9301189,329
2.37,35.41,95195,523.25,312.52,494.49,38.2,49.39,-5.04,11.67,916.37,-59.36,-9.42,-0.07,-0.07,0.12,24.1,45.5424513,-92.9301189,329
2.38,31.6,95171,525.35,314.63,494.79,38.2,44.51,-7.56,11.65,859.36,-19.08,19.82,-0.06,-0.07,0.15,24.37,45.5424513,-92.9301189,329
2.39,27.24,95109,530.78,320.06,495.05,38.2,41.56,-6.25,10.12,848.13,-16.7,-76.07,-0.06,-0.07,0.19,23.9,45.5424513,-92.9301189,329
2.4,22.88,95087,532.71,321.98,495.28,38.2,36.32,-6.47,10.6,873.21,-95.37,10.84,-0.06,-0.08,0.2,24.71,45.5424513,-92.9301189,329
2.41,18.52,95049,536.04,325.32,495.47,38.2,32.05,-7.03,9.82,850.45,34.03,8.46,-0.06,-0.06,0.23,24.46,45.5424513,-92.9301189,329
2.42,18.52,94971,542.88,332.16,495.62,38.2,27.05,-6.95,9.94,846.42,30.36,72.61,-0.02,-0.09,0.25,24.46,45.5424513,-92.9301189,329
2.43,13.62,94950,544.72,334,495.74,38.2,22.7,-5.24,9.94,855.27,7.78,1.26,-0.03,-0.08,0.27,24.39,45.5424513,-92.9301189,329
2.44,5.45,94918,547.53,336.81,495.82,38.2,19.1,-5.63,9.66,833.97,65.7,-32.74,0,-0.08,0.29,23.7,45.5424513,-92.9301189,329
2.45,5.45,94859,552.71,341.99,495.86,38.2,14.37,-6.46,9.2,831.71,74.19,-19.43,0.01,-0.08,0.31,22.97,45.5424513,-92.9301189,329
2.46,-3.27,94857,552.89,342.16,495.86,38.2,10.17,-4.69,9.88,825.85,63.81,-27.43,0.05,-0.08,0.32,22.39,45.5424513,-92.9301189,329
2.47,-7.08,94817,556.4,345.67,495.82,38.2,6.42,-3.75,8.74,857.59,5.77,5.66,0.05,-0.07,0.33,22.32,45.5424513,-92.9301189,329
2.48,-7.08,94790,558.77,348.05,495.75,38.2,2.03,-6.81,9.63,831.95,42.02,7,0.08,-0.08,0.32,21.92,45.5424513,-92.9301189,329
2.49,-14.71,94752,562.11,351.39,495.63,38.2,-1.82,-5.39,12.27,859.54,23.28,-161.95,0.11,-0.07,0.34,22.75,45.5424513,-92.9301189,329
2.5,-18.52,94684,568.09,357.36,495.48,38.2,-5.76,-8.12,11.69,820.97,-46.85,-49.83,0.14,-0.08,0.32,23.43,45.5424513,-92.9301189,329
2.51,-22.34,94626,573.19,362.46,495.29,38.2,-9.45,-8.85,10.79,819.68,72.72,-6,0.15,-0.08,0.3,23.1,45.5424513,-92.9301189,329
2.52,-25.61,94555,579.44,368.71,495.08,38.2,-12.85,-5.86,10.22,750.71,32.26,10.9,0.18,-0.07,0.31,22.87,45.5424513,-92.9301189,329
2.53,-25.61,94504,583.93,373.2,494.83,38.2,-16.58,-5.96,9.56,815.35,72.17,-37.56,0.2,-0.08,0.29,23.06,45.5424513,-92.9301189,329
2.54,-28.88,94460,587.81,377.08,494.56,38.2,-19.59,-5.55,9.24,811.2,57.71,-25.53,0.21,-0.08,0.29,23.28,45.5424513,-92.9301189,329
2.55,-34.87,94431,590.36,379.64,494.27,38.2,-21.65,-4.81,8.79,886.09,-170.45,-7.83,0.23,-0.07,0.26,23.28,45.5424513,-92.9301189,329
2.56,-34.87,94455,588.25,377.52,493.95,38.2,-25.42,-4.35,11.04,830.37,-18.95,-5.39,0.23,-0.07,0.23,23.3,45.5424513,-92.9301189,329
2.57,-38.68,94494,584.81,374.09,493.6,38.2,-27.07,-2.41,10.25,790.33,8.94,0.65,0.25,-0.07,0.22,23.32,45.5424513,-92.9301189,329
2.58,-40.86,94497,584.55,373.82,493.24,38.2,-29.47,-2.78,10.47,800.46,-19.32,-141.63,0.26,-0.06,0.2,24.53,45.5424513,-92.9301189,329
2.58,-40.86,94497,584.55,373.82,493.24,38.2,-29.47,-2.78,10.47,800.46,-19.32,-141.63,0.26,-0.06,0.2,24.53,45.5424513,-92.9301189,329
2.59,-40.86,94466,587.28,376.55,492.86,38.2,-30.99,-4.9,11.86,836.53,-19.56,-21.26,0.26,-0.07,0.18,24.61,45.5424513,-92.9301189,329
2.6,-44.13,94411,592.12,381.4,492.46,38.2,-33.03,-4.2,10.83,808.82,-3.45,16.76,0.26,-0.07,0.15,24.46,45.5424513,-92.9301189,329
2.61,-45.76,94357,596.89,386.16,492.05,38.2,-34.8,-5.97,9.95,843.06,11.63,13.16,0.27,-0.07,0.13,24.45,45.5424513,-92.9301189,329
2.62,-46.85,94290,602.8,392.07,491.62,38.2,-36.21,-4.72,9.57,830.73,-35.07,3.46,0.24,-0.07,0.09,24.14,45.5424513,-92.9301189,329
2.63,-48.49,94191,611.53,400.81,491.18,38.2,-37.33,-5.22,7.62,793.01,35.86,-8.08,0.24,-0.07,0.07,24.5,45.5424513,-92.9301189,329
2.64,-48.49,94124,617.45,406.73,490.73,38.2,-38.78,-5.77,8.08,840.31,-30.37,4.19,0.23,-0.06,0.05,24.2,45.5424513,-92.9301189,329
2.65,-49.58,94032,625.59,414.86,490.27,38.2,-39.94,-5.33,10.18,839.46,-0.7,-69.3,0.21,-0.08,0.03,24.31,45.5424513,-92.9301189,329
2.65,-49.58,94032,625.59,414.86,490.27,38.2,-39.94,-5.33,10.18,839.46,-0.7,-69.3,0.21,-0.08,0.03,24.31,45.5424513,-92.9301189,329
2.66,-51.21,93982,630.01,419.28,489.81,38.2,-40.96,-6.02,11.47,847.4,49.41,-57.21,0.2,-0.08,0,24.83,45.5424513,-92.9301189,329
2.67,-51.21,93890,638.15,427.43,489.33,38.2,-41.44,-7.9,8.89,839.83,-26.71,-2.89,0.17,-0.07,0.01,24.56,45.5424513,-92.9301189,329
2.68,-52.85,93818,644.53,433.8,488.85,38.2,-42.19,-5.35,8.42,850.63,28.35,-4.11,0.15,-0.07,-0.01,24.83,45.5424513,-92.9301189,329
2.69,-53.39,93777,648.16,437.44,488.36,38.2,-43.76,-8.05,10.42,834.64,-51.67,13.77,0.13,-0.06,-0.02,24.4,45.5424513,-92.9301189,329
2.7,-54.48,93752,650.38,439.65,487.86,38.2,-43.98,-3.73,8.89,817,-60.89,6.81,0.1,-0.06,-0.01,23.92,45.5424513,-92.9301189,329
2.71,-54.48,93685,656.32,445.59,487.35,38.2,-45.25,-7.31,11.65,867.11,-74.8,-176.36,0.09,-0.06,-0.02,22.23,45.5424513,-92.9301189,329
2.72,-55.57,93619,662.17,451.45,486.83,38.2,-45.07,-5.17,5.58,845.01,-8.09,-104.88,0.06,-0.07,-0.01,21.43,45.5424513,-92.9301189,329
2.73,-56.12,93537,669.45,458.73,486.31,38.2,-46.44,-6.61,8.31,803.51,55.88,-34.08,0.03,-0.06,0.01,21.5,45.5424513,-92.9301189,329
2.74,-56.66,93475,674.96,464.24,485.78,38.2,-46.61,-2.47,6.68,863.45,-7.66,-10.7,0.02,-0.06,0.01,21.37,45.5424513,-92.9301189,329
2.75,-56.66,93464,675.94,465.21,485.25,38.2,-46.85,-3.39,7,804.43,10.77,-4.66,0,-0.07,0.02,21.37,45.5424513,-92.9301189,329
2.76,-56.66,93484,674.16,463.44,484.72,38.2,-47.33,-0.4,8.78,854.66,-25.73,-13.63,-0.02,-0.07,0.06,21.17,45.5424513,-92.9301189,329
2.77,-57.21,93498,672.92,462.19,484.18,38.2,-47.17,-1.32,8.01,816.75,-39.58,8.16,-0.03,-0.07,0.07,21.22,45.5424513,-92.9301189,329
2.78,-57.21,93492,673.45,462.72,483.64,38.3,-48.27,-2.27,8.8,856.61,-7.78,29.64,-0.05,-0.07,0.1,21.52,45.5424513,-92.9301189,329
2.79,-57.75,93428,679.14,468.41,483.1,38.2,-47.57,-0.96,7.61,825.61,-14.93,6.57,-0.06,-0.06,0.13,21.62,45.5424513,-92.9301189,329
2.8,-57.75,93326,688.21,477.48,482.56,38.2,-47.67,-3,5.9,832.26,-12.67,5.04,-0.06,-0.08,0.16,21.71,45.5424513,-92.9301189,329
2.81,-57.75,93265,693.64,482.91,482.02,38.3,-48.68,-2.04,9.7,805.77,-55.51,15.54,-0.07,-0.09,0.16,22.13,45.5424513,-92.9301189,329
2.82,-57.75,93176,701.56,490.84,481.47,38.3,-48.35,-3.83,9.08,894.39,-21.58,52.1,-0.06,-0.07,0.19,22.67,45.5424513,-92.9301189,329
2.83,-57.75,93066,711.37,500.64,480.93,38.3,-47.88,-4.33,9.62,874.86,-19.93,11.58,-0.05,-0.09,0.23,22.9,45.5424513,-92.9301189,329
2.84,-57.75,92957,721.09,510.37,480.39,38.3,-48.86,-6.12,8.57,871.81,7.05,49.91,-0.05,-0.08,0.24,23.12,45.5424513,-92.9301189,329
2.85,-58.3,92782,736.73,526,479.85,38.3,-48.27,-5.16,5.77,824.45,-10.16,7.73,-0.04,-0.08,0.27,23.24,45.5424513,-92.9301189,329
2.86,-58.3,92679,745.94,535.21,479.3,38.3,-48.17,-4.56,6.5,826.34,-9.43,-0.2,-0.01,-0.09,0.29,23.33,45.5424513,-92.9301189,329
2.87,-58.84,92658,747.82,537.09,478.76,38.3,-49.26,-4.09,6.92,834.09,48.61,-133.14,0.01,-0.09,0.3,22.67,45.5424513,-92.9301189,329
2.88,-58.84,92632,750.14,539.42,478.21,38.3,-49.48,-3.87,7.18,859.66,-24.51,-7.22,0.02,-0.07,0.32,22.92,45.5424513,-92.9301189,329
2.89,-58.84,92643,749.16,538.43,477.66,38.3,-49.22,-6.44,9.8,806.62,34.58,-58.19,0.05,-0.07,0.32,22.69,45.5424513,-92.9301189,329
2.9,-59.38,92603,752.74,542.01,477.1,38.3,-49.56,-3.68,11.38,833.23,24.75,109.6,0.07,-0.08,0.32,22.1,45.5424513,-92.9301189,329
2.9,-59.38,92603,752.74,542.01,477.1,38.3,-49.56,-3.68,11.38,833.23,24.75,109.6,0.07,-0.08,0.32,22.1,45.5424513,-92.9301189,329
2.91,-59.93,92545,757.93,547.21,476.53,38.3,-49.5,-7,9.08,885.85,-68.82,2.97,0.08,-0.07,0.32,22.71,45.5424513,-92.9301189,329
2.92,-61.56,92438,767.52,556.8,475.95,38.3,-50.57,-9.01,9.6,837.45,-47.09,-57.95,0.12,-0.09,0.33,23.42,45.5424513,-92.9301189,329
2.93,-65.92,92320,778.11,567.38,475.36,38.3,-51.71,-6.26,8.1,802.72,74.49,-48.67,0.14,-0.08,0.33,23.23,45.5424513,-92.9301189,329
2.94,-67.56,92184,790.32,579.6,474.75,38.3,-56.73,-6.7,7.36,840.25,-58.51,-31.27,0.17,-0.09,0.32,23.83,45.5424513,-92.9301189,329
2.95,-67.56,92118,796.26,585.53,474.13,38.3,-57.67,-6.91,7.91,774.76,107.58,59.61,0.19,-0.08,0.29,22.8,45.5424513,-92.9301189,329
2.96,-67.56,92068,800.75,590.03,473.51,38.3,-57.82,-4.52,8.15,858.75,-23.53,-15.46,0.2,-0.09,0.29,23.02,45.5424513,-92.9301189,329
2.97,-67.56,92040,803.27,592.55,472.88,38.3,-57.69,-6.23,8.92,844.71,15.84,112.04,0.21,-0.07,0.28,21.89,45.5424513,-92.9301189,329
2.98,-67.01,92042,803.09,592.37,472.25,38.3,-57.32,-4.5,8.6,848.37,20.29,63.76,0.24,-0.08,0.24,21.25,45.5424513,-92.9301189,329
2.99,-67.01,92022,804.89,594.17,471.62,38.3,-58.45,-4.38,10.78,815.72,-5.95,-157.86,0.25,-0.06,0.24,22.81,45.5424513,-92.9301189,329
3,-67.01,91965,810.02,599.3,470.99,38.3,-57.57,-5.79,10.17,862.23,28.41,-8.32,0.24,-0.07,0.19,22.96,45.5424513,-92.9301189,329
3.01,-67.01,91927,813.45,602.72,470.37,38.3,-57.71,-5.2,10.69,862.53,24.99,-4.35,0.26,-0.06,0.18,23.1,45.5424513,-92.9301189,329
3.02,-67.01,91833,821.92,611.19,469.75,38.3,-57.82,-5.81,9.8,805.4,-48.25,15.67,0.25,-0.07,0.17,22.71,45.5424513,-92.9301189,329
3.03,-66.47,91739,830.39,619.67,469.12,38.3,-57.3,-6.08,9.83,846.05,10.71,-0.88,0.26,-0.07,0.13,22.79,45.5424513,-92.9301189,329
3.04,-66.47,91664,837.16,626.44,468.5,38.3,-57.12,-5.88,8.2,869.8,64.06,-23.64,0.25,-0.08,0.11,23.42,45.5424513,-92.9301189,329
3.05,-66.47,91594,843.48,632.76,467.88,38.3,-56.87,-5.72,8.43,879.32,15.47,-16.01,0.23,-0.07,0.07,23.64,45.5424513,-92.9301189,329
3.06,-65.92,91510,851.07,640.35,467.27,38.3,-56.82,-5.43,7.56,879.5,-42.7,100.87,0.24,-0.07,0.05,22.84,45.5424513,-92.9301189,329
3.07,-66.47,91450,856.5,645.77,466.65,38.3,-56.59,-4.43,7.67,856.12,-26.4,-45.07,0.22,-0.08,0.04,22.7,45.5424513,-92.9301189,329
3.08,-66.47,91430,858.31,647.58,466.03,38.3,-56.28,-4.39,9.17,904.4,15.78,58.64,0.2,-0.08,0.01,22.8,45.5424513,-92.9301189,329
3.09,-65.92,91354,865.19,654.46,465.42,38.3,-56.31,-4.21,8.61,817,34.76,99.71,0.18,-0.07,0.01,23.23,45.5424513,-92.9301189,329
3.1,-65.92,91262,873.52,662.79,464.8,38.3,-55.91,-5.81,11.09,871.93,19.87,-37.44,0.15,-0.06,-0.01,23.34,45.5424513,-92.9301189,329
3.11,-65.92,91207,878.5,667.78,464.19,38.3,-56.38,-5.62,10.83,838.67,17.42,-6.92,0.11,-0.06,0,23.47,45.5424513,-92.9301189,329
3.12,-65.38,91104,887.84,677.12,463.58,38.3,-55.74,-5.99,10.4,874.25,80.54,-39.57,0.12,-0.07,-0.02,23.98,45.5424513,-92.9301189,329
3.13,-64.83,91007,896.65,685.92,462.98,38.3,-55.47,-6.67,8.21,882.67,23.71,-74.91,0.07,-0.05,-0.02,23.72,45.5424513,-92.9301189,329
3.14,-64.83,90951,901.73,691.01,462.37,38.3,-55.24,-5.73,9.47,924.06,136.75,-61.79,0.06,-0.07,-0.01,24.3,45.5424513,-92.9301189,329
3.15,-64.83,90851,910.82,700.1,461.77,38.3,-55.18,-5.83,7.89,828.53,-142.55,39.9,0.04,-0.06,0,23.74,45.5424513,-92.9301189,329
3.16,-64.83,90783,917.01,706.28,461.17,38.3,-54.98,-5.65,9.28,860.03,-15.54,-92.8,0.02,-0.06,0.01,22.85,45.5424513,-92.9301189,329
3.17,-64.29,90733,921.56,710.83,460.57,38.3,-54.9,-4.16,7.9,895.98,43,-15.52,0,-0.06,0.03,22.86,45.5424513,-92.9301189,329
3.18,-64.29,90677,926.66,715.93,459.97,38.3,-54.68,-5.49,9.21,878.34,-37.63,23.23,-0.02,-0.07,0.05,23.01,45.5424513,-92.9301189,329
3.19,-64.29,90603,933.4,722.67,459.37,38.3,-54.57,-6.36,8.87,869.49,54.11,-40.31,-0.03,-0.07,0.05,22.64,45.5424513,-92.9301189,329
3.2,-63.74,90543,938.87,728.14,458.77,38.3,-54.27,-5.96,9.79,901.23,68.15,-33.77,-0.04,-0.07,0.07,22.25,45.5424513,-92.9301189,329
3.21,-63.74,90483,944.34,733.62,458.17,38.3,-54.77,-5.9,9.52,902.94,24.57,-24.99,-0.06,-0.07,0.1,21.96,45.5424513,-92.9301189,329
3.22,-63.74,90418,950.27,739.55,457.57,38.3,-54.66,-5.03,10.63,841.54,-7.54,-43.48,-0.07,-0.07,0.13,21.58,45.5424513,-92.9301189,329
3.22,-63.74,90418,950.27,739.55,457.57,38.3,-54.66,-5.03,10.63,841.54,-7.54,-43.48,-0.07,-0.07,0.13,21.58,45.5424513,-92.9301189,329
3.23,-63.74,90377,954.02,743.29,456.97,38.3,-54.18,-6.1,9.48,890.06,35.92,-20.9,-0.05,-0.07,0.15,21.22,45.5424513,-92.9301189,329
3.23,-63.74,90377,954.02,743.29,456.97,38.3,-54.18,-6.1,9.48,890.06,35.92,-20.9,-0.05,-0.07,0.15,21.22,45.5424513,-92.9301189,329
3.24,-63.2,90290,961.96,751.24,456.37,38.3,-54.58,-4.07,8.95,969.41,101.66,-57.88,-0.06,-0.07,0.19,20.14,45.5424513,-92.9301189,329
3.25,-63.74,90255,965.16,754.44,455.77,38.3,-53.54,-5.53,8.02,966.48,68.88,-52.27,-0.07,-0.07,0.21,19.28,45.5424513,-92.9301189,329
3.26,-63.2,90175,972.48,761.75,455.16,38.4,-53.95,-3.68,9.85,858.38,-54.36,6.69,-0.05,-0.08,0.23,19.77,45.5424513,-92.9301189,329
3.27,-63.2,90069,982.18,771.45,454.57,38.4,-53.47,-5.63,8.31,823.35,-75.54,6.33,-0.02,-0.08,0.27,20.49,45.5424513,-92.9301189,329
3.28,-63.2,89986,989.78,779.06,453.97,38.3,-53.75,-5.78,9.5,811.87,-56.19,27.75,-0.02,-0.08,0.28,21.1,45.5424513,-92.9301189,329
3.29,-62.65,89899,997.76,787.03,453.37,38.4,-53.09,-4.41,8.76,887.86,0.82,-16.62,0,-0.09,0.32,21.07,45.5424513,-92.9301189,329
3.3,-62.65,89855,1001.8,791.07,452.78,38.4,-52.48,-6.29,7.37,921.56,28.84,-20.22,0.03,-0.08,0.32,20.79,45.5424513,-92.9301189,329
3.31,-62.65,89773,1009.32,798.6,452.19,38.4,-52.64,-5.6,9.99,897.99,-131.26,42.52,0.05,-0.07,0.33,22,45.5424513,-92.9301189,329
3.32,-62.65,89705,1015.57,804.84,451.61,38.4,-52.18,-6.12,7.26,913.74,-94.03,47.47,0.08,-0.09,0.33,22.76,45.5424513,-92.9301189,329
3.33,-62.65,89648,1020.8,810.08,451.02,38.4,-52.88,-6.17,10.02,894.03,-15.23,-78.45,0.11,-0.08,0.33,23.24,45.5424513,-92.9301189,329
3.34,-62.11,89554,1029.45,818.72,450.44,38.4,-52.51,-5.46,8.29,953.11,114.41,-58.8,0.12,-0.08,0.32,22.7,45.5424513,-92.9301189,329
3.35,-62.11,89511,1033.41,822.68,449.86,38.4,-52.48,-6.61,9,917.4,58.01,-32.98,0.16,-0.08,0.33,22.57,45.5424513,-92.9301189,329
3.36,-61.56,89479,1036.35,825.63,449.28,38.4,-52.26,-5.35,9.94,987.23,53.07,-34.81,0.17,-0.07,0.31,22.61,45.5424513,-92.9301189,329
3.37,-61.56,89401,1043.53,832.81,448.7,38.4,-52.62,-5.53,9.73,949.14,5.71,62.85,0.2,-0.08,0.28,22,45.5424513,-92.9301189,329
3.38,-61.56,89303,1052.57,841.84,448.12,38.4,-52.27,-6.54,9.91,920.7,-14.68,23.17,0.21,-0.07,0.27,21.8,45.5424513,-92.9301189,329
3.39,-61.56,89243,1058.1,847.37,447.55,38.4,-51.58,-5.7,9.71,955.86,-60.64,-53.49,0.24,-0.07,0.25,22.35,45.5424513,-92.9301189,329
3.4,-61.02,89137,1067.88,857.16,446.97,38.4,-51.55,-6.27,8.28,848.31,-76.21,16.7,0.24,-0.07,0.22,22.11,45.5424513,-92.9301189,329
3.41,-61.02,89091,1072.13,861.41,446.4,38.4,-51.69,-6.21,9.42,1000.23,29.02,-25.35,0.26,-0.06,0.2,22.42,45.5424513,-92.9301189,329
3.42,-61.02,89048,1076.11,865.38,445.83,38.4,-51.26,-5.76,8.24,996.81,119.36,-80.41,0.26,-0.06,0.2,23.65,45.5424513,-92.9301189,329
3.43,-61.02,89000,1080.54,869.82,445.26,38.4,-51.18,-5.45,9.02,945.3,-30.86,-10.46,0.26,-0.06,0.15,23.56,45.5424513,-92.9301189,329
3.44,-61.02,88943,1085.81,875.09,444.69,38.4,-51.1,-4.6,8.63,975.88,-11.14,90.56,0.25,-0.07,0.11,22.84,45.5424513,-92.9301189,329
3.45,-60.47,88867,1092.85,882.12,444.13,38.4,-50.74,-5.81,9.09,992.48,44.65,3.89,0.26,-0.07,0.09,23.19,45.5424513,-92.9301189,329
3.46,-60.47,88823,1096.92,886.2,443.57,38.4,-50.8,-5.09,9.15,1010.24,70.22,-115.26,0.22,-0.06,0.06,24.31,45.5424513,-92.9301189,329
3.47,-60.47,88740,1104.61,893.89,443.01,38.4,-50.65,-7.12,9.72,940.54,-59.06,-157.13,0.22,-0.06,0.04,24.22,45.5424513,-92.9301189,329
3.48,-59.93,88644,1113.51,902.79,442.45,38.4,-50.5,-4.84,9.99,945.97,-73.58,22.44,0.2,-0.08,0.01,23.45,45.5424513,-92.9301189,329
3.49,-59.93,88572,1120.19,909.47,441.89,38.4,-50.23,-7.24,8.43,955.25,34.64,-17.48,0.18,-0.06,0,23.8,45.5424513,-92.9301189,329
3.5,-59.93,88541,1123.07,912.35,441.33,38.4,-50.44,-5.23,9.91,922.78,20.72,-40.98,0.13,-0.08,-0.01,23.95,45.5424513,-92.9301189,329
3.51,-59.93,88442,1132.27,921.54,440.78,38.4,-50.39,-5.33,7.97,934.98,45.87,147.44,0.13,-0.06,-0.02,24.85,45.5424513,-92.9301189,329
3.52,-59.93,88350,1140.82,930.09,440.22,38.4,-49.77,-5.58,6,1025.75,-5.89,91.41,0.1,-0.05,-0.01,25.26,45.5424513,-92.9301189,329
3.53,-59.93,88286,1146.77,936.05,439.67,38.4,-49.76,-7.12,9.23,977.34,50.2,-301.42,0.06,-0.06,-0.01,23.78,45.5424513,-92.9301189,329
3.54,-59.38,88211,1153.76,943.03,439.12,38.4,-49.44,-4.86,7.34,957.75,13.21,8.4,0.04,-0.07,-0.01,23.93,45.5424513,-92.9301189,329
3.54,-59.38,88211,1153.76,943.03,439.12,38.4,-49.44,-4.86,7.34,957.75,13.21,8.4,0.04,-0.07,-0.01,23.93,45.5424513,-92.9301189,329
3.55,-59.38,88167,1157.86,947.13,438.57,38.4,-49.49,-6.99,8.86,981.86,50.02,28.54,0.01,-0.07,0.01,24.45,45.5424513,-92.9301189,329
3.56,-59.38,88086,1165.4,954.68,438.01,38.4,-49.33,-6.38,8.87,969.23,-12.79,-106.04,0,-0.06,0.02,23.45,45.5424513,-92.9301189,329
3.57,-59.38,88029,1170.72,959.99,437.46,38.4,-49.49,-5.31,8.59,961.96,-9.07,12.31,-0.02,-0.07,0.05,23.54,45.5424513,-92.9301189,329
3.58,-59.38,87950,1178.09,967.37,436.91,38.4,-49.56,-7.59,9.91,954.52,61.98,-18.39,-0.05,-0.07,0.06,23.44,45.5424513,-92.9301189,329
3.59,-58.84,87869,1185.66,974.93,436.36,38.4,-48.9,-6.52,9.22,981.01,-4.92,48.32,-0.05,-0.07,0.1,23.93,45.5424513,-92.9301189,329
3.6,-58.84,87834,1188.93,978.2,435.81,38.4,-49.32,-6.74,9.21,963.37,-9.86,-27.92,-0.07,-0.07,0.12,23.67,45.5424513,-92.9301189,329
3.61,-58.84,87761,1195.75,985.03,435.27,38.4,-48.77,-6.1,10.01,985.34,-3.08,-16.75,-0.07,-0.07,0.15,23.53,45.5424513,-92.9301189,329
3.62,-58.3,87687,1202.67,991.95,434.72,38.4,-49.28,-6.54,9.58,990.65,-67.91,13.96,-0.07,-0.06,0.17,24,45.5424513,-92.9301189,329
3.63,-58.3,87662,1205.01,994.29,434.18,38.4,-48.91,-6.47,9.96,988.76,-74.01,-117.46,-0.06,-0.07,0.21,23.65,45.5424513,-92.9301189,329
3.64,-58.3,87615,1209.41,998.69,433.63,38.4,-48.73,-5.79,9.76,993.76,10.28,-116.3,-0.06,-0.07,0.23,22.92,45.5424513,-92.9301189,329
3.65,-58.3,87545,1215.97,1005.25,433.09,38.4,-48.73,-5.76,9.88,1024.4,-0.76,-129.3,-0.04,-0.08,0.26,22.45,45.5424513,-92.9301189,329
3.66,-58.3,87507,1219.53,1008.81,432.55,38.4,-48.12,-5.94,9.64,982.53,-39.1,-223.72,-0.03,-0.07,0.28,22.55,45.5424513,-92.9301189,329
3.67,-57.75,87459,1224.03,1013.31,432.01,38.4,-48.69,-5.68,9.87,955.37,-26.28,-100.85,0,-0.08,0.3,22.92,45.5424513,-92.9301189,329
3.68,-57.75,87398,1229.75,1019.03,431.47,38.4,-48.51,-7.13,10.1,1005.66,-40.26,-47.33,0.04,-0.07,0.32,23.45,45.5424513,-92.9301189,329
3.69,-57.75,87359,1233.41,1022.69,430.93,38.4,-47.82,-5.4,10.35,1013.48,-24.26,110.33,0.06,-0.07,0.33,23.17,45.5424513,-92.9301189,329
3.7,-57.21,87254,1243.28,1032.55,430.39,38.4,-47.97,-7.39,8.77,1012.5,-16.02,-34.75,0.09,-0.08,0.34,23.51,45.5424513,-92.9301189,329
3.71,-57.21,87171,1251.08,1040.35,429.86,38.4,-48.05,-5.26,9.78,1031.3,1.98,-12.96,0.11,-0.08,0.35,23.59,45.5424513,-92.9301189,329
3.72,-57.21,87124,1255.5,1044.77,429.33,38.4,-47.41,-5.76,9.03,1035.76,32.68,-156.4,0.14,-0.08,0.33,24.74,45.5424513,-92.9301189,329
3.73,-57.21,87064,1261.14,1050.42,428.8,38.4,-47.28,-5.29,9.8,1032.28,51.24,-13.08,0.17,-0.08,0.31,24.69,45.5424513,-92.9301189,329
3.74,-57.21,87015,1265.76,1055.03,428.27,38.4,-47.13,-5.97,9.33,1049.73,30.18,-107.26,0.2,-0.08,0.3,25.7,45.5424513,-92.9301189,329
3.75,-56.66,86959,1271.03,1060.3,427.75,38.4,-47.28,-5.07,10.06,1049.24,5.58,-5.15,0.22,-0.07,0.28,25.76,45.5424513,-92.9301189,329
3.76,-56.66,86871,1279.32,1068.6,427.23,38.4,-47.9,-7,10.54,1049.86,11.5,74.63,0.24,-0.06,0.25,25.06,45.5424513,-92.9301189,329
3.77,-56.66,86804,1285.64,1074.92,426.71,38.4,-46.91,-5.66,8.94,1049.18,-26.52,-81.99,0.24,-0.07,0.22,25.7,45.5424513,-92.9301189,329
3.78,-56.12,86706,1294.89,1084.17,426.19,38.4,-46.83,-6.4,10.76,1050.77,-42.94,16.4,0.25,-0.06,0.19,25.33,45.5424513,-92.9301189,329
3.79,-56.12,86631,1301.98,1091.25,425.67,38.4,-46.48,-6.22,8.81,1058.34,15.96,119.24,0.27,-0.07,0.17,24.59,45.5424513,-92.9301189,329
3.8,-55.57,86561,1308.6,1097.87,425.15,38.4,-46.42,-6.54,10.06,1064.57,-27.13,-26.94,0.26,-0.06,0.13,24.52,45.5424513,-92.9301189,329
3.81,-55.57,86494,1314.93,1104.21,424.64,38.4,-46.24,-6.52,9.23,1044.48,-33.97,9.87,0.25,-0.07,0.08,24.17,45.5424513,-92.9301189,329
3.82,-55.57,86445,1319.57,1108.85,424.12,38.4,-45.94,-6.35,9.62,1039.05,-23.41,-55.69,0.26,-0.08,0.07,24.08,45.5424513,-92.9301189,329
3.83,-55.57,86421,1321.84,1111.12,423.6,38.4,-46.16,-6.47,9.28,1056.33,-32.32,208.48,0.23,-0.07,0.04,23.67,45.5424513,-92.9301189,329
3.84,-55.57,86382,1325.54,1114.81,423.08,38.4,-45.57,-5.8,9.62,1025.62,-43.73,8.52,0.21,-0.08,0.01,23.25,45.5424513,-92.9301189,329
3.85,-55.57,86291,1334.16,1123.44,422.56,38.4,-45.69,-6.86,9.5,1050.89,-38.97,-120.94,0.18,-0.07,0,22.48,45.5424513,-92.9301189,329
3.86,-55.57,86239,1339.09,1128.37,422.04,38.4,-45.54,-6.21,9.45,1083.18,-26.89,-11.56,0.15,-0.08,-0.01,22.19,45.5424513,-92.9301189,329
3.86,-55.57,86239,1339.09,1128.37,422.04,38.4,-45.54,-6.21,9.45,1083.18,-26.89,-11.56,0.15,-0.08,-0.01,22.19,45.5424513,-92.9301189,329
3.87,-55.03,86162,1346.4,1135.67,421.53,38.4,-45.53,-6.82,9.88,1078.05,-1.31,-179.96,0.12,-0.07,-0.03,21.06,45.5424513,-92.9301189,329
3.88,-55.03,86084,1353.8,1143.08,421.01,38.4,-45.62,-6.79,9.91,1080.62,-29.15,0.16,0.07,-0.06,-0.01,20.86,45.5424513,-92.9301189,329
3.89,-54.48,86020,1359.89,1149.16,420.49,38.4,-45.4,-7.42,10.59,1090.51,-1.74,10.9,0.05,-0.06,0,20.95,45.5424513,-92.9301189,329
3.9,-54.48,85954,1366.16,1155.43,419.97,38.4,-45.03,-7.11,9.88,1096.67,34.88,-31.15,0.03,-0.07,0.01,20.78,45.5424513,-92.9301189,329
3.91,-54.48,85924,1369.01,1158.29,419.45,38.4,-44.86,-7.35,10.35,1101.68,30.43,-134.73,-0.01,-0.07,0.02,19.51,45.5424513,-92.9301189,329
3.92,-54.48,85882,1373.01,1162.28,418.93,38.4,-44.52,-7.37,9.37,1102.35,-2.29,-88.16,-0.03,-0.07,0.04,18.63,45.5424513,-92.9301189,329
3.93,-53.94,85806,1380.25,1169.52,418.42,38.4,-44.38,-6.3,10.92,1104.18,-19.99,-4.84,-0.05,-0.07,0.06,18.62,45.5424513,-92.9301189,329
3.94,-53.94,85750,1385.58,1174.85,417.9,38.4,-44.41,-7.34,9.16,1106.99,21.57,92.57,-0.05,-0.07,0.09,19.41,45.5424513,-92.9301189,329
3.95,-53.94,85701,1390.25,1179.52,417.38,38.4,-44.5,-6.25,10.25,1125.17,26.76,-134.67,-0.08,-0.08,0.13,18.12,45.5424513,-92.9301189,329
3.96,-53.94,85629,1397.12,1186.39,416.87,38.4,-43.96,-6.97,8.98,1079.34,-53.32,-17.72,-0.08,-0.07,0.16,18.38,45.5424513,-92.9301189,329
3.97,-53.39,85565,1403.22,1192.5,416.35,38.4,-43.81,-7.19,10.41,1131.1,-16.39,-12.11,-0.06,-0.08,0.21,18.45,45.5424513,-92.9301189,329
3.98,-53.39,85476,1411.72,1201,415.84,38.4,-43.86,-8.07,10.8,1119.32,-5.34,68.22,-0.06,-0.08,0.23,18.76,45.5424513,-92.9301189,329
3.99,-53.39,85436,1415.54,1204.82,415.33,38.5,-43.45,-6.66,9.97,1121.15,-19.99,-101.83,-0.04,-0.07,0.26,18.76,45.5424513,-92.9301189,329
4,-52.85,85346,1424.15,1213.42,414.82,38.4,-43.7,-8.6,10.81,1111.69,-39.65,-113.12,-0.03,-0.08,0.29,19.23,45.5424513,-92.9301189,329
4.01,-53.39,85294,1429.13,1218.4,414.32,38.5,-43.49,-6.56,10.2,1123.4,20.6,98.8,0,-0.08,0.31,18.77,45.5424513,-92.9301189,329
4.02,-52.85,85269,1431.52,1220.79,413.81,38.4,-43.45,-7.64,10.09,1117,-10.29,55.83,0.02,-0.09,0.32,18.64,45.5424513,-92.9301189,329
4.03,-52.85,85180,1440.04,1229.32,413.3,38.5,-43.19,-6.67,10.54,1116.26,-8.64,-124.72,0.07,-0.07,0.34,19.44,45.5424513,-92.9301189,329
4.04,-52.3,85136,1444.26,1233.53,412.8,38.5,-42.94,-7.46,10.38,1132.38,-3.63,-79.06,0.09,-0.08,0.34,20.06,45.5424513,-92.9301189,329
4.05,-52.3,85068,1450.78,1240.05,412.3,38.5,-42.62,-7.37,9.3,1152.95,29.45,137.56,0.13,-0.08,0.33,18.72,45.5424513,-92.9301189,329
4.06,-52.3,85026,1454.81,1244.08,411.8,38.5,-42.53,-7.58,10.3,1141.53,8.82,97.21,0.13,-0.08,0.33,17.77,45.5424513,-92.9301189,329
4.07,-52.3,84957,1461.43,1250.7,411.3,38.5,-42.73,-8.12,10.41,1127.92,-42.51,17.37,0.22,-0.07,0.28,17.66,45.5424513,-92.9301189,329
4.08,-52.3,84885,1468.34,1257.62,410.8,38.5,-42.82,-7.89,11,1155.63,20.23,-181.55,0.24,-0.07,0.25,19.49,45.5424513,-92.9301189,329
4.09,-51.76,84858,1470.94,1260.21,410.3,38.4,-42.31,-7.76,11.59,1154.47,-1.44,-17.84,0.25,-0.07,0.23,19.66,45.5424513,-92.9301189,329
4.1,-51.76,84789,1477.57,1266.84,409.81,38.5,-42.24,-9.6,10.2,1133.96,-2.11,172.29,0.27,-0.07,0.2,18.1,45.5424513,-92.9301189,329
4.11,-51.76,84745,1481.8,1271.08,409.31,38.5,-42.4,-7.07,10.65,1162.41,19.99,-184.11,0.26,-0.06,0.14,19.69,45.5424513,-92.9301189,329
