#version,serial,flight,call,time,state,state_name,acceleration,pressure,altitude,height,speed,temperature,drogue_voltage,main_voltage,battery_voltage,accel_x,accel_y,accel_z,gyro_roll,gyro_pitch,gyro_yaw,mag_x,mag_y,mag_z,tilt,pyro,igniter_a,igniter_b,igniter_c,igniter_d,connected,locked,nsat,latitude,longitude,altitude,year,month,day,hour,minute,second,pad_dist,pad_range,pad_az,pad_el,pdop,hdop,vdop,sat01,sat02,sat03,sat04,sat05,sat06,sat07,sat08,sat09,sat10,sat11,sat12,sat13,sat14,sat15,sat16,sat17,sat18,sat19,sat20,sat21,sat22,sat23,sat24,sat25,sat26,sat27,sat28,sat29,sat30,sat31,sat32
6, 3418, 4,KD0KZD,    -0.30, 3,   boost,   -0.53,  97299.00,  340.66,   -1.46,    0.00, 43.2, 4.00, 4.02, 4.04,   9.09,  -0.55,  -0.07,  -1.21,  -0.12,  -0.05,   0.42,   0.18,  -0.18,   0.50, 4.05, 0.00, 0.00, 0.02, 0.00, 1, 1, 11,  37.1657227, -97.7360642,   387.0, 2019,  9,  1, 22, 37, 45,        0,        0,   0,   0,   1.6,   0.8,   1.4,  0,  0,  0,  0,  0,  0,  0, 23,  0, 32,  0,  0,  0, 28, 36,  0,  0,  0,  0, 33, 38,  0,  0, 38,  0,  0, 22,  0,  0,  0,  0, 35
6, 3418, 4,KD0KZD,    -0.29, 3,   boost,    0.53,  97277.00,  342.55,    0.43,    0.00, 43.2, 4.00, 4.02, 4.04,   9.75,   0.34,  -0.97,   1.66,   0.18,  -0.17,   0.42,   0.18,  -0.18,   0.50, 4.05, 0.00, 0.00, 0.02, 0.00, 1, 1, 11,  37.1657227, -97.7360642,   387.0, 2019,  9,  1, 22, 37, 45,        0,        0,   0,   0,   1.6,   0.8,   1.4,  0,  0,  0,  0,  0,  0,  0, 23,  0, 32,  0,  0,  0, 28, 36,  0,  0,  0,  0, 33, 38,  0,  0, 38,  0,  0, 22,  0,  0,  0,  0, 35
6, 3418, 4,KD0KZD,    -0.28, 3,   boost,   -0.00,  97276.00,  342.64,    0.52,    0.00, 43.2, 4.00, 4.02, 4.04,  10.45,   0.12,   0.43,  -1.03,   0.24,   0.01,   0.42,   0.18,  -0.19,   0.50, 4.05, 0.00, 0.00, 0.02, 0.00, 1, 1, 11,  37.1657227, -97.7360642,   387.0, 2019,  9,  1, 22, 37, 45,        0,        0,   0,   0,   1.6,   0.8,   1.4,  0,  0,  0,  0,  0,  0,  0, 23,  0, 32,  0,  0,  0, 28, 36,  0,  0,  0,  0, 33, 38,  0,  0, 38,  0,  0, 22,  0,  0,  0,  0, 35
6, 3418, 4,KD0KZD,    -0.27, 3,   boost,   -1.06,  97278.00,  342.46,    0.34,    0.00, 43.2, 4.00, 4.02, 4.04,  10.35,  -0.21,  -0.20,  -0.24,  -0.12,  -0.05,   0.42,   0.18,  -0.18,   0.50, 4.05, 0.00, 0.00, 0.02, 0.00, 1, 1, 11,  37.1657227, -97.7360642,   387.0, 2019,  9,  1, 22, 37, 45,        0,        0,   0,   0,   1.6,   0.8,   1.4,  0,  0,  0,  0,  0,  0,  0, 23,  0, 32,  0,  0,  0, 28, 36,  0,  0,  0,  0, 33, 38,  0,  0, 38,  0,  0, 22,  0,  0,  0,  0, 35
6, 3418, 4,KD0KZD,    -0.26, 3,   boost,   -0.53,  97290.00,  341.43,   -0.69,    0.00, 43.2, 4.00, 4.02, 4.04,   9.45,   0.51,   0.15,   0.01,  -0.31,   0.01,   0.42,   0.18,  -0.17,   0.50, 4.05, 0.00, 0.00, 0.02, 0.00, 1, 1, 11,  37.1657227, -97.7360642,   387.0, 2019,  9,  1, 22, 37, 45,        0,        0,   0,   0,   1.6,   0.8,   1.4,  0,  0,  0,  0,  0,  0,  0, 23,  0, 32,  0,  0,  0, 28, 36,  0,  0,  0,  0, 33, 38,  0,  0, 38,  0,  0, 22,  0,  0,  0,  0, 35
6, 3418, 4,KD0KZD,    -0.25, 3,   boost,   -0.00,  97277.00,  342.55,    0.43,    0.00, 43.2, 4.00, 4.02, 4.04,   9.20,  -0.57,   0.45,  -0.91,  -0.73,   0.01,   0.42,   0.18,  -0.18,   0.50, 4.05, 0.00, 0.00, 0.02, 0.00, 1, 1, 11,  37.1657227, -97.7360642,   387.0, 2019,  9,  1, 22, 37, 45,        0,        0,   0,   0,   1.6,   0.8,   1.4,  0,  0,  0,  0,  0,  0,  0, 23,  0, 32,  0,  0,  0, 28, 36,  0,  0,  0,  0, 33, 38,  0,  0, 38,  0,  0, 22,  0,  0,  0,  0, 35
6, 3418, 4,KD0KZD,    -0.24, 3,   boost,   -0.00,  97298.00,  340.74,   -1.38,    0.00, 43.2, 4.00, 4.02, 4.04,  10.15,   0.51,  -0.66,   1.29,  -0.55,  -0.11,   0.42,   0.18,  -0.19,   0.50, 4.05, 0.00, 0.00, 0.02, 0.00, 1, 1, 11,  37.1657227, -97.7360642,   387.0, 2019,  9,  1, 22, 37, 45,        0,        0,   0,   0,   1.6,   0.8,   1.4,  0,  0,  0,  0,  0,  0,  0, 23,  0, 32,  0,  0,  0, 28, 36,  0,  0,  0,  0, 33, 38,  0,  0, 38,  0,  0, 22,  0,  0,  0,  0, 35
6, 3418, 4,KD0KZD,    -0.23, 3,   boost,   -0.00,  97281.00,  342.21,    0.09,    0.00, 43.2, 4.00, 4.02, 4.04,  10.36,  -0.57,  -0.08,  -0.36,  -0.25,  -0.05,   0.42,   0.18,  -0.18,   0.50, 4.05, 0.00, 0.00, 0.02, 0.00, 1, 1, 11,  37.1657227, -97.7360642,   387.0, 2019,  9,  1, 22, 37, 45,        0,        0,   0,   0,   1.6,   0.8,   1.4,  0,  0,  0,  0,  0,  0,  0, 23,  0, 32,  0,  0,  0, 28, 36,  0,  0,  0,  0, 33, 38,  0,  0, 38,  0,  0, 22,  0,  0,  0,  0, 35
6, 3418, 4,KD0KZD,    -0.22, 3,   boost,   -0.53,  97301.00,  340.49,   -1.63,    0.00, 43.2, 4.00, 4.02, 4.04,   9.97,   0.33,  -0.56,  -0.11,  -0.06,  -0.35,   0.42,   0.18,  -0.18,   0.50, 4.05, 0.00, 0.00, 0.02, 0.00, 1, 1, 11,  37.1657227, -97.7360642,   387.0, 2019,  9,  1, 22, 37, 45,        0,        0,   0,   0,   1.6,   0.8,   1.4,  0,  0,  0,  0,  0,  0,  0, 23,  0, 32,  0,  0,  0, 28, 36,  0,  0,  0,  0, 33, 38,  0,  0, 38,  0,  0, 22,  0,  0,  0,  0, 35
6, 3418, 4,KD0KZD,    -0.21, 3,   boost,   -0.53,  97276.00,  342.64,    0.52,    0.00, 43.2, 4.00, 4.02, 4.04,   9.62,  -0.00,   0.14,  -0.11,   0.12,  -0.35,   0.42,   0.18,  -0.18,   0.50, 4.05, 0.00, 0.00, 0.02, 0.00, 1, 1, 11,  37.1657227, -97.7360642,   387.0, 2019,  9,  1, 22, 37, 45,        0,        0,   0,   0,   1.6,   0.8,   1.4,  0,  0,  0,  0,  0,  0,  0, 23,  0, 32,  0,  0,  0, 28, 36,  0,  0,  0,  0, 33, 38,  0,  0, 38,  0,  0, 22,  0,  0,  0,  0, 35
6, 3418, 4,KD0KZD,    -0.20, 3,   boost,   -4.77,  97277.00,  342.55,    0.43,    0.00, 43.2, 4.00, 4.02, 4.04,   9.66,  -0.11,   0.04,  -1.27,  -0.12,  -0.23,   0.42,   0.18,  -0.18,   0.50, 4.05, 0.00, 0.00, 0.02, 0.00, 1, 1, 11,  37.1657227, -97.7360642,   387.0, 2019,  9,  1, 22, 37, 45,        0,        0,   0,   0,   1.6,   0.8,   1.4,  0,  0,  0,  0,  0,  0,  0, 23,  0, 32,  0,  0,  0, 28, 36,  0,  0,  0,  0, 33, 38,  0,  0, 38,  0,  0, 22,  0,  0,  0,  0, 35
6, 3418, 4,KD0KZD,    -0.19, 3,   boost,   -0.00,  97296.00,  340.92,   -1.20,    0.01, 43.2, 4.00, 4.02, 4.04,  11.46,   0.01,  -0.28,   0.56,  -0.43,  -0.11,   0.42,   0.18,  -0.18,   0.50, 4.05, 0.00, 0.00, 0.02, 0.00, 1, 1, 11,  37.1657227, -97.7360642,   387.0, 2019,  9,  1, 22, 37, 45,        0,        0,   0,   0,   1.6,   0.8,   1.4,  0,  0,  0,  0,  0,  0,  0, 23,  0, 32,  0,  0,  0, 28, 36,  0,  0,  0,  0, 33, 38,  0,  0, 38,  0,  0, 22,  0,  0,  0,  0, 35
6, 3418, 4,KD0KZD,    -0.18, 3,   boost,    5.83,  97251.00,  344.79,    2.67,    0.05, 43.2, 4.00, 4.02, 4.04,   9.40,  -0.56,  -2.27,  -4.02,  -0.37,   0.56,   0.42,   0.18,  -0.18,   0.50, 4.05, 0.00, 0.00, 0.02, 0.00, 1, 1, 11,  37.1657227, -97.7360642,   387.0, 2019,  9,  1, 22, 37, 45,        0,        0,   0,   0,   1.6,   0.8,   1.4,  0,  0,  0,  0,  0,  0,  0, 23,  0, 32,  0,  0,  0, 28, 36,  0,  0,  0,  0, 33, 38,  0,  0, 38,  0,  0, 22,  0,  0,  0,  0, 35
6, 3418, 4,KD0KZD,    -0.17, 3,   boost,    3.18,  97270.00,  343.15,    1.03,    0.14, 43.2, 4.00, 4.02, 4.04,  10.88,   0.11,   0.24,  -2.01,  -0.12,   0.32,   0.42,   0.18,  -0.18,   0.50, 4.05, 0.00, 0.00, 0.02, 0.00, 1, 1, 11,  37.1657227, -97.7360642,   387.0, 2019,  9,  1, 22, 37, 45,        0,        0,   0,   0,   1.6,   0.8,   1.4,  0,  0,  0,  0,  0,  0,  0, 23,  0, 32,  0,  0,  0, 28, 36,  0,  0,  0,  0, 33, 38,  0,  0, 38,  0,  0, 22,  0,  0,  0,  0, 35
6, 3418, 4,KD0KZD,    -0.16, 3,   boost,   14.84,  97262.00,  343.84,    1.72,    0.32, 43.2, 4.00, 4.02, 4.04,  17.63,   1.80,   0.13,   5.20,   0.12,   0.32,   0.42,   0.18,  -0.18,   0.50, 4.05, 0.00, 0.00, 0.02, 0.00, 1, 1, 11,  37.1657227, -97.7360642,   387.0, 2019,  9,  1, 22, 37, 45,        0,        0,   0,   0,   1.6,   0.8,   1.4,  0,  0,  0,  0,  0,  0,  0, 23,  0, 32,  0,  0,  0, 28, 36,  0,  0,  0,  0, 33, 38,  0,  0, 38,  0,  0, 22,  0,  0,  0,  0, 35
6, 3418, 4,KD0KZD,    -0.15, 3,   boost,   36.05,  97309.00,  339.80,   -2.32,    0.60, 43.2, 4.00, 4.02, 4.04,  22.49,  -0.59,  -1.30,   3.49,  -0.37,  -0.17,   0.42,   0.18,  -0.19,   0.50, 4.05, 0.00, 0.00, 0.02, 0.00, 1, 1, 11,  37.1657227, -97.7360642,   387.0, 2019,  9,  1, 22, 37, 45,        0,        0,   0,   0,   1.6,   0.8,   1.4,  0,  0,  0,  0,  0,  0,  0, 23,  0, 32,  0,  0,  0, 28, 36,  0,  0,  0,  0, 33, 38,  0,  0, 38,  0,  0, 22,  0,  0,  0,  0, 35
6, 3418, 4,KD0KZD,    -0.14, 3,   boost,   53.01,  97281.00,  342.21,    0.09,    1.01, 43.2, 4.00, 4.02, 4.04,  43.74,   2.05,   0.86,   0.68,  -0.86,  -0.84,   0.42,   0.18,  -0.19,   0.50, 4.05, 0.00, 0.00, 0.02, 0.00, 1, 1, 11,  37.1657227, -97.7360642,   387.0, 2019,  9,  1, 22, 37, 45,        0,        0,   0,   0,   1.6,   0.8,   1.4,  0,  0,  0,  0,  0,  0,  0, 23,  0, 32,  0,  0,  0, 28, 36,  0,  0,  0,  0, 33, 38,  0,  0, 38,  0,  0, 22,  0,  0,  0,  0, 35
6, 3418, 4,KD0KZD,    -0.13, 3,   boost,   64.67,  97303.00,  340.31,   -1.81,    1.54, 43.2, 4.00, 4.02, 4.04,  62.60,   0.67,  -4.25,  -7.74,  -1.53,  -1.58,   0.42,   0.18,  -0.18,   0.50, 4.05, 0.00, 0.00, 0.02, 0.00, 1, 1, 11,  37.1657227, -97.7360642,   387.0, 2019,  9,  1, 22, 37, 45,        0,        0,   0,   0,   1.6,   0.8,   1.4,  0,  0,  0,  0,  0,  0,  0, 23,  0, 32,  0,  0,  0, 28, 36,  0,  0,  0,  0, 33, 38,  0,  0, 38,  0,  0, 22,  0,  0,  0,  0, 35
6, 3418, 4,KD0KZD,    -0.12, 3,   boost,   73.15,  97270.00,  343.15,    1.03,    2.17, 43.2, 4.00, 4.02, 4.04,  73.57,   0.26,  -0.91, -20.81,  -2.14,  -2.43,   0.42,   0.18,  -0.19,   0.50, 4.05, 0.00, 0.00, 0.02, 0.00, 1, 1, 11,  37.1657227, -97.7360642,   387.0, 2019,  9,  1, 22, 37, 45,        0,        0,   0,   0,   1.6,   0.8,   1.4,  0,  0,  0,  0,  0,  0,  0, 23,  0, 32,  0,  0,  0, 28, 36,  0,  0,  0,  0, 33, 38,  0,  0, 38,  0,  0, 22,  0,  0,  0,  0, 35
6, 3418, 4,KD0KZD,    -0.11, 3,   boost,   74.21,  97297.00,  340.83,   -1.29,    2.86, 43.2, 4.00, 4.02, 4.04,  84.36,   1.26,   0.43, -44.31,  -2.63,   0.07,   0.42,   0.18,  -0.19,   0.50, 4.05, 0.00, 0.00, 0.02, 0.00, 1, 1, 11,  37.1657227, -97.7360642,   387.0, 2019,  9,  1, 22, 37, 45,        0,        0,   0,   0,   1.6,   0.8,   1.4,  0,  0,  0,  0,  0,  0,  0, 23,  0, 32,  0,  0,  0, 28, 36,  0,  0,  0,  0, 33, 38,  0,  0, 38,  0,  0, 22,  0,  0,  0,  0, 35
6, 3418, 4,KD0KZD,    -0.10, 3,   boost,   77.92,  97298.00,  340.74,   -1.38,    3.61, 43.2, 4.00, 4.02, 4.04,  86.88,  -0.90,   0.34, -61.70,  -2.69,  -0.72,   0.42,   0.19,  -0.18,   0.50, 4.05, 0.00, 0.00, 0.02, 0.00, 1, 1, 11,  37.1657227, -97.7360642,   387.0, 2019,  9,  1, 22, 37, 45,        0,        0,   0,   0,   1.6,   0.8,   1.4,  0,  0,  0,  0,  0,  0,  0, 23,  0, 32,  0,  0,  0, 28, 36,  0,  0,  0,  0, 33, 38,  0,  0, 38,  0,  0, 22,  0,  0,  0,  0, 35
6, 3418, 4,KD0KZD,    -0.09, 3,   boost,   79.51,  97290.00,  341.43,   -0.69,    4.39, 43.2, 4.00, 4.02, 4.04,  90.40,   3.76,   2.38, -48.94,  -2.87,  -0.90,   0.42,   0.19,  -0.18,   0.50, 4.05, 0.00, 0.00, 0.02, 0.00, 1, 1, 11,  37.1657227, -97.7360642,   387.0, 2019,  9,  1, 22, 37, 45,        0,        0,   0,   0,   1.6,   0.8,   1.4,  0,  0,  0,  0,  0,  0,  0, 23,  0, 32,  0,  0,  0, 28, 36,  0,  0,  0,  0, 33, 38,  0,  0, 38,  0,  0, 22,  0,  0,  0,  0, 35
6, 3418, 4,KD0KZD,    -0.08, 3,   boost,   81.10,  97271.00,  343.07,    0.95,    5.18, 43.2, 4.00, 4.02, 4.04,  91.73,  -1.55,   1.58, -39.00,   0.49,  -1.82,   0.42,   0.19,  -0.18,   0.50, 4.05, 0.00, 0.00, 0.02, 0.00, 1, 1, 11,  37.1657227, -97.7360642,   387.0, 2019,  9,  1, 22, 37, 45,        0,        0,   0,   0,   1.6,   0.8,   1.4,  0,  0,  0,  0,  0,  0,  0, 23,  0, 32,  0,  0,  0, 28, 36,  0,  0,  0,  0, 33, 38,  0,  0, 38,  0,  0, 22,  0,  0,  0,  0, 35
6, 3418, 4,KD0KZD,    -0.07, 3,   boost,   83.75,  97274.00,  342.81,    0.69,    6.00, 43.2, 4.00, 4.02, 4.04,  92.47,  -0.57,   2.91, -37.41,   2.07,  -1.39,   0.42,   0.19,  -0.18,   0.50, 4.05, 0.00, 0.00, 0.02, 0.00, 1, 1, 11,  37.1657227, -97.7360642,   387.0, 2019,  9,  1, 22, 37, 45,        0,        0,   0,   0,   1.6,   0.8,   1.4,  0,  0,  0,  0,  0,  0,  0, 23,  0, 32,  0,  0,  0, 28, 36,  0,  0,  0,  0, 33, 38,  0,  0, 38,  0,  0, 22,  0,  0,  0,  0, 35
6, 3418, 4,KD0KZD,    -0.06, 3,   boost,   83.75,  97262.00,  343.84,    1.72,    6.82, 43.2, 4.00, 4.02, 4.04,  95.48,  -0.45,  -1.97, -47.30,   1.77,  -1.21,   0.42,   0.19,  -0.18,   0.50, 4.05, 0.00, 0.00, 0.02, 0.00, 1, 1, 11,  37.1657227, -97.7360642,   387.0, 2019,  9,  1, 22, 37, 45,        0,        0,   0,   0,   1.6,   0.8,   1.4,  0,  0,  0,  0,  0,  0,  0, 23,  0, 32,  0,  0,  0, 28, 36,  0,  0,  0,  0, 33, 38,  0,  0, 38,  0,  0, 22,  0,  0,  0,  0, 35
6, 3418, 4,KD0KZD,    -0.05, 3,   boost,   82.69,  97270.00,  343.15,    1.03,    7.64, 43.2, 4.00, 4.02, 4.04,  95.49,  -0.05,  -2.08, -45.34,   3.05,  -1.33,   0.42,   0.19,  -0.18,   0.50, 4.05, 0.00, 0.00, 0.02, 0.00, 1, 1, 11,  37.1657227, -97.7360642,   387.0, 2019,  9,  1, 22, 37, 45,        0,        0,   0,   0,   1.6,   0.8,   1.4,  0,  0,  0,  0,  0,  0,  0, 23,  0, 32,  0,  0,  0, 28, 36,  0,  0,  0,  0, 33, 38,  0,  0, 38,  0,  0, 22,  0,  0,  0,  0, 35
6, 3418, 4,KD0KZD,    -0.04, 3,   boost,   82.16,  97283.00,  342.03,   -0.09,    8.46, 43.2, 4.00, 4.02, 4.04,  94.65,   0.53,  -1.24, -33.68,   3.23,  -1.51,   0.42,   0.19,  -0.18,   0.50, 4.05, 0.00, 0.00, 0.02, 0.00, 1, 1, 11,  37.1657227, -97.7360642,   387.0, 2019,  9,  1, 22, 37, 45,        0,        0,   0,   0,   1.6,   0.8,   1.4,  0,  0,  0,  0,  0,  0,  0, 23,  0, 32,  0,  0,  0, 28, 36,  0,  0,  0,  0, 33, 38,  0,  0, 38,  0,  0, 22,  0,  0,  0,  0, 35
6, 3418, 4,KD0KZD,    -0.03, 3,   boost,   81.10,  97273.00,  342.89,    0.77,    9.28, 43.2, 4.00, 4.02, 4.04,  94.43,  -0.75,   1.57, -26.48,   1.16,  -1.21,   0.42,   0.19,  -0.18,   0.50, 4.05, 0.00, 0.00, 0.02, 0.00, 1, 1, 11,  37.1657227, -97.7360642,   387.0, 2019,  9,  1, 22, 37, 45,        0,        0,   0,   0,   1.6,   0.8,   1.4,  0,  0,  0,  0,  0,  0,  0, 23,  0, 32,  0,  0,  0, 28, 36,  0,  0,  0,  0, 33, 38,  0,  0, 38,  0,  0, 22,  0,  0,  0,  0, 35
6, 3418, 4,KD0KZD,    -0.02, 3,   boost,   80.04,  97255.00,  344.44,    2.32,   10.08, 43.2, 4.00, 4.02, 4.04,  93.09,  -0.33,  -3.25, -20.20,   1.10,  -2.43,   0.42,   0.20,  -0.18,   0.50, 4.05, 0.00, 0.00, 0.02, 0.00, 1, 1, 11,  37.1657227, -97.7360642,   387.0, 2019,  9,  1, 22, 37, 45,        0,        0,   0,   0,   1.6,   0.8,   1.4,  0,  0,  0,  0,  0,  0,  0, 23,  0, 32,  0,  0,  0, 28, 36,  0,  0,  0,  0, 33, 38,  0,  0, 38,  0,  0, 22,  0,  0,  0,  0, 35
6, 3418, 4,KD0KZD,    -0.01, 3,   boost,   78.98,  97260.00,  344.01,    1.89,   10.88, 43.2, 4.00, 4.02, 4.04,  92.11,   4.46,  -2.53, -37.53,   1.71,  -1.76,   0.42,   0.20,  -0.18,   0.50, 4.05, 0.00, 0.00, 0.02, 0.00, 1, 1, 11,  37.1657227, -97.7360642,   387.0, 2019,  9,  1, 22, 37, 45,        0,        0,   0,   0,   1.6,   0.8,   1.4,  0,  0,  0,  0,  0,  0,  0, 23,  0, 32,  0,  0,  0, 28, 36,  0,  0,  0,  0, 33, 38,  0,  0, 38,  0,  0, 22,  0,  0,  0,  0, 35
6, 3418, 4,KD0KZD,     0.00, 3,   boost,   78.45,  97268.00,  343.32,    1.20,   11.67, 43.2, 4.00, 4.02, 4.04,  91.47,  -2.66,  -0.81, -41.31,   1.10,  -1.09,   0.42,   0.20,  -0.18,   0.50, 4.05, 0.00, 0.00, 0.02, 0.00, 1, 1, 11,  37.1657227, -97.7360642,   387.0, 2019,  9,  1, 22, 37, 45,        0,        0,   0,   0,   1.6,   0.8,   1.4,  0,  0,  0,  0,  0,  0,  0, 23,  0, 32,  0,  0,  0, 28, 36,  0,  0,  0,  0, 33, 38,  0,  0, 38,  0,  0, 22,  0,  0,  0,  0, 35
6, 3418, 4,KD0KZD,     0.00, 3,   boost,   78.45,  97268.00,  343.32,    1.20,   11.67, 43.2, 4.00, 4.02, 4.04,  91.47,  -2.66,  -0.81, -41.31,   1.10,  -1.09,   0.42,   0.20,  -0.18,   0.50, 4.05, 0.00, 0.00, 0.02, 0.00, 1, 1, 11,  37.1657227, -97.7360642,   387.0, 2019,  9,  1, 22, 37, 45,        0,        0,   0,   0,   1.6,   0.8,   1.4,  0,  0,  0,  0,  0,  0,  0, 23,  0, 32,  0,  0,  0, 28, 36,  0,  0,  0,  0, 33, 38,  0,  0, 38,  0,  0, 22,  0,  0,  0,  0, 35
6, 3418, 4,KD0KZD,     0.00, 3,   boost,   78.45,  97268.00,  343.32,    1.20,   11.67, 43.2, 4.00, 4.02, 4.04,  91.47,  -2.66,  -0.81, -41.31,   1.10,  -1.09,   0.42,   0.20,  -0.18,   0.50, 4.05, 0.00, 0.00, 0.02, 0.00, 1, 1, 11,  37.1657227, -97.7360642,   387.0, 2019,  9,  1, 22, 37, 45,        0,        0,   0,   0,   1.6,   0.8,   1.4,  0,  0,  0,  0,  0,  0,  0, 23,  0, 32,  0,  0,  0, 28, 36,  0,  0,  0,  0, 33, 38,  0,  0, 38,  0,  0, 22,  0,  0,  0,  0, 35
6, 3418, 4,KD0KZD,     0.00, 3,   boost,   78.45,  97268.00,  343.32,    1.20,   11.67, 43.2, 4.00, 4.02, 4.04,  91.47,  -2.66,  -0.81, -41.31,   1.10,  -1.09,   0.42,   0.20,  -0.18,   0.50, 4.05, 0.00, 0.00, 0.02, 0.00, 1, 1, 11,  37.1657227, -97.7360642,   387.0, 2019,  9,  1, 22, 37, 45,        0,        0,   0,   0,   1.6,   0.8,   1.4,  0,  0,  0,  0,  0,  0,  0, 23,  0, 32,  0,  0,  0, 28, 36,  0,  0,  0,  0, 33, 38,  0,  0, 38,  0,  0, 22,  0,  0,  0,  0, 35
6, 3418, 4,KD0KZD,     0.00, 3,   boost,   78.45,  97268.00,  343.32,    1.20,   11.67, 43.2, 4.00, 4.02, 4.04,  91.47,  -2.66,  -0.81, -41.31,   1.10,  -1.09,   0.42,   0.20,  -0.18,   0.50, 4.05, 0.00, 0.00, 0.02, 0.00, 1, 1, 11,  37.1657227, -97.7360642,   387.0, 2019,  9,  1, 22, 37, 45,        0,        0,   0,   0,   1.6,   0.8,   1.4,  0,  0,  0,  0,  0,  0,  0, 23,  0, 32,  0,  0,  0, 28, 36,  0,  0,  0,  0, 33, 38,  0,  0, 38,  0,  0, 22,  0,  0,  0,  0, 35
6, 3418, 4,KD0KZD,     0.00, 3,   boost,   78.45,  97268.00,  343.32,    1.20,   11.67, 43.2, 4.00, 4.02, 4.04,  91.47,  -2.66,  -0.81, -41.31,   1.10,  -1.09,   0.42,   0.20,  -0.18,   0.50, 4.05, 0.00, 0.00, 0.02, 0.00, 1, 1, 11,  37.1657227, -97.7360642,   387.0, 2019,  9,  1, 22, 37, 45,        0,        0,   0,   0,   1.6,   0.8,   1.4,  0,  0,  0,  0,  0,  0,  0, 23,  0, 32,  0,  0,  0, 28, 36,  0,  0,  0,  0, 33, 38,  0,  0, 38,  0,  0, 22,  0,  0,  0,  0, 35
6, 3418, 4,KD0KZD,     0.00, 3,   boost,   78.45,  97268.00,  343.32,    1.20,   11.67, 43.2, 4.00, 4.02, 4.04,  91.47,  -2.66,  -0.81, -41.31,   1.10,  -1.09,   0.42,   0.20,  -0.18,   0.50, 4.05, 0.00, 0.00, 0.02, 0.00, 1, 1, 11,  37.1657227, -97.7360642,   387.0, 2019,  9,  1, 22, 37, 45,        0,        0,   0,   0,   1.6,   0.8,   1.4,  0,  0,  0,  0,  0,  0,  0, 23,  0, 32,  0,  0,  0, 28, 36,  0,  0,  0,  0, 33, 38,  0,  0, 38,  0,  0, 22,  0,  0,  0,  0, 35
6, 3418, 4,KD0KZD,     0.00, 3,   boost,   78.45,  97268.00,  343.32,    1.20,   11.67, 43.2, 4.00, 4.02, 4.04,  91.47,  -2.66,  -0.81, -41.31,   1.10,  -1.09,   0.42,   0.20,  -0.18,   0.50, 4.05, 0.00, 0.00, 0.02, 0.00, 1, 1, 11,  37.1657227, -97.7360642,   387.0, 2019,  9,  1, 22, 37, 45,        0,        0,   0,   0,   1.6,   0.8,   1.4,  0,  0,  0,  0,  0,  0,  0, 23,  0, 32,  0,  0,  0, 28, 36,  0,  0,  0,  0, 33, 38,  0,  0, 38,  0,  0, 22,  0,  0,  0,  0, 35
6, 3418, 4,KD0KZD,     0.00, 3,   boost,   78.45,  97268.00,  343.32,    1.20,   11.67, 43.2, 4.00, 4.02, 4.04,  91.47,  -2.66,  -0.81, -41.31,   1.10,  -1.09,   0.42,   0.20,  -0.18,   0.50, 4.05, 0.00, 0.00, 0.02, 0.00, 1, 1, 11,  37.1657227, -97.7360642,   387.0, 2019,  9,  1, 22, 37, 45,        0,        0,   0,   0,   1.6,   0.8,   1.4,  0,  0,  0,  0,  0,  0,  0, 23,  0, 32,  0,  0,  0, 28, 36,  0,  0,  0,  0, 33, 38,  0,  0, 38,  0,  0, 22,  0,  0,  0,  0, 35
6, 3418, 4,KD0KZD,     0.00, 3,   boost,   78.45,  97268.00,  343.32,    1.20,   11.67, 43.2, 4.00, 4.02, 4.04,  91.47,  -2.66,  -0.81, -41.31,   1.10,  -1.09,   0.42,   0.20,  -0.18,   0.49, 4.05, 0.00, 0.00, 0.02, 0.00, 1, 1, 11,  37.1657227, -97.7360642,   387.0, 2019,  9,  1, 22, 37, 45,        0,        0,   0,   0,   1.6,   0.8,   1.4,  0,  0,  0,  0,  0,  0,  0, 23,  0, 32,  0,  0,  0, 28, 36,  0,  0,  0,  0, 33, 38,  0,  0, 38,  0,  0, 22,  0,  0,  0,  0, 35
6, 3418, 4,KD0KZD,     0.00, 3,   boost,   78.45,  97268.00,  343.32,    1.20,   11.67, 43.2, 4.00, 4.02, 4.04,  91.47,  -2.66,  -0.81, -41.31,   1.10,  -1.09,   0.42,   0.20,  -0.18,   0.48, 4.05, 0.00, 0.00, 0.02, 0.00, 1, 1, 11,  37.1657227, -97.7360642,   387.0, 2019,  9,  1, 22, 37, 45,        0,        0,   0,   0,   1.6,   0.8,   1.4,  0,  0,  0,  0,  0,  0,  0, 23,  0, 32,  0,  0,  0, 28, 36,  0,  0,  0,  0, 33, 38,  0,  0, 38,  0,  0, 22,  0,  0,  0,  0, 35
6, 3418, 4,KD0KZD,     0.00, 3,   boost,   78.45,  97268.00,  343.32,    1.20,   11.67, 43.2, 4.00, 4.02, 4.04,  91.47,  -2.66,  -0.81, -41.31,   1.10,  -1.09,   0.42,   0.20,  -0.18,   0.48, 4.05, 0.00, 0.00, 0.02, 0.00, 1, 1, 11,  37.1657227, -97.7360642,   387.0, 2019,  9,  1, 22, 37, 45,        0,        0,   0,   0,   1.6,   0.8,   1.4,  0,  0,  0,  0,  0,  0,  0, 23,  0, 32,  0,  0,  0, 28, 36,  0,  0,  0,  0, 33, 38,  0,  0, 38,  0,  0, 22,  0,  0,  0,  0, 35
6, 3418, 4,KD0KZD,     0.00, 3,   boost,   78.45,  97268.00,  343.32,    1.20,   11.67, 43.2, 4.00, 4.02, 4.04,  91.47,  -2.66,  -0.81, -41.31,   1.10,  -1.09,   0.42,   0.20,  -0.18,   0.48, 4.05, 0.00, 0.00, 0.02, 0.00, 1, 1, 11,  37.1657227, -97.7360642,   387.0, 2019,  9,  1, 22, 37, 45,        0,        0,   0,   0,   1.6,   0.8,   1.4,  0,  0,  0,  0,  0,  0,  0, 23,  0, 32,  0,  0,  0, 28, 36,  0,  0,  0,  0, 33, 38,  0,  0, 38,  0,  0, 22,  0,  0,  0,  0, 35
6, 3418, 4,KD0KZD,     0.00, 3,   boost,   78.45,  97268.00,  343.32,    1.20,   11.67, 43.2, 4.00, 4.02, 4.04,  91.47,  -2.66,  -0.81, -41.31,   1.10,  -1.09,   0.42,   0.20,  -0.18,   0.48, 4.05, 0.00, 0.00, 0.02, 0.00, 1, 1, 11,  37.1657227, -97.7360642,   387.0, 2019,  9,  1, 22, 37, 45,        0,        0,   0,   0,   1.6,   0.8,   1.4,  0,  0,  0,  0,  0,  0,  0, 23,  0, 32,  0,  0,  0, 28, 36,  0,  0,  0,  0, 33, 38,  0,  0, 38,  0,  0, 22,  0,  0,  0,  0, 35
6, 3418, 4,KD0KZD,     0.00, 3,   boost,   78.45,  97268.00,  343.32,    1.20,   11.67, 43.2, 4.00, 4.02, 4.04,  91.47,  -2.66,  -0.81, -41.31,   1.10,  -1.09,   0.42,   0.20,  -0.18,   0.48, 4.05, 0.00, 0.00, 0.02, 0.00, 1, 1, 11,  37.1657227, -97.7360642,   387.0, 2019,  9,  1, 22, 37, 45,        0,        0,   0,   0,   1.6,   0.8,   1.4,  0,  0,  0,  0,  0,  0,  0, 23,  0, 32,  0,  0,  0, 28, 36,  0,  0,  0,  0, 33, 38,  0,  0, 38,  0,  0, 22,  0,  0,  0,  0, 35
6, 3418, 4,KD0KZD,     0.00, 3,   boost,   78.45,  97268.00,  343.32,    1.20,   11.67, 43.2, 4.00, 4.02, 4.04,  91.47,  -2.66,  -0.81, -41.31,   1.10,  -1.09,   0.42,   0.20,  -0.18,   0.47, 4.05, 0.00, 0.00, 0.02, 0.00, 1, 1, 11,  37.1657227, -97.7360642,   387.0, 2019,  9,  1, 22, 37, 45,        0,        0,   0,   0,   1.6,   0.8,   1.4,  0,  0,  0,  0,  0,  0,  0, 23,  0, 32,  0,  0,  0, 28, 36,  0,  0,  0,  0, 33, 38,  0,  0, 38,  0,  0, 22,  0,  0,  0,  0, 35
6, 3418, 4,KD0KZD,     0.00, 3,   boost,   78.45,  97268.00,  343.32,    1.20,   11.67, 43.2, 4.00, 4.02, 4.04,  91.47,  -2.66,  -0.81, -41.31,   1.10,  -1.09,   0.42,   0.20,  -0.18,   0.47, 4.05, 0.00, 0.00, 0.02, 0.00, 1, 1, 11,  37.1657227, -97.7360642,   387.0, 2019,  9,  1, 22, 37, 45,        0,        0,   0,   0,   1.6,   0.8,   1.4,  0,  0,  0,  0,  0,  0,  0, 23,  0, 32,  0,  0,  0, 28, 36,  0,  0,  0,  0, 33, 38,  0,  0, 38,  0,  0, 22,  0,  0,  0,  0, 35
6, 3418, 4,KD0KZD,     0.00, 3,   boost,   78.45,  97268.00,  343.32,    1.20,   11.67, 43.2, 4.00, 4.02, 4.04,  91.47,  -2.66,  -0.81, -41.31,   1.10,  -1.09,   0.42,   0.20,  -0.18,   0.47, 4.05, 0.00, 0.00, 0.02, 0.00, 1, 1, 11,  37.1657227, -97.7360642,   387.0, 2019,  9,  1, 22, 37, 45,        0,        0,   0,   0,   1.6,   0.8,   1.4,  0,  0,  0,  0,  0,  0,  0, 23,  0, 32,  0,  0,  0, 28, 36,  0,  0,  0,  0, 33, 38,  0,  0, 38,  0,  0, 22,  0,  0,  0,  0, 35
6, 3418, 4,KD0KZD,     0.00, 3,   boost,   78.45,  97268.00,  343.32,    1.20,   11.67, 43.2, 4.00, 4.02, 4.04,  91.47,  -2.66,  -0.81, -41.31,   1.10,  -1.09,   0.42,   0.20,  -0.18,   0.47, 4.05, 0.00, 0.00, 0.02, 0.00, 1, 1, 11,  37.1657227, -97.7360642,   387.0, 2019,  9,  1, 22, 37, 45,        0,        0,   0,   0,   1.6,   0.8,   1.4,  0,  0,  0,  0,  0,  0,  0, 23,  0, 32,  0,  0,  0, 28, 36,  0,  0,  0,  0, 33, 38,  0,  0, 38,  0,  0, 22,  0,  0,  0,  0, 35
6, 3418, 4,KD0KZD,     0.00, 3,   boost,   78.45,  97268.00,  343.32,    1.20,   11.67, 43.2, 4.00, 4.02, 4.04,  91.47,  -2.66,  -0.81, -41.31,   1.10,  -1.09,   0.42,   0.20,  -0.18,   0.47, 4.05, 0.00, 0.00, 0.02, 0.00, 1, 1, 11,  37.1657227, -97.7360642,   387.0, 2019,  9,  1, 22, 37, 45,        0,        0,   0,   0,   1.6,   0.8,   1.4,  0,  0,  0,  0,  0,  0,  0, 23,  0, 32,  0,  0,  0, 28, 36,  0,  0,  0,  0, 33, 38,  0,  0, 38,  0,  0, 22,  0,  0,  0,  0, 35
6, 3418, 4,KD0KZD,     0.00, 3,   boost,   78.45,  97268.00,  343.32,    1.20,   11.67, 43.2, 4.00, 4.02, 4.04,  91.47,  -2.66,  -0.81, -41.31,   1.10,  -1.09,   0.42,   0.20,  -0.18,   0.46, 4.05, 0.00, 0.00, 0.02, 0.00, 1, 1, 11,  37.1657227, -97.7360642,   387.0, 2019,  9,  1, 22, 37, 45,        0,        0,   0,   0,   1.6,   0.8,   1.4,  0,  0,  0,  0,  0,  0,  0, 23,  0, 32,  0,  0,  0, 28, 36,  0,  0,  0,  0, 33, 38,  0,  0, 38,  0,  0, 22,  0,  0,  0,  0, 35
6, 3418, 4,KD0KZD,     0.00, 3,   boost,   78.45,  97268.00,  343.32,    1.20,   11.67, 43.2, 4.00, 4.02, 4.04,  91.47,  -2.66,  -0.81, -41.31,   1.10,  -1.09,   0.42,   0.20,  -0.18,   0.44, 4.05, 0.00, 0.00, 0.02, 0.00, 1, 1, 11,  37.1657227, -97.7360642,   387.0, 2019,  9,  1, 22, 37, 45,        0,        0,   0,   0,   1.6,   0.8,   1.4,  0,  0,  0,  0,  0,  0,  0, 23,  0, 32,  0,  0,  0, 28, 36,  0,  0,  0,  0, 33, 38,  0,  0, 38,  0,  0, 22,  0,  0,  0,  0, 35
6, 3418, 4,KD0KZD,     0.00, 3,   boost,   78.45,  97268.00,  343.32,    1.20,   11.67, 43.2, 4.00, 4.02, 4.04,  91.47,  -2.66,  -0.81, -41.31,   1.10,  -1.09,   0.42,   0.20,  -0.18,   0.41, 4.05, 0.00, 0.00, 0.02, 0.00, 1, 1, 11,  37.1657227, -97.7360642,   387.0, 2019,  9,  1, 22, 37, 45,        0,        0,   0,   0,   1.6,   0.8,   1.4,  0,  0,  0,  0,  0,  0,  0, 23,  0, 32,  0,  0,  0, 28, 36,  0,  0,  0,  0, 33, 38,  0,  0, 38,  0,  0, 22,  0,  0,  0,  0, 35
6, 3418, 4,KD0KZD,     0.00, 3,   boost,   78.45,  97268.00,  343.32,    1.20,   11.67, 43.2, 4.00, 4.02, 4.04,  91.47,  -2.66,  -0.81, -41.31,   1.10,  -1.09,   0.42,   0.20,  -0.18,   0.39, 4.05, 0.00, 0.00, 0.02, 0.00, 1, 1, 11,  37.1657227, -97.7360642,   387.0, 2019,  9,  1, 22, 37, 45,        0,        0,   0,   0,   1.6,   0.8,   1.4,  0,  0,  0,  0,  0,  0,  0, 23,  0, 32,  0,  0,  0, 28, 36,  0,  0,  0,  0, 33, 38,  0,  0, 38,  0,  0, 22,  0,  0,  0,  0, 35
6, 3418, 4,KD0KZD,     0.00, 3,   boost,   78.45,  97268.00,  343.32,    1.20,   11.67, 43.2, 4.00, 4.02, 4.04,  91.47,  -2.66,  -0.81, -41.31,   1.10,  -1.09,   0.42,   0.20,  -0.18,   0.36, 4.05, 0.00, 0.00, 0.02, 0.00, 1, 1, 11,  37.1657227, -97.7360642,   387.0, 2019,  9,  1, 22, 37, 45,        0,        0,   0,   0,   1.6,   0.8,   1.4,  0,  0,  0,  0,  0,  0,  0, 23,  0, 32,  0,  0,  0, 28, 36,  0,  0,  0,  0, 33, 38,  0,  0, 38,  0,  0, 22,  0,  0,  0,  0, 35
6, 3418, 4,KD0KZD,     0.00, 3,   boost,   78.45,  97268.00,  343.32,    1.20,   11.67, 43.2, 4.00, 4.02, 4.04,  91.47,  -2.66,  -0.81, -41.31,   1.10,  -1.09,   0.42,   0.20,  -0.18,   0.33, 4.05, 0.00, 0.00, 0.02, 0.00, 1, 1, 11,  37.1657227, -97.7360642,   387.0, 2019,  9,  1, 22, 37, 45,        0,        0,   0,   0,   1.6,   0.8,   1.4,  0,  0,  0,  0,  0,  0,  0, 23,  0, 32,  0,  0,  0, 28, 36,  0,  0,  0,  0, 33, 38,  0,  0, 38,  0,  0, 22,  0,  0,  0,  0, 35
6, 3418, 4,KD0KZD,     0.00, 3,   boost,   78.45,  97268.00,  343.32,    1.20,   11.67, 43.2, 4.00, 4.02, 4.04,  91.47,  -2.66,  -0.81, -41.31,   1.10,  -1.09,   0.42,   0.20,  -0.18,   0.32, 4.05, 0.00, 0.00, 0.02, 0.00, 1, 1, 11,  37.1657227, -97.7360642,   387.0, 2019,  9,  1, 22, 37, 45,        0,        0,   0,   0,   1.6,   0.8,   1.4,  0,  0,  0,  0,  0,  0,  0, 23,  0, 32,  0,  0,  0, 28, 36,  0,  0,  0,  0, 33, 38,  0,  0, 38,  0,  0, 22,  0,  0,  0,  0, 35
6, 3418, 4,KD0KZD,     0.00, 3,   boost,   78.45,  97268.00,  343.32,    1.20,   11.67, 43.2, 4.00, 4.02, 4.04,  91.47,  -2.66,  -0.81, -41.31,   1.10,  -1.09,   0.42,   0.20,  -0.18,   0.34, 4.05, 0.00, 0.00, 0.02, 0.00, 1, 1, 11,  37.1657227, -97.7360642,   387.0, 2019,  9,  1, 22, 37, 45,        0,        0,   0,   0,   1.6,   0.8,   1.4,  0,  0,  0,  0,  0,  0,  0, 23,  0, 32,  0,  0,  0, 28, 36,  0,  0,  0,  0, 33, 38,  0,  0, 38,  0,  0, 22,  0,  0,  0,  0, 35
6, 3418, 4,KD0KZD,     0.00, 3,   boost,   78.45,  97268.00,  343.32,    1.20,   11.67, 43.2, 4.00, 4.02, 4.04,  91.47,  -2.66,  -0.81, -41.31,   1.10,  -1.09,   0.42,   0.20,  -0.18,   0.35, 4.05, 0.00, 0.00, 0.02, 0.00, 1, 1, 11,  37.1657227, -97.7360642,   387.0, 2019,  9,  1, 22, 37, 45,        0,        0,   0,   0,   1.6,   0.8,   1.4,  0,  0,  0,  0,  0,  0,  0, 23,  0, 32,  0,  0,  0, 28, 36,  0,  0,  0,  0, 33, 38,  0,  0, 38,  0,  0, 22,  0,  0,  0,  0, 35
6, 3418, 4,KD0KZD,     0.00, 3,   boost,   78.45,  97268.00,  343.32,    1.20,   11.67, 43.2, 4.00, 4.02, 4.04,  91.47,  -2.66,  -0.81, -41.31,   1.10,  -1.09,   0.42,   0.20,  -0.18,   0.38, 4.05, 0.00, 0.00, 0.02, 0.00, 1, 1, 11,  37.1657227, -97.7360642,   387.0, 2019,  9,  1, 22, 37, 45,        0,        0,   0,   0,   1.6,   0.8,   1.4,  0,  0,  0,  0,  0,  0,  0, 23,  0, 32,  0,  0,  0, 28, 36,  0,  0,  0,  0, 33, 38,  0,  0, 38,  0,  0, 22,  0,  0,  0,  0, 35
6, 3418, 4,KD0KZD,     0.00, 3,   boost,   78.45,  97268.00,  343.32,    1.20,   11.67, 43.2, 4.00, 4.02, 4.04,  91.47,  -2.66,  -0.81, -41.31,   1.10,  -1.09,   0.42,   0.20,  -0.18,   0.41, 4.05, 0.00, 0.00, 0.02, 0.00, 1, 1, 11,  37.1657227, -97.7360642,   387.0, 2019,  9,  1, 22, 37, 45,        0,        0,   0,   0,   1.6,   0.8,   1.4,  0,  0,  0,  0,  0,  0,  0, 23,  0, 32,  0,  0,  0, 28, 36,  0,  0,  0,  0, 33, 38,  0,  0, 38,  0,  0, 22,  0,  0,  0,  0, 35
6, 3418, 4,KD0KZD,     0.00, 3,   boost,   78.45,  97268.00,  343.32,    1.20,   11.67, 43.2, 4.00, 4.02, 4.04,  91.47,  -2.66,  -0.81, -41.31,   1.10,  -1.09,   0.42,   0.20,  -0.18,   0.42, 4.05, 0.00, 0.00, 0.02, 0.00, 1, 1, 11,  37.1657227, -97.7360642,   387.0, 2019,  9,  1, 22, 37, 45,        0,        0,   0,   0,   1.6,   0.8,   1.4,  0,  0,  0,  0,  0,  0,  0, 23,  0, 32,  0,  0,  0, 28, 36,  0,  0,  0,  0, 33, 38,  0,  0, 38,  0,  0, 22,  0,  0,  0,  0, 35
6, 3418, 4,KD0KZD,     0.00, 3,   boost,   78.45,  97268.00,  343.32,    1.20,   11.67, 43.2, 4.00, 4.02, 4.04,  91.47,  -2.66,  -0.81, -41.31,   1.10,  -1.09,   0.42,   0.20,  -0.18,   0.43, 4.05, 0.00, 0.00, 0.02, 0.00, 1, 1, 11,  37.1657227, -97.7360642,   387.0, 2019,  9,  1, 22, 37, 45,        0,        0,   0,   0,   1.6,   0.8,   1.4,  0,  0,  0,  0,  0,  0,  0, 23,  0, 32,  0,  0,  0, 28, 36,  0,  0,  0,  0, 33, 38,  0,  0, 38,  0,  0, 22,  0,  0,  0,  0, 35
6, 3418, 4,KD0KZD,     0.00, 3,   boost,   78.45,  97268.00,  343.32,    1.20,   11.67, 43.2, 4.00, 4.02, 4.04,  91.47,  -2.66,  -0.81, -41.31,   1.10,  -1.09,   0.42,   0.20,  -0.18,   0.44, 4.05, 0.00, 0.00, 0.02, 0.00, 1, 1, 11,  37.1657227, -97.7360642,   387.0, 2019,  9,  1, 22, 37, 45,        0,        0,   0,   0,   1.6,   0.8,   1.4,  0,  0,  0,  0,  0,  0,  0, 23,  0, 32,  0,  0,  0, 28, 36,  0,  0,  0,  0, 33, 38,  0,  0, 38,  0,  0, 22,  0,  0,  0,  0, 35
6, 3418, 4,KD0KZD,     0.00, 3,   boost,   78.45,  97268.00,  343.32,    1.20,   11.67, 43.2, 4.00, 4.02, 4.04,  91.47,  -2.66,  -0.81, -41.31,   1.10,  -1.09,   0.42,   0.20,  -0.18,   0.46, 4.05, 0.00, 0.00, 0.02, 0.00, 1, 1, 11,  37.1657227, -97.7360642,   387.0, 2019,  9,  1, 22, 37, 45,        0,        0,   0,   0,   1.6,   0.8,   1.4,  0,  0,  0,  0,  0,  0,  0, 23,  0, 32,  0,  0,  0, 28, 36,  0,  0,  0,  0, 33, 38,  0,  0, 38,  0,  0, 22,  0,  0,  0,  0, 35
6, 3418, 4,KD0KZD,     0.01, 3,   boost,   78.45,  97254.00,  344.53,    2.41,   12.46, 43.2, 4.00, 4.02, 4.04,  90.76,  -0.14,   2.15, -36.68,  -0.25,  -1.58,   0.42,   0.20,  -0.17,   0.45, 4.05, 0.00, 0.00, 0.02, 0.00, 1, 1, 11,  37.1657227, -97.7360642,   387.0, 2019,  9,  1, 22, 37, 45,        0,        0,   0,   0,   1.6,   0.8,   1.4,  0,  0,  0,  0,  0,  0,  0, 23,  0, 32,  0,  0,  0, 28, 36,  0,  0,  0,  0, 33, 38,  0,  0, 38,  0,  0, 22,  0,  0,  0,  0, 35
6, 3418, 4,KD0KZD,     0.01, 3,   boost,   78.45,  97254.00,  344.53,    2.41,   12.46, 43.2, 4.00, 4.02, 4.04,  90.76,  -0.14,   2.15, -36.68,  -0.25,  -1.58,   0.42,   0.20,  -0.17,   0.45, 4.05, 0.00, 0.00, 0.02, 0.00, 1, 1, 11,  37.1657227, -97.7360642,   387.0, 2019,  9,  1, 22, 37, 45,        0,        0,   0,   0,   1.6,   0.8,   1.4,  0,  0,  0,  0,  0,  0,  0, 23,  0, 32,  0,  0,  0, 28, 36,  0,  0,  0,  0, 33, 38,  0,  0, 38,  0,  0, 22,  0,  0,  0,  0, 35
6, 3418, 4,KD0KZD,     0.02, 3,   boost,   77.39,  97268.00,  343.32,    1.20,   13.23, 43.2, 4.00, 4.01, 4.03,  90.07,   1.11,  -2.40, -27.52,   0.30,  -1.70,   0.42,   0.20,  -0.15,   0.46, 4.03, 0.00, 0.00, 0.01, 0.00, 1, 1, 11,  37.1657227, -97.7360642,   387.0, 2019,  9,  1, 22, 37, 45,        0,        0,   0,   0,   1.6,   0.8,   1.4,  0,  0,  0,  0,  0,  0,  0, 23,  0, 32,  0,  0,  0, 28, 36,  0,  0,  0,  0, 33, 38,  0,  0, 38,  0,  0, 22,  0,  0,  0,  0, 35
6, 3418, 4,KD0KZD,     0.02, 3,   boost,   77.39,  97268.00,  343.32,    1.20,   13.23, 43.2, 4.00, 4.01, 4.03,  90.07,   1.11,  -2.40, -27.52,   0.30,  -1.70,   0.42,   0.20,  -0.15,   0.46, 4.03, 0.00, 0.00, 0.01, 0.00, 1, 1, 11,  37.1657227, -97.7360642,   387.0, 2019,  9,  1, 22, 37, 45,        0,        0,   0,   0,   1.6,   0.8,   1.4,  0,  0,  0,  0,  0,  0,  0, 23,  0, 32,  0,  0,  0, 28, 36,  0,  0,  0,  0, 33, 38,  0,  0, 38,  0,  0, 22,  0,  0,  0,  0, 35
6, 3418, 4,KD0KZD,     0.03, 3,   boost,   76.33,  97275.00,  342.72,    0.60,   14.01, 43.2, 4.00, 4.01, 4.03,  89.83,   0.74,   2.28, -27.76,  -0.00,  -0.29,   0.42,   0.20,  -0.18,   0.46, 4.03, 0.00, 0.00, 0.01, 0.00, 1, 1, 11,  37.1657227, -97.7360642,   387.0, 2019,  9,  1, 22, 37, 45,        0,        0,   0,   0,   1.6,   0.8,   1.4,  0,  0,  0,  0,  0,  0,  0, 23,  0, 32,  0,  0,  0, 28, 36,  0,  0,  0,  0, 33, 38,  0,  0, 38,  0,  0, 22,  0,  0,  0,  0, 35
6, 3418, 4,KD0KZD,     0.04, 3,   boost,   76.86,  97244.00,  345.39,    3.27,   14.78, 43.2, 4.00, 4.01, 4.03,  88.65,   0.87,  -2.15, -33.32,   0.61,   1.66,   0.42,   0.19,  -0.17,   0.46, 4.03, 0.00, 0.00, 0.01, 0.00, 1, 1, 11,  37.1657227, -97.7360642,   387.0, 2019,  9,  1, 22, 37, 45,        0,        0,   0,   0,   1.6,   0.8,   1.4,  0,  0,  0,  0,  0,  0,  0, 23,  0, 32,  0,  0,  0, 28, 36,  0,  0,  0,  0, 33, 38,  0,  0, 38,  0,  0, 22,  0,  0,  0,  0, 35
6, 3418, 4,KD0KZD,     0.05, 3,   boost,   76.86,  97250.00,  344.87,    2.75,   15.54, 43.2, 4.00, 4.01, 4.03,  88.26,  -4.29,   2.26, -38.75,   1.34,  -0.05,   0.42,   0.20,  -0.16,   0.48, 4.03, 0.00, 0.00, 0.01, 0.00, 1, 1, 11,  37.1657227, -97.7360642,   387.0, 2019,  9,  1, 22, 37, 45,        0,        0,   0,   0,   1.6,   0.8,   1.4,  0,  0,  0,  0,  0,  0,  0, 23,  0, 32,  0,  0,  0, 28, 36,  0,  0,  0,  0, 33, 38,  0,  0, 38,  0,  0, 22,  0,  0,  0,  0, 35
6, 3418, 4,KD0KZD,     0.06, 3,   boost,   75.27,  97261.00,  343.93,    1.81,   16.30, 43.2, 4.00, 4.01, 4.03,  88.25,   3.97,   1.59, -43.27,   0.79,   0.32,   0.42,   0.20,  -0.16,   0.48, 4.03, 0.00, 0.00, 0.01, 0.00, 1, 1, 11,  37.1657227, -97.7360642,   387.0, 2019,  9,  1, 22, 37, 45,        0,        0,   0,   0,   1.6,   0.8,   1.4,  0,  0,  0,  0,  0,  0,  0, 23,  0, 32,  0,  0,  0, 28, 36,  0,  0,  0,  0, 33, 38,  0,  0, 38,  0,  0, 22,  0,  0,  0,  0, 35
6, 3418, 4,KD0KZD,     0.07, 3,   boost,   75.80,  97266.00,  343.50,    1.38,   17.06, 43.2, 4.00, 4.01, 4.03,  87.27,   0.32,  -6.34, -54.74,   2.13,   2.45,   0.42,   0.20,  -0.17,   0.50, 4.03, 0.00, 0.00, 0.01, 0.00, 1, 1, 11,  37.1657227, -97.7360642,   387.0, 2019,  9,  1, 22, 37, 45,        0,        0,   0,   0,   1.6,   0.8,   1.4,  0,  0,  0,  0,  0,  0,  0, 23,  0, 32,  0,  0,  0, 28, 36,  0,  0,  0,  0, 33, 38,  0,  0, 38,  0,  0, 22,  0,  0,  0,  0, 35
6, 3418, 4,KD0KZD,     0.08, 3,   boost,   75.80,  97254.00,  344.53,    2.41,   17.82, 43.2, 4.00, 4.01, 4.03,  87.16,  -1.14,  -0.23, -65.24,   3.29,   1.48,   0.42,   0.20,  -0.17,   0.54, 4.03, 0.00, 0.00, 0.01, 0.00, 1, 1, 11,  37.1657227, -97.7360642,   387.0, 2019,  9,  1, 22, 37, 45,        0,        0,   0,   0,   1.6,   0.8,   1.4,  0,  0,  0,  0,  0,  0,  0, 23,  0, 32,  0,  0,  0, 28, 36,  0,  0,  0,  0, 33, 38,  0,  0, 38,  0,  0, 22,  0,  0,  0,  0, 35
6, 3418, 4,KD0KZD,     0.09, 3,   boost,   74.74,  97253.00,  344.61,    2.50,   18.57, 43.2, 4.00, 4.01, 4.03,  88.13,   0.61,   3.27, -81.90,   3.35,   0.44,   0.42,   0.21,  -0.16,   0.57, 4.03, 0.00, 0.00, 0.01, 0.00, 1, 1, 11,  37.1657227, -97.7360642,   387.0, 2019,  9,  1, 22, 37, 45,        0,        0,   0,   0,   1.6,   0.8,   1.4,  0,  0,  0,  0,  0,  0,  0, 23,  0, 32,  0,  0,  0, 28, 36,  0,  0,  0,  0, 33, 38,  0,  0, 38,  0,  0, 22,  0,  0,  0,  0, 35
6, 3418, 4,KD0KZD,     0.10, 3,   boost,   74.74,  97264.00,  343.67,    1.55,   19.32, 43.2, 4.00, 4.01, 4.03,  87.45,   1.53,  -0.65, -77.63,   5.06,   2.27,   0.42,   0.21,  -0.17,   0.62, 4.03, 0.00, 0.00, 0.01, 0.00, 1, 1, 11,  37.1657227, -97.7360642,   387.0, 2019,  9,  1, 22, 37, 45,        0,        0,   0,   0,   1.6,   0.8,   1.4,  0,  0,  0,  0,  0,  0,  0, 23,  0, 32,  0,  0,  0, 28, 36,  0,  0,  0,  0, 33, 38,  0,  0, 38,  0,  0, 22,  0,  0,  0,  0, 35
6, 3418, 4,KD0KZD,     0.11, 3,   boost,   74.74,  97253.00,  344.61,    2.50,   20.07, 43.2, 4.00, 4.01, 4.03,  86.58,  -5.40,   4.90, -34.42,   4.45,   2.82,   0.42,   0.21,  -0.16,   0.66, 4.03, 0.00, 0.00, 0.01, 0.00, 1, 1, 11,  37.1657227, -97.7360642,   387.0, 2019,  9,  1, 22, 37, 45,        0,        0,   0,   0,   1.6,   0.8,   1.4,  0,  0,  0,  0,  0,  0,  0, 23,  0, 32,  0,  0,  0, 28, 36,  0,  0,  0,  0, 33, 38,  0,  0, 38,  0,  0, 22,  0,  0,  0,  0, 35
6, 3418, 4,KD0KZD,     0.12, 3,   boost,   74.74,  97267.00,  343.41,    1.29,   20.82, 43.2, 4.00, 4.01, 4.03,  86.55,   6.99,   7.80, -25.69,   0.91,   2.64,   0.42,   0.22,  -0.16,   0.67, 4.03, 0.00, 0.00, 0.01, 0.00, 1, 1, 11,  37.1657227, -97.7360642,   387.0, 2019,  9,  1, 22, 37, 45,        0,        0,   0,   0,   1.6,   0.8,   1.4,  0,  0,  0,  0,  0,  0,  0, 23,  0, 32,  0,  0,  0, 28, 36,  0,  0,  0,  0, 33, 38,  0,  0, 38,  0,  0, 22,  0,  0,  0,  0, 35
6, 3418, 4,KD0KZD,     0.13, 3,   boost,   74.74,  97221.00,  347.37,    5.25,   21.56, 43.2, 4.00, 4.01, 4.03,  86.41,  -5.23, -10.68, -57.73,   4.88,   2.03,   0.42,   0.21,  -0.16,   0.72, 4.03, 0.00, 0.00, 0.01, 0.00, 1, 1, 11,  37.1657227, -97.7360642,   387.0, 2019,  9,  1, 22, 37, 45,        0,        0,   0,   0,   1.6,   0.8,   1.4,  0,  0,  0,  0,  0,  0,  0, 23,  0, 32,  0,  0,  0, 28, 36,  0,  0,  0,  0, 33, 38,  0,  0, 38,  0,  0, 22,  0,  0,  0,  0, 35
6, 3418, 4,KD0KZD,     0.14, 3,   boost,   74.74,  97269.00,  343.24,    1.12,   22.31, 43.2, 4.00, 4.01, 4.03,  87.36,  -4.43,  -0.58, -36.00,   5.19,   2.21,   0.42,   0.21,  -0.17,   0.78, 4.03, 0.00, 0.00, 0.01, 0.00, 1, 1, 11,  37.1657227, -97.7360642,   387.0, 2019,  9,  1, 22, 37, 45,        0,        0,   0,   0,   1.6,   0.8,   1.4,  0,  0,  0,  0,  0,  0,  0, 23,  0, 32,  0,  0,  0, 28, 36,  0,  0,  0,  0, 33, 38,  0,  0, 38,  0,  0, 22,  0,  0,  0,  0, 35
6, 3418, 4,KD0KZD,     0.15, 3,   boost,   74.21,  97258.00,  344.18,    2.06,   23.06, 43.2, 4.00, 4.01, 4.03,  86.60,  -3.31,   3.14, -29.41,   3.90,   1.23,   0.42,   0.22,  -0.16,   0.82, 4.03, 0.00, 0.00, 0.01, 0.00, 1, 1, 11,  37.1657227, -97.7360642,   387.0, 2019,  9,  1, 22, 37, 45,        0,        0,   0,   0,   1.6,   0.8,   1.4,  0,  0,  0,  0,  0,  0,  0, 23,  0, 32,  0,  0,  0, 28, 36,  0,  0,  0,  0, 33, 38,  0,  0, 38,  0,  0, 22,  0,  0,  0,  0, 35
6, 3418, 4,KD0KZD,     0.16, 3,   boost,   74.74,  97228.00,  346.77,    4.65,   23.80, 43.2, 4.00, 4.01, 4.03,  87.75,   4.04,   1.43, -40.09,   0.24,   3.73,   0.42,   0.21,  -0.16,   0.82, 4.03, 0.00, 0.00, 0.01, 0.00, 1, 1, 11,  37.1657227, -97.7360642,   387.0, 2019,  9,  1, 22, 37, 45,        0,        0,   0,   0,   1.6,   0.8,   1.4,  0,  0,  0,  0,  0,  0,  0, 23,  0, 32,  0,  0,  0, 28, 36,  0,  0,  0,  0, 33, 38,  0,  0, 38,  0,  0, 22,  0,  0,  0,  0, 35
6, 3418, 4,KD0KZD,     0.17, 3,   boost,   74.74,  97258.00,  344.18,    2.06,   24.55, 43.2, 4.00, 4.01, 4.03,  87.48,  -1.61,  -1.63, -29.41,   5.19,   5.20,   0.42,   0.22,  -0.16,   0.88, 4.03, 0.00, 0.00, 0.01, 0.00, 1, 1, 11,  37.1657227, -97.7360642,   387.0, 2019,  9,  1, 22, 37, 45,        0,        0,   0,   0,   1.6,   0.8,   1.4,  0,  0,  0,  0,  0,  0,  0, 23,  0, 32,  0,  0,  0, 28, 36,  0,  0,  0,  0, 33, 38,  0,  0, 38,  0,  0, 22,  0,  0,  0,  0, 35
6, 3418, 4,KD0KZD,     0.18, 3,   boost,   74.74,  97215.00,  347.89,    5.77,   25.30, 43.2, 4.00, 4.01, 4.03,  86.87,  -1.86,   6.96, -26.18,   4.70,   4.65,   0.42,   0.22,  -0.16,   0.94, 4.03, 0.00, 0.00, 0.01, 0.00, 1, 1, 11,  37.1657227, -97.7360642,   387.0, 2019,  9,  1, 22, 37, 45,        0,        0,   0,   0,   1.6,   0.8,   1.4,  0,  0,  0,  0,  0,  0,  0, 23,  0, 32,  0,  0,  0, 28, 36,  0,  0,  0,  0, 33, 38,  0,  0, 38,  0,  0, 22,  0,  0,  0,  0, 35
6, 3418, 4,KD0KZD,     0.19, 3,   boost,   75.27,  97236.00,  346.08,    3.96,   26.04, 43.2, 4.00, 4.01, 4.03,  86.82,  -1.21,   0.99, -29.90,   2.19,   1.78,   0.42,   0.22,  -0.16,   0.96, 4.03, 0.00, 0.00, 0.01, 0.00, 1, 1, 11,  37.1657227, -97.7360642,   387.0, 2019,  9,  1, 22, 37, 45,        0,        0,   0,   0,   1.6,   0.8,   1.4,  0,  0,  0,  0,  0,  0,  0, 23,  0, 32,  0,  0,  0, 28, 36,  0,  0,  0,  0, 33, 38,  0,  0, 38,  0,  0, 22,  0,  0,  0,  0, 35
6, 3418, 4,KD0KZD,     0.20, 3,   boost,   74.74,  97233.00,  346.34,    4.22,   26.79, 43.2, 4.00, 4.01, 4.03,  87.14,   1.04,  -4.49, -32.28,   3.35,   1.78,   0.42,   0.22,  -0.16,   1.00, 4.03, 0.00, 0.00, 0.01, 0.00, 1, 1, 11,  37.1657227, -97.7360642,   387.0, 2019,  9,  1, 22, 37, 45,        0,        0,   0,   0,   1.6,   0.8,   1.4,  0,  0,  0,  0,  0,  0,  0, 23,  0, 32,  0,  0,  0, 28, 36,  0,  0,  0,  0, 33, 38,  0,  0, 38,  0,  0, 22,  0,  0,  0,  0, 35
6, 3418, 4,KD0KZD,     0.21, 3,   boost,   74.21,  97233.00,  346.34,    4.22,   27.54, 43.2, 4.00, 4.01, 4.03,  87.09,  -0.65,   1.92, -31.91,   4.21,   3.25,   0.42,   0.22,  -0.16,   1.05, 4.03, 0.00, 0.00, 0.01, 0.00, 1, 1, 11,  37.1657227, -97.7360642,   387.0, 2019,  9,  1, 22, 37, 45,        0,        0,   0,   0,   1.6,   0.8,   1.4,  0,  0,  0,  0,  0,  0,  0, 23,  0, 32,  0,  0,  0, 28, 36,  0,  0,  0,  0, 33, 38,  0,  0, 38,  0,  0, 22,  0,  0,  0,  0, 35
6, 3418, 4,KD0KZD,     0.22, 3,   boost,   74.21,  97221.00,  347.37,    5.25,   28.28, 43.2, 4.00, 4.01, 4.03,  86.67,  -1.78,   2.39, -32.83,   3.17,   2.39,   0.42,   0.23,  -0.16,   1.09, 4.03, 0.00, 0.00, 0.01, 0.00, 1, 1, 11,  37.1657227, -97.7360642,   387.0, 2019,  9,  1, 22, 37, 45,        0,        0,   0,   0,   1.6,   0.8,   1.4,  0,  0,  0,  0,  0,  0,  0, 23,  0, 32,  0,  0,  0, 28, 36,  0,  0,  0,  0, 33, 38,  0,  0, 38,  0,  0, 22,  0,  0,  0,  0, 35
6, 3418, 4,KD0KZD,     0.23, 3,   boost,   74.74,  97218.00,  347.63,    5.51,   29.03, 43.2, 4.00, 4.01, 4.03,  86.69,  -1.22,  -2.45, -35.03,   2.26,   0.38,   0.42,   0.23,  -0.16,   1.11, 4.03, 0.00, 0.00, 0.01, 0.00, 1, 1, 11,  37.1657227, -97.7360642,   387.0, 2019,  9,  1, 22, 37, 45,        0,        0,   0,   0,   1.6,   0.8,   1.4,  0,  0,  0,  0,  0,  0,  0, 23,  0, 32,  0,  0,  0, 28, 36,  0,  0,  0,  0, 33, 38,  0,  0, 38,  0,  0, 22,  0,  0,  0,  0, 35
6, 3418, 4,KD0KZD,     0.24, 3,   boost,   74.74,  97229.00,  346.68,    4.56,   29.77, 43.2, 4.00, 4.01, 4.03,  86.91,   0.87,  -0.68, -34.84,   3.17,   0.07,   0.42,   0.22,  -0.16,   1.14, 4.03, 0.00, 0.00, 0.01, 0.00, 1, 1, 11,  37.1657227, -97.7360642,   387.0, 2019,  9,  1, 22, 37, 45,        0,        0,   0,   0,   1.6,   0.8,   1.4,  0,  0,  0,  0,  0,  0,  0, 23,  0, 32,  0,  0,  0, 28, 36,  0,  0,  0,  0, 33, 38,  0,  0, 38,  0,  0, 22,  0,  0,  0,  0, 35
6, 3418, 4,KD0KZD,     0.25, 3,   boost,   74.74,  97216.00,  347.80,    5.68,   30.52, 43.2, 4.00, 4.01, 4.03,  86.80,  -1.15,   2.67, -35.82,   3.29,   0.74,   0.42,   0.22,  -0.16,   1.17, 4.03, 0.00, 0.00, 0.01, 0.00, 1, 1, 11,  37.1657227, -97.7360642,   387.0, 2019,  9,  1, 22, 37, 45,        0,        0,   0,   0,   1.6,   0.8,   1.4,  0,  0,  0,  0,  0,  0,  0, 23,  0, 32,  0,  0,  0, 28, 36,  0,  0,  0,  0, 33, 38,  0,  0, 38,  0,  0, 22,  0,  0,  0,  0, 35
6, 3418, 4,KD0KZD,     0.26, 3,   boost,   75.27,  97191.00,  349.95,    7.83,   31.27, 43.2, 4.00, 4.01, 4.03,  86.81,  -1.43,  -0.62, -36.92,   1.89,   0.19,   0.42,   0.23,  -0.15,   1.19, 4.03, 0.00, 0.00, 0.01, 0.00, 1, 1, 11,  37.1657227, -97.7360642,   387.0, 2019,  9,  1, 22, 37, 45,        0,        0,   0,   0,   1.6,   0.8,   1.4,  0,  0,  0,  0,  0,  0,  0, 23,  0, 32,  0,  0,  0, 28, 36,  0,  0,  0,  0, 33, 38,  0,  0, 38,  0,  0, 22,  0,  0,  0,  0, 35
6, 3418, 4,KD0KZD,     0.27, 3,   boost,   74.74,  97203.00,  348.92,    6.80,   32.02, 43.2, 4.00, 4.01, 4.03,  86.97,  -0.86,  -1.70, -39.30,   2.07,  -1.21,   0.42,   0.23,  -0.16,   1.21, 4.03, 0.00, 0.00, 0.01, 0.00, 1, 1, 11,  37.1657227, -97.7360642,   387.0, 2019,  9,  1, 22, 37, 45,        0,        0,   0,   0,   1.6,   0.8,   1.4,  0,  0,  0,  0,  0,  0,  0, 23,  0, 32,  0,  0,  0, 28, 36,  0,  0,  0,  0, 33, 38,  0,  0, 38,  0,  0, 22,  0,  0,  0,  0, 35
6, 3418, 4,KD0KZD,     0.28, 3,   boost,   74.74,  97173.00,  351.50,    9.38,   32.77, 43.2, 4.00, 4.01, 4.03,  86.96,   0.03,   1.78, -41.68,   2.68,  -1.64,   0.42,   0.23,  -0.15,   1.23, 4.03, 0.00, 0.00, 0.01, 0.00, 1, 1, 11,  37.1657227, -97.7360642,   387.0, 2019,  9,  1, 22, 37, 45,        0,        0,   0,   0,   1.6,   0.8,   1.4,  0,  0,  0,  0,  0,  0,  0, 23,  0, 32,  0,  0,  0, 28, 36,  0,  0,  0,  0, 33, 38,  0,  0, 38,  0,  0, 22,  0,  0,  0,  0, 35
6, 3418, 4,KD0KZD,     0.29, 3,   boost,   75.27,  97178.00,  351.07,    8.95,   33.52, 43.2, 4.00, 4.01, 4.03,  87.18,  -0.73,   1.25, -44.00,   1.71,  -1.39,   0.42,   0.23,  -0.15,   1.25, 4.03, 0.00, 0.00, 0.01, 0.00, 1, 1, 11,  37.1657227, -97.7360642,   387.0, 2019,  9,  1, 22, 37, 45,        0,        0,   0,   0,   1.6,   0.8,   1.4,  0,  0,  0,  0,  0,  0,  0, 23,  0, 32,  0,  0,  0, 28, 36,  0,  0,  0,  0, 33, 38,  0,  0, 38,  0,  0, 22,  0,  0,  0,  0, 35
6, 3418, 4,KD0KZD,     0.30, 3,   boost,   75.27,  97212.00,  348.14,    6.02,   34.27, 43.2, 4.00, 4.01, 4.03,  87.05,  -1.47,  -1.34, -47.85,   0.97,  -2.25,   0.42,   0.23,  -0.15,   1.25, 4.03, 0.00, 0.00, 0.01, 0.00, 1, 1, 11,  37.1657227, -97.7360642,   387.0, 2019,  9,  1, 22, 37, 45,        0,        0,   0,   0,   1.6,   0.8,   1.4,  0,  0,  0,  0,  0,  0,  0, 23,  0, 32,  0,  0,  0, 28, 36,  0,  0,  0,  0, 33, 38,  0,  0, 38,  0,  0, 22,  0,  0,  0,  0, 35
6, 3418, 4,KD0KZD,     0.31, 3,   boost,   75.27,  97187.00,  350.30,    8.18,   35.02, 43.2, 4.00, 4.01, 4.03,  87.12,  -0.68,   0.45, -50.90,   1.77,  -3.10,   0.42,   0.23,  -0.15,   1.27, 4.03, 0.00, 0.00, 0.01, 0.00, 1, 1, 11,  37.1657227, -97.7360642,   387.0, 2019,  9,  1, 22, 37, 45,        0,        0,   0,   0,   1.6,   0.8,   1.4,  0,  0,  0,  0,  0,  0,  0, 23,  0, 32,  0,  0,  0, 28, 36,  0,  0,  0,  0, 33, 38,  0,  0, 38,  0,  0, 22,  0,  0,  0,  0, 35
6, 3418, 4,KD0KZD,     0.32, 3,   boost,   75.27,  97156.00,  352.97,   10.85,   35.77, 43.2, 4.00, 4.01, 4.03,  87.16,  -0.09,   1.85, -54.25,   1.46,  -3.47,   0.42,   0.24,  -0.14,   1.28, 4.03, 0.00, 0.00, 0.01, 0.00, 1, 1, 11,  37.1657227, -97.7360642,   387.0, 2019,  9,  1, 22, 37, 45,        0,        0,   0,   0,   1.6,   0.8,   1.4,  0,  0,  0,  0,  0,  0,  0, 23,  0, 32,  0,  0,  0, 28, 36,  0,  0,  0,  0, 33, 38,  0,  0, 38,  0,  0, 22,  0,  0,  0,  0, 35
6, 3418, 4,KD0KZD,     0.33, 3,   boost,   75.27,  97184.00,  350.55,    8.43,   36.53, 43.2, 4.00, 4.01, 4.03,  87.17,  -1.15,  -0.57, -57.49,  -0.06,  -3.16,   0.42,   0.24,  -0.14,   1.28, 4.03, 0.00, 0.00, 0.01, 0.00, 1, 1, 11,  37.1657227, -97.7360642,   387.0, 2019,  9,  1, 22, 37, 45,        0,        0,   0,   0,   1.6,   0.8,   1.4,  0,  0,  0,  0,  0,  0,  0, 23,  0, 32,  0,  0,  0, 28, 36,  0,  0,  0,  0, 33, 38,  0,  0, 38,  0,  0, 22,  0,  0,  0,  0, 35
6, 3418, 4,KD0KZD,     0.34, 3,   boost,   75.27,  97167.00,  352.02,    9.90,   37.28, 43.2, 4.01, 4.03, 4.02,  87.07,  -1.18,  -0.75, -60.54,   0.49,  -4.08,   0.42,   0.24,  -0.14,   1.28, 4.04, 0.00, 0.00, 0.00, 0.00, 1, 1, 11,  37.1657227, -97.7360642,   387.0, 2019,  9,  1, 22, 37, 45,        0,        0,   0,   0,   1.6,   0.8,   1.4,  0,  0,  0,  0,  0,  0,  0, 23,  0, 32,  0,  0,  0, 28, 36,  0,  0,  0,  0, 33, 38,  0,  0, 38,  0,  0, 22,  0,  0,  0,  0, 35
6, 3418, 4,KD0KZD,     0.34, 3,   boost,   75.27,  97167.00,  352.02,    9.90,   37.28, 43.2, 4.01, 4.03, 4.02,  87.07,  -1.18,  -0.75, -60.54,   0.49,  -4.08,   0.42,   0.24,  -0.14,   1.28, 4.04, 0.00, 0.00, 0.00, 0.00, 1, 1, 11,  37.1657227, -97.7360642,   387.0, 2019,  9,  1, 22, 37, 45,        0,        0,   0,   0,   1.6,   0.8,   1.4,  0,  0,  0,  0,  0,  0,  0, 23,  0, 32,  0,  0,  0, 28, 36,  0,  0,  0,  0, 33, 38,  0,  0, 38,  0,  0, 22,  0,  0,  0,  0, 35
6, 3418, 4,KD0KZD,     0.35, 3,   boost,   75.27,  97172.00,  351.59,    9.47,   38.03, 43.2, 4.01, 4.03, 4.02,  87.08,  -0.39,   1.59, -64.81,   0.67,  -4.87,   0.42,   0.23,  -0.14,   1.29, 4.04, 0.00, 0.00, 0.00, 0.00, 1, 1, 11,  37.1657227, -97.7360642,   387.0, 2019,  9,  1, 22, 37, 45,        0,        0,   0,   0,   1.6,   0.8,   1.4,  0,  0,  0,  0,  0,  0,  0, 23,  0, 32,  0,  0,  0, 28, 36,  0,  0,  0,  0, 33, 38,  0,  0, 38,  0,  0, 22,  0,  0,  0,  0, 35
6, 3418, 4,KD0KZD,     0.36, 3,   boost,   75.27,  97174.00,  351.42,    9.30,   38.79, 43.2, 4.01, 4.03, 4.02,  87.29,  -0.42,   0.40, -69.70,  -0.86,  -4.87,   0.42,   0.24,  -0.14,   1.29, 4.04, 0.00, 0.00, 0.00, 0.00, 1, 1, 11,  37.1657227, -97.7360642,   387.0, 2019,  9,  1, 22, 37, 45,        0,        0,   0,   0,   1.6,   0.8,   1.4,  0,  0,  0,  0,  0,  0,  0, 23,  0, 32,  0,  0,  0, 28, 36,  0,  0,  0,  0, 33, 38,  0,  0, 38,  0,  0, 22,  0,  0,  0,  0, 35
6, 3418, 4,KD0KZD,     0.37, 3,   boost,   75.27,  97185.00,  350.47,    8.35,   39.54, 43.2, 4.01, 4.03, 4.02,  87.47,  -1.34,  -1.17, -72.93,  -1.04,  -5.05,   0.42,   0.24,  -0.13,   1.29, 4.04, 0.00, 0.00, 0.00, 0.00, 1, 1, 11,  37.1657227, -97.7360642,   387.0, 2019,  9,  1, 22, 37, 45,        0,        0,   0,   0,   1.6,   0.8,   1.4,  0,  0,  0,  0,  0,  0,  0, 23,  0, 32,  0,  0,  0, 28, 36,  0,  0,  0,  0, 33, 38,  0,  0, 38,  0,  0, 22,  0,  0,  0,  0, 35
6, 3418, 4,KD0KZD,     0.38, 3,   boost,   75.80,  97146.00,  353.83,   11.71,   40.30, 43.2, 4.01, 4.03, 4.02,  87.71,  -0.90,   1.09, -75.98,  -0.43,  -5.79,   0.42,   0.24,  -0.14,   1.29, 4.04, 0.00, 0.00, 0.00, 0.00, 1, 1, 11,  37.1657227, -97.7360642,   387.0, 2019,  9,  1, 22, 37, 45,        0,        0,   0,   0,   1.6,   0.8,   1.4,  0,  0,  0,  0,  0,  0,  0, 23,  0, 32,  0,  0,  0, 28, 36,  0,  0,  0,  0, 33, 38,  0,  0, 38,  0,  0, 22,  0,  0,  0,  0, 35
6, 3418, 4,KD0KZD,     0.39, 3,   boost,   75.80,  97143.00,  354.09,   11.97,   41.05, 43.2, 4.01, 4.03, 4.02,  87.67,  -0.25,   1.23, -80.38,  -1.35,  -6.40,   0.42,   0.24,  -0.13,   1.30, 4.04, 0.00, 0.00, 0.00, 0.00, 1, 1, 11,  37.1657227, -97.7360642,   387.0, 2019,  9,  1, 22, 37, 45,        0,        0,   0,   0,   1.6,   0.8,   1.4,  0,  0,  0,  0,  0,  0,  0, 23,  0, 32,  0,  0,  0, 28, 36,  0,  0,  0,  0, 33, 38,  0,  0, 38,  0,  0, 22,  0,  0,  0,  0, 35
6, 3418, 4,KD0KZD,     0.40, 3,   boost,   75.80,  97149.00,  353.57,   11.45,   41.81, 43.2, 4.01, 4.03, 4.02,  87.65,  -0.75,  -0.96, -83.43,  -2.20,  -6.09,   0.42,   0.25,  -0.13,   1.30, 4.04, 0.00, 0.00, 0.00, 0.00, 1, 1, 11,  37.1657227, -97.7360642,   387.0, 2019,  9,  1, 22, 37, 45,        0,        0,   0,   0,   1.6,   0.8,   1.4,  0,  0,  0,  0,  0,  0,  0, 23,  0, 32,  0,  0,  0, 28, 36,  0,  0,  0,  0, 33, 38,  0,  0, 38,  0,  0, 22,  0,  0,  0,  0, 35
6, 3418, 4,KD0KZD,     0.41, 3,   boost,   75.80,  97154.00,  353.14,   11.02,   42.57, 43.2, 4.01, 4.03, 4.02,  87.75,  -1.13,   0.46, -86.12,  -1.65,  -6.34,   0.42,   0.24,  -0.13,   1.30, 4.04, 0.00, 0.00, 0.00, 0.00, 1, 1, 11,  37.1657227, -97.7360642,   387.0, 2019,  9,  1, 22, 37, 45,        0,        0,   0,   0,   1.6,   0.8,   1.4,  0,  0,  0,  0,  0,  0,  0, 23,  0, 32,  0,  0,  0, 28, 36,  0,  0,  0,  0, 33, 38,  0,  0, 38,  0,  0, 22,  0,  0,  0,  0, 35
6, 3418, 4,KD0KZD,     0.42, 3,   boost,   75.80,  97148.00,  353.65,   11.53,   43.32, 43.2, 4.01, 4.03, 4.02,  87.70,  -0.59,   1.66, -90.51,  -2.02,  -7.13,   0.42,   0.25,  -0.13,   1.32, 4.04, 0.00, 0.00, 0.00, 0.00, 1, 1, 11,  37.1657227, -97.7360642,   387.0, 2019,  9,  1, 22, 37, 45,        0,        0,   0,   0,   1.6,   0.8,   1.4,  0,  0,  0,  0,  0,  0,  0, 23,  0, 32,  0,  0,  0, 28, 36,  0,  0,  0,  0, 33, 38,  0,  0, 38,  0,  0, 22,  0,  0,  0,  0, 35
6, 3418, 4,KD0KZD,     0.43, 3,   boost,   75.80,  97154.00,  353.14,   11.02,   44.08, 43.2, 4.01, 4.03, 4.02,  87.85,  -0.33,  -0.15, -93.99,  -3.18,  -7.25,   0.42,   0.25,  -0.13,   1.33, 4.04, 0.00, 0.00, 0.00, 0.00, 1, 1, 11,  37.1657227, -97.7360642,   387.0, 2019,  9,  1, 22, 37, 45,        0,        0,   0,   0,   1.6,   0.8,   1.4,  0,  0,  0,  0,  0,  0,  0, 23,  0, 32,  0,  0,  0, 28, 36,  0,  0,  0,  0, 33, 38,  0,  0, 38,  0,  0, 22,  0,  0,  0,  0, 35
6, 3418, 4,KD0KZD,     0.44, 3,   boost,   75.80,  97147.00,  353.74,   11.62,   44.84, 43.2, 4.01, 4.03, 4.02,  88.01,  -0.97,  -0.23, -98.81,  -3.05,  -7.43,   0.42,   0.26,  -0.13,   1.35, 4.04, 0.00, 0.00, 0.00, 0.00, 1, 1, 11,  37.1657227, -97.7360642,   387.0, 2019,  9,  1, 22, 37, 45,        0,        0,   0,   0,   1.6,   0.8,   1.4,  0,  0,  0,  0,  0,  0,  0, 23,  0, 32,  0,  0,  0, 28, 36,  0,  0,  0,  0, 33, 38,  0,  0, 38,  0,  0, 22,  0,  0,  0,  0, 35
6, 3418, 4,KD0KZD,     0.45, 3,   boost,   75.80,  97132.00,  355.03,   12.91,   45.60, 43.2, 4.01, 4.03, 4.02,  88.28,  -0.82,   1.46,-102.90,  -3.30,  -7.86,   0.42,   0.26,  -0.13,   1.37, 4.04, 0.00, 0.00, 0.00, 0.00, 1, 1, 11,  37.1657227, -97.7360642,   387.0, 2019,  9,  1, 22, 37, 45,        0,        0,   0,   0,   1.6,   0.8,   1.4,  0,  0,  0,  0,  0,  0,  0, 23,  0, 32,  0,  0,  0, 28, 36,  0,  0,  0,  0, 33, 38,  0,  0, 38,  0,  0, 22,  0,  0,  0,  0, 35
6, 3418, 4,KD0KZD,     0.46, 3,   boost,   75.80,  97125.00,  355.64,   13.52,   46.36, 43.2, 4.01, 4.03, 4.02,  87.77,  -0.25,   0.58,-106.01,  -4.40,  -8.41,   0.42,   0.25,  -0.12,   1.40, 4.04, 0.00, 0.00, 0.00, 0.00, 1, 1, 11,  37.1657227, -97.7360642,   387.0, 2019,  9,  1, 22, 37, 45,        0,        0,   0,   0,   1.6,   0.8,   1.4,  0,  0,  0,  0,  0,  0,  0, 23,  0, 32,  0,  0,  0, 28, 36,  0,  0,  0,  0, 33, 38,  0,  0, 38,  0,  0, 22,  0,  0,  0,  0, 35
6, 3418, 4,KD0KZD,     0.47, 3,   boost,   75.80,  97117.00,  356.32,   14.21,   47.12, 43.2, 4.01, 4.03, 4.02,  87.90,  -0.65,  -0.54,-108.46,  -4.76,  -8.17,   0.42,   0.25,  -0.12,   1.43, 4.04, 0.00, 0.00, 0.00, 0.00, 1, 1, 11,  37.1657227, -97.7360642,   387.0, 2019,  9,  1, 22, 37, 45,        0,        0,   0,   0,   1.6,   0.8,   1.4,  0,  0,  0,  0,  0,  0,  0, 23,  0, 32,  0,  0,  0, 28, 36,  0,  0,  0,  0, 33, 38,  0,  0, 38,  0,  0, 22,  0,  0,  0,  0, 35
6, 3418, 4,KD0KZD,     0.48, 3,   boost,   76.33,  97122.00,  355.89,   13.77,   47.88, 43.2, 4.01, 4.03, 4.02,  88.18,  -0.82,   0.93,-111.45,  -4.64,  -8.66,   0.42,   0.26,  -0.12,   1.47, 4.04, 0.00, 0.00, 0.00, 0.00, 1, 1, 11,  37.1657227, -97.7360642,   387.0, 2019,  9,  1, 22, 37, 45,        0,        0,   0,   0,   1.6,   0.8,   1.4,  0,  0,  0,  0,  0,  0,  0, 23,  0, 32,  0,  0,  0, 28, 36,  0,  0,  0,  0, 33, 38,  0,  0, 38,  0,  0, 22,  0,  0,  0,  0, 35
6, 3418, 4,KD0KZD,     0.49, 3,   boost,   76.33,  97114.00,  356.58,   14.46,   48.64, 43.2, 4.01, 4.03, 4.02,  88.31,  -0.14,   1.13,-115.11,  -5.62,  -8.96,   0.42,   0.26,  -0.12,   1.51, 4.04, 0.00, 0.00, 0.00, 0.00, 1, 1, 11,  37.1657227, -97.7360642,   387.0, 2019,  9,  1, 22, 37, 45,        0,        0,   0,   0,   1.6,   0.8,   1.4,  0,  0,  0,  0,  0,  0,  0, 23,  0, 32,  0,  0,  0, 28, 36,  0,  0,  0,  0, 33, 38,  0,  0, 38,  0,  0, 22,  0,  0,  0,  0, 35
6, 3418, 4,KD0KZD,     0.50, 3,   boost,   76.33,  97090.00,  358.65,   16.53,   49.40, 43.2, 4.01, 4.03, 4.02,  88.42,  -0.44,  -0.49,-118.34,  -6.35,  -8.90,   0.42,   0.26,  -0.11,   1.56, 4.04, 0.00, 0.00, 0.00, 0.00, 1, 1, 11,  37.1657227, -97.7360642,   387.0, 2019,  9,  1, 22, 37, 45,        0,        0,   0,   0,   1.6,   0.8,   1.4,  0,  0,  0,  0,  0,  0,  0, 23,  0, 32,  0,  0,  0, 28, 36,  0,  0,  0,  0, 33, 38,  0,  0, 38,  0,  0, 22,  0,  0,  0,  0, 35
6, 3418, 4,KD0KZD,     0.51, 3,   boost,   76.33,  97091.00,  358.56,   16.45,   50.16, 43.2, 4.01, 4.03, 4.02,  88.39,  -0.65,   0.47,-121.52,  -6.29,  -9.14,   0.42,   0.27,  -0.10,   1.62, 4.04, 0.00, 0.00, 0.00, 0.00, 1, 1, 11,  37.1657227, -97.7360642,   387.0, 2019,  9,  1, 22, 37, 45,        0,        0,   0,   0,   1.6,   0.8,   1.4,  0,  0,  0,  0,  0,  0,  0, 23,  0, 32,  0,  0,  0, 28, 36,  0,  0,  0,  0, 33, 38,  0,  0, 38,  0,  0, 22,  0,  0,  0,  0, 35
6, 3418, 4,KD0KZD,     0.52, 3,   boost,   76.86,  97113.00,  356.67,   14.55,   50.93, 43.2, 4.01, 4.03, 4.02,  88.36,  -0.24,   1.38,-123.53,  -7.02,  -9.39,   0.42,   0.26,  -0.11,   1.69, 4.04, 0.00, 0.00, 0.00, 0.00, 1, 1, 11,  37.1657227, -97.7360642,   387.0, 2019,  9,  1, 22, 37, 45,        0,        0,   0,   0,   1.6,   0.8,   1.4,  0,  0,  0,  0,  0,  0,  0, 23,  0, 32,  0,  0,  0, 28, 36,  0,  0,  0,  0, 33, 38,  0,  0, 38,  0,  0, 22,  0,  0,  0,  0, 35
6, 3418, 4,KD0KZD,     0.53, 3,   boost,   76.86,  97074.00,  360.03,   17.91,   51.70, 43.2, 4.01, 4.03, 4.02,  88.60,  -0.30,   0.02,-125.24,  -7.94,  -9.33,   0.42,   0.27,  -0.10,   1.76, 4.04, 0.00, 0.00, 0.00, 0.00, 1, 1, 11,  37.1657227, -97.7360642,   387.0, 2019,  9,  1, 22, 37, 45,        0,        0,   0,   0,   1.6,   0.8,   1.4,  0,  0,  0,  0,  0,  0,  0, 23,  0, 32,  0,  0,  0, 28, 36,  0,  0,  0,  0, 33, 38,  0,  0, 38,  0,  0, 22,  0,  0,  0,  0, 35
6, 3418, 4,KD0KZD,     0.54, 3,   boost,   76.86,  97087.00,  358.91,   16.79,   52.46, 43.2, 4.01, 4.03, 4.02,  88.76,  -0.42,   0.18,-127.44,  -7.94,  -9.21,   0.42,   0.27,  -0.10,   1.84, 4.04, 0.00, 0.00, 0.00, 0.00, 1, 1, 11,  37.1657227, -97.7360642,   387.0, 2019,  9,  1, 22, 37, 45,        0,        0,   0,   0,   1.6,   0.8,   1.4,  0,  0,  0,  0,  0,  0,  0, 23,  0, 32,  0,  0,  0, 28, 36,  0,  0,  0,  0, 33, 38,  0,  0, 38,  0,  0, 22,  0,  0,  0,  0, 35
6, 3418, 4,KD0KZD,     0.55, 3,   boost,   76.86,  97072.00,  360.20,   18.08,   53.23, 43.2, 4.01, 4.03, 4.02,  88.75,  -0.19,   1.48,-129.33,  -8.30,  -9.21,   0.42,   0.27,  -0.10,   1.93, 4.04, 0.00, 0.00, 0.00, 0.00, 1, 1, 11,  37.1657227, -97.7360642,   387.0, 2019,  9,  1, 22, 37, 45,        0,        0,   0,   0,   1.6,   0.8,   1.4,  0,  0,  0,  0,  0,  0,  0, 23,  0, 32,  0,  0,  0, 28, 36,  0,  0,  0,  0, 33, 38,  0,  0, 38,  0,  0, 22,  0,  0,  0,  0, 35
6, 3418, 4,KD0KZD,     0.56, 3,   boost,   76.86,  97066.00,  360.72,   18.60,   54.00, 43.2, 4.01, 4.03, 4.02,  88.79,  -0.09,   0.67,-130.73,  -9.34,  -9.08,   0.42,   0.28,  -0.10,   2.02, 4.04, 0.00, 0.00, 0.00, 0.00, 1, 1, 11,  37.1657227, -97.7360642,   387.0, 2019,  9,  1, 22, 37, 45,        0,        0,   0,   0,   1.6,   0.8,   1.4,  0,  0,  0,  0,  0,  0,  0, 23,  0, 32,  0,  0,  0, 28, 36,  0,  0,  0,  0, 33, 38,  0,  0, 38,  0,  0, 22,  0,  0,  0,  0, 35
6, 3418, 4,KD0KZD,     0.57, 3,   boost,   77.39,  97072.00,  360.20,   18.08,   54.77, 43.2, 4.01, 4.03, 4.02,  88.95,  -0.39,  -0.22,-132.63,  -9.59,  -9.21,   0.42,   0.27,  -0.10,   2.11, 4.04, 0.00, 0.00, 0.00, 0.00, 1, 1, 11,  37.1657227, -97.7360642,   387.0, 2019,  9,  1, 22, 37, 45,        0,        0,   0,   0,   1.6,   0.8,   1.4,  0,  0,  0,  0,  0,  0,  0, 23,  0, 32,  0,  0,  0, 28, 36,  0,  0,  0,  0, 33, 38,  0,  0, 38,  0,  0, 22,  0,  0,  0,  0, 35
6, 3418, 4,KD0KZD,     0.58, 3,   boost,   77.39,  97054.00,  361.75,   19.63,   55.54, 43.2, 4.01, 4.03, 4.02,  89.22,  -0.00,   0.94,-134.15,  -9.71,  -9.33,   0.42,   0.27,  -0.09,   2.22, 4.04, 0.00, 0.00, 0.00, 0.00, 1, 1, 11,  37.1657227, -97.7360642,   387.0, 2019,  9,  1, 22, 37, 45,        0,        0,   0,   0,   1.6,   0.8,   1.4,  0,  0,  0,  0,  0,  0,  0, 23,  0, 32,  0,  0,  0, 28, 36,  0,  0,  0,  0, 33, 38,  0,  0, 38,  0,  0, 22,  0,  0,  0,  0, 35
