time,acceleration,pressure,altitude,height,speed,temperature,accel_x,accel_y,accel_z,gyro_roll,gyro_pitch,gyro_yaw,mag_x,mag_y,mag_z,tilt,latitude,longitude,altitude
-0.3,0,98766,215.23,0.17,0,19.2,9.25,0.14,0.34,0.51,-0.05,0.28,0.46,0.09,-0.21,2.76,37.1688225,-97.7338837,381
-0.29,0,98771,214.8,-0.25,0,19.2,9.87,-0.43,0.11,0.02,-0.17,-0.45,0.46,0.09,-0.21,2.76,37.1688225,-97.7338837,381
-0.28,0,98763,215.48,0.42,0,19.2,10.39,0.61,1.19,-0.96,-0.17,0.1,0.46,0.09,-0.21,2.76,37.1688225,-97.7338837,381
-0.27,0,98769,214.97,-0.08,0,19.2,10.27,-1.09,0.36,1.36,-0.48,0.03,0.46,0.09,-0.21,2.76,37.1688225,-97.7338837,381
-0.26,-0.53,98770,214.89,-0.17,0,19.2,9.82,0.79,1.21,-1.94,-0.17,0.28,0.46,0.09,-0.21,2.76,37.1688225,-97.7338837,381
-0.25,0,98778,214.21,-0.85,0,19.2,8.96,-0.27,-0.38,1.91,-0.05,0.46,0.46,0.09,-0.21,2.76,37.1688225,-97.7338837,381
-0.24,0,98767,215.14,0.08,0,19.2,9.63,-0.04,1.5,-2.06,0.01,0.03,0.46,0.09,-0.21,2.76,37.1688225,-97.7338837,381
-0.23,0,98770,214.89,-0.17,0,19.2,10.19,-0.31,0.22,1.24,0.07,0.1,0.46,0.09,-0.22,2.76,37.1688225,-97.7338837,381
-0.22,-0.53,98775,214.46,-0.59,0,19.2,10.44,-0.5,0.96,-0.53,0.19,-0.27,0.46,0.09,-0.21,2.76,37.1688225,-97.7338837,381
-0.21,-0.53,98759,215.82,0.76,0,19.2,9.84,0.5,0.7,0.57,0.19,-0.09,0.46,0.09,-0.21,2.76,37.1688225,-97.7338837,381
-0.2,0,98779,214.12,-0.93,0,19.2,9.4,-0.3,0.23,0.63,0.19,0.03,0.46,0.09,-0.21,2.76,37.1688225,-97.7338837,381
-0.19,2.12,98761,215.65,0.59,0,19.2,9.67,0.42,0.94,-0.9,0.26,0.16,0.46,0.09,-0.21,2.76,37.1688225,-97.7338837,381
-0.18,-1.59,98781,213.95,-1.1,0,19.2,11.67,-0.12,0.63,1.73,0.26,0.28,0.46,0.09,-0.21,2.76,37.1688225,-97.7338837,381
-0.17,0.53,98745,217.01,1.95,0.01,19.2,10.48,0.66,-0.1,-0.35,0.62,-0.58,0.46,0.09,-0.21,2.76,37.1688225,-97.7338837,381
-0.16,0,98777,214.29,-0.76,0.03,19.2,9.02,1.64,2.45,-6.57,0.19,0.03,0.46,0.09,-0.21,2.76,37.1688225,-97.7338837,381
-0.15,2.65,98784,213.7,-1.36,0.08,19.2,10.54,-0.36,0.72,-9.99,0.56,-0.09,0.46,0.09,-0.21,2.76,37.1688225,-97.7338837,381
-0.14,7.42,98785,213.61,-1.44,0.18,19.2,11.26,-1.18,1.03,-2.79,0.81,-0.03,0.46,0.09,-0.21,2.76,37.1688225,-97.7338837,381
-0.13,17.49,98782,213.87,-1.19,0.36,19.2,16.13,-0.41,0.03,-0.84,0.74,-0.45,0.46,0.09,-0.21,2.76,37.1688225,-97.7338837,381
-0.12,32.87,98780,214.04,-1.02,0.64,19.2,25.2,0.18,0.48,-2.97,1.17,-0.64,0.46,0.09,-0.21,2.76,37.1688225,-97.7338837,381
-0.11,47.71,98781,213.95,-1.1,1.02,19.2,41.09,0.75,0.69,-1.26,0.68,-1,0.46,0.09,-0.21,2.76,37.1688225,-97.7338837,381
-0.1,57.25,98798,212.51,-2.55,1.51,19.2,56.46,0.79,1.75,4.53,0.32,-1,0.46,0.09,-0.21,2.76,37.1688225,-97.7338837,381
-0.09,66.79,98805,211.91,-3.14,2.09,19.2,67.12,1.05,-0.44,10.82,0.62,-0.15,0.46,0.09,-0.2,2.76,37.1688225,-97.7338837,381
-0.08,71.03,98817,210.9,-4.16,2.73,19.2,76.55,-0.33,0.79,18.69,0.56,-0.45,0.46,0.09,-0.2,2.76,37.1688225,-97.7338837,381
-0.07,74.21,98831,209.71,-5.35,3.42,19.2,82,1,-0.03,33.83,0.62,-1.86,0.46,0.08,-0.2,2.76,37.1688225,-97.7338837,381
-0.06,74.21,98838,209.11,-5.95,4.14,19.2,85.74,-1.01,-1.27,44.88,0.74,-2.35,0.46,0.08,-0.2,2.76,37.1688225,-97.7338837,381
-0.05,72.62,98849,208.18,-6.88,4.86,19.2,85.72,1.83,-1.14,50.01,1.23,-2.96,0.46,0.08,-0.2,2.76,37.1688225,-97.7338837,381
-0.04,72.62,98854,207.75,-7.31,5.6,19.2,85.14,0.51,1.83,43.66,0.81,-1.98,0.46,0.08,-0.2,2.76,37.1688225,-97.7338837,381
-0.03,73.15,98828,209.96,-5.1,6.34,19.2,84.22,-1.1,-0.24,38.65,-1.15,-1,0.46,0.08,-0.2,2.76,37.1688225,-97.7338837,381
-0.02,77.39,98763,215.48,0.42,7.1,19.2,84.44,5.71,-2.95,49.27,-1.15,-0.51,0.46,0.08,-0.2,2.76,37.1688225,-97.7338837,381
-0.01,78.45,98742,217.27,2.21,7.86,19.2,88.14,-1.13,0.71,47.08,-1.21,-0.09,0.46,0.07,-0.2,2.76,37.1688225,-97.7338837,381
0,77.92,98751,216.5,1.44,8.63,19.2,90.39,0.6,-0.98,45.49,-1.45,-0.58,0.46,0.07,-0.2,2.74,37.1688225,-97.7338837,381
0.01,77.92,98753,216.33,1.27,9.4,19.2,90.29,0.75,-1.5,43.54,-0.72,-0.51,0.46,0.07,-0.2,2.75,37.1688225,-97.7338837,381
0.01,77.92,98753,216.33,1.27,9.4,19.2,90.29,0.75,-1.5,43.54,-0.72,-0.51,0.46,0.07,-0.2,2.75,37.1688225,-97.7338837,381
0.02,76.33,98745,217.01,1.95,10.17,19.2,89.54,-0.11,0.62,44.02,-0.84,-0.33,0.46,0.07,-0.19,2.76,37.1688225,-97.7338837,381
0.02,76.33,98745,217.01,1.95,10.17,19.2,89.54,-0.11,0.62,44.02,-0.84,-0.33,0.46,0.07,-0.19,2.76,37.1688225,-97.7338837,381
0.03,76.33,98742,217.27,2.21,10.93,19.2,88.78,1.31,-0.45,41.77,-0.84,-0.03,0.46,0.07,-0.2,2.77,37.1688225,-97.7338837,381
0.04,75.8,98730,218.29,3.23,11.69,19.2,87.99,-0.73,0.6,51.53,-1.03,-1.19,0.46,0.07,-0.2,2.78,37.1688225,-97.7338837,381
0.05,75.8,98730,218.29,3.23,12.45,19.2,87.48,0.04,-0.39,53.42,-0.54,-1.55,0.46,0.07,-0.19,2.79,37.1688225,-97.7338837,381
0.06,74.74,98718,219.31,4.25,13.2,19.2,87.04,2.02,-1.61,58.92,0.19,-0.94,0.46,0.07,-0.19,2.79,37.1688225,-97.7338837,381
0.07,74.74,98731,218.2,3.14,13.95,19.2,87.2,-0.26,1.39,57.09,-0.29,0.1,0.46,0.06,-0.2,2.79,37.1688225,-97.7338837,381
0.08,74.74,98735,217.86,2.8,14.7,19.2,87.13,-1.24,-0.26,58.31,0.07,-1.49,0.46,0.06,-0.2,2.8,37.1688225,-97.7338837,381
0.09,74.74,98726,218.63,3.57,15.44,19.2,86.66,1.13,0.78,64.9,0.26,-2.35,0.46,0.06,-0.19,2.81,37.1688225,-97.7338837,381
0.1,74.21,98712,219.82,4.76,16.19,19.2,86.3,1.52,0.79,62.15,0.5,-0.76,0.46,0.06,-0.19,2.8,37.1688225,-97.7338837,381
0.11,73.68,98726,218.63,3.57,16.92,19.2,86.38,-1.08,0.53,57.27,1.42,-0.27,0.46,0.06,-0.19,2.79,37.1688225,-97.7338837,381
0.12,73.68,98726,218.63,3.57,17.66,19.2,85.92,-3.24,-1.62,51.96,0.87,-1.43,0.46,0.06,-0.19,2.79,37.1688225,-97.7338837,381
0.13,72.62,98707,220.24,5.19,18.39,19.2,85.1,4.11,1.14,52.63,0.62,-0.7,0.46,0.05,-0.19,2.79,37.1688225,-97.7338837,381
0.14,72.62,98721,219.05,3.99,19.12,19.2,85.45,0.51,1.72,48.05,1.23,0.71,0.46,0.04,-0.2,2.77,37.1688225,-97.7338837,381
0.15,72.62,98711,219.9,4.85,19.84,19.2,84.9,-5.2,-2.34,51.84,2.33,-0.88,0.46,0.04,-0.19,2.75,37.1688225,-97.7338837,381
0.16,72.09,98725,218.71,3.65,20.57,19.2,84.24,-0.95,0.58,48.91,1.96,-0.03,0.46,0.05,-0.19,2.74,37.1688225,-97.7338837,381
0.17,72.09,98714,219.65,4.59,21.29,19.2,84.03,0.4,-0.34,44.33,1.54,0.4,0.46,0.04,-0.19,2.72,37.1688225,-97.7338837,381
0.18,72.62,98715,219.56,4.51,22.01,19.2,85.22,-1.2,-0.9,28.09,0.68,0.16,0.46,0.04,-0.19,2.71,37.1688225,-97.7338837,381
0.19,72.09,98725,218.71,3.65,22.73,19.2,83.7,-1.41,2.63,16.19,0.5,-1.25,0.46,0.05,-0.18,2.72,37.1688225,-97.7338837,381
0.2,72.09,98716,219.48,4.42,23.45,19.2,84.15,2.64,-2.43,30.05,1.48,0.1,0.46,0.04,-0.19,2.7,37.1688225,-97.7338837,381
0.21,72.09,98723,218.88,3.82,24.18,19.2,84.45,0.84,2.42,22.11,1.84,3.09,0.46,0.04,-0.19,2.67,37.1688225,-97.7338837,381
0.22,72.09,98712,219.82,4.76,24.9,19.2,84,-3.52,0.59,19.98,1.05,1.5,0.46,0.04,-0.19,2.66,37.1688225,-97.7338837,381
0.23,72.09,98692,221.52,6.46,25.62,19.2,83.71,0.96,-1.54,17.96,1.05,-0.21,0.46,0.04,-0.19,2.65,37.1688225,-97.7338837,381
0.24,72.09,98701,220.75,5.7,26.34,19.2,83.71,1.92,0.53,16.31,1.17,0.71,0.46,0.04,-0.19,2.63,37.1688225,-97.7338837,381
0.25,72.09,98692,221.52,6.46,27.06,19.2,83.73,-2.17,1.52,14.91,0.81,1.8,0.46,0.03,-0.2,2.62,37.1688225,-97.7338837,381
0.26,72.09,98693,221.43,6.38,27.77,19.2,83.61,-0.59,-1.14,14.12,0.44,0.34,0.46,0.03,-0.19,2.61,37.1688225,-97.7338837,381
0.27,72.09,98692,221.52,6.46,28.49,19.2,83.68,1.53,-0.4,13.26,0.44,0.16,0.46,0.04,-0.18,2.61,37.1688225,-97.7338837,381
0.28,71.56,98688,221.86,6.8,29.21,19.2,84.06,-0.47,1.66,12.29,0.26,1.5,0.46,0.03,-0.19,2.6,37.1688225,-97.7338837,381
0.29,71.56,98676,222.88,7.82,29.93,19.2,83.5,-1.39,-0.06,11.31,-0.11,0.95,0.46,0.03,-0.18,2.59,37.1688225,-97.7338837,381
0.3,71.56,98684,222.2,7.14,30.65,19.2,83.42,0.42,-0.9,10.58,0.01,-0.21,0.46,0.04,-0.19,2.6,37.1688225,-97.7338837,381
0.31,72.09,98685,222.11,7.06,31.36,19.2,83.4,0.83,1.11,9.72,0.01,0.58,0.46,0.03,-0.19,2.59,37.1688225,-97.7338837,381
0.32,72.09,98674,223.05,7.99,32.08,19.2,83.56,-1.24,0.46,8.38,-0.48,0.89,0.46,0.03,-0.2,2.59,37.1688225,-97.7338837,381
0.33,72.09,98678,222.71,7.65,32.8,19.2,83.91,-0.52,-0.85,6.61,-0.42,-0.45,0.46,0.04,-0.19,2.6,37.1688225,-97.7338837,381
0.34,72.09,98675,222.97,7.91,33.52,19.2,83.73,1.21,0.46,4.53,-0.23,-0.33,0.46,0.04,-0.19,2.6,37.1688225,-97.7338837,381
0.34,72.09,98675,222.97,7.91,33.52,19.2,83.73,1.21,0.46,4.53,-0.23,-0.33,0.46,0.04,-0.19,2.6,37.1688225,-97.7338837,381
0.35,71.56,98661,224.16,9.1,34.24,19.2,83.57,-0.57,0.74,2.46,-0.66,0.4,0.46,0.04,-0.19,2.61,37.1688225,-97.7338837,381
0.36,71.56,98660,224.24,9.18,34.95,19.2,83.64,-1.18,-0.55,0.81,-0.78,-0.33,0.46,0.03,-0.19,2.61,37.1688225,-97.7338837,381
0.37,71.56,98644,225.6,10.54,35.67,19.2,83.51,0.82,0.08,-1.14,-0.6,-1,0.46,0.03,-0.19,2.62,37.1688225,-97.7338837,381
0.38,71.56,98645,225.52,10.46,36.38,19.2,83.46,0.27,1,-3.65,-0.97,-0.21,0.46,0.04,-0.19,2.63,37.1688225,-97.7338837,381
0.39,71.56,98646,225.43,10.37,37.1,19.2,83.61,-1.24,-0.13,-5.78,-1.33,-0.51,0.46,0.03,-0.19,2.65,37.1688225,-97.7338837,381
0.4,71.56,98633,226.54,11.48,37.81,19.2,83.64,0.23,0,-7.8,-1.15,-1.43,0.46,0.03,-0.19,2.67,37.1688225,-97.7338837,381
0.41,72.09,98642,225.77,10.71,38.53,19.2,83.6,0.75,0.88,-9.81,-1.21,-1,0.46,0.04,-0.19,2.68,37.1688225,-97.7338837,381
0.42,72.09,98639,226.03,10.97,39.25,19.2,83.69,-1.1,0.21,-12.07,-1.76,-0.76,0.46,0.03,-0.19,2.7,37.1688225,-97.7338837,381
0.43,72.09,98616,227.98,12.93,39.97,19.2,83.77,-0.44,-0.17,-14.81,-1.64,-1.74,0.46,0.03,-0.19,2.72,37.1688225,-97.7338837,381
0.44,72.09,98613,228.24,13.18,40.69,19.2,83.79,0.86,0.69,-17.68,-1.7,-1.74,0.46,0.04,-0.19,2.75,37.1688225,-97.7338837,381
0.45,72.09,98615,228.07,13.01,41.41,19.2,83.86,-0.6,0.47,-19.94,-2.06,-1.06,0.46,0.04,-0.19,2.77,37.1688225,-97.7338837,381
0.46,72.09,98599,229.43,14.37,42.13,19.2,83.73,-0.84,0.1,-22.57,-2.19,-2.04,0.46,0.04,-0.19,2.8,37.1688225,-97.7338837,381
0.47,72.62,98606,228.84,13.78,42.85,19.2,83.76,0.75,0.36,-24.95,-2.25,-2.47,0.46,0.03,-0.2,2.83,37.1688225,-97.7338837,381
0.48,72.62,98609,228.58,13.52,43.58,19.2,84.26,-0.1,0.42,-27.39,-2.49,-1.74,0.46,0.03,-0.19,2.86,37.1688225,-97.7338837,381
0.49,72.09,98588,230.37,15.31,44.3,19.2,84.18,-1.01,0.37,-29.95,-2.86,-2.28,0.46,0.04,-0.19,2.9,37.1688225,-97.7338837,381
0.5,72.09,98580,231.05,15.99,45.02,19.2,84.1,0.37,0.45,-32.58,-2.8,-2.9,0.46,0.04,-0.2,2.93,37.1688225,-97.7338837,381
0.51,72.09,98588,230.37,15.31,45.74,19.2,84.05,0.35,0.32,-34.65,-2.98,-2.35,0.46,0.04,-0.19,2.97,37.1688225,-97.7338837,381
0.52,72.09,98574,231.56,16.5,46.46,19.2,83.97,-0.94,0.08,-37.15,-3.16,-2.28,0.46,0.05,-0.2,3.01,37.1688225,-97.7338837,381
0.53,72.09,98566,232.24,17.18,47.18,19.2,83.8,-0.05,0.47,-39.84,-3.35,-3.32,0.46,0.04,-0.2,3.05,37.1688225,-97.7338837,381
0.54,72.09,98573,231.64,16.58,47.9,19.2,83.78,0.62,0.52,-42.59,-3.53,-3.08,0.46,0.04,-0.19,3.1,37.1688225,-97.7338837,381
0.55,72.62,98554,233.26,18.2,48.62,19.2,84,-0.55,0.26,-45.52,-3.77,-2.9,0.46,0.05,-0.19,3.15,37.1688225,-97.7338837,381
0.56,72.62,98547,233.86,18.8,49.35,19.2,84.35,-0.33,0.53,-47.96,-3.96,-3.51,0.46,0.05,-0.19,3.2,37.1688225,-97.7338837,381
0.57,72.62,98544,234.11,19.05,50.07,19.2,84.58,0.68,0.54,-50.52,-4.14,-3.63,0.46,0.05,-0.19,3.25,37.1688225,-97.7338837,381
0.58,72.09,98536,234.79,19.73,50.79,19.2,84.74,-0.07,0.17,-53.45,-4.44,-3.38,0.46,0.05,-0.2,3.31,37.1688225,-97.7338837,381
0.59,72.09,98532,235.13,20.08,51.51,19.2,84.38,-0.47,0.28,-56.32,-4.44,-3.63,0.46,0.05,-0.2,3.36,37.1688225,-97.7338837,381
0.6,72.62,98520,236.16,21.1,52.24,19.2,84.08,0.5,0.72,-59.43,-4.93,-4.18,0.46,0.06,-0.19,3.42,37.1688225,-97.7338837,381
0.61,72.62,98517,236.41,21.35,52.96,19.2,84.53,0.37,0.22,-62.12,-5.12,-3.93,0.46,0.05,-0.2,3.49,37.1688225,-97.7338837,381
0.62,72.62,98522,235.99,20.93,53.68,19.2,84.47,-0.4,0.25,-64.99,-5.24,-3.81,0.46,0.06,-0.2,3.55,37.1688225,-97.7338837,381
0.63,72.62,98492,238.54,23.48,54.41,19.2,84.38,0.44,0.73,-67.98,-5.42,-4.36,0.46,0.07,-0.2,3.62,37.1688225,-97.7338837,381
0.64,72.62,98492,238.54,23.48,55.13,19.2,84.34,0.67,0.4,-70.24,-5.97,-3.93,0.46,0.07,-0.2,3.69,37.1688225,-97.7338837,381
0.65,72.62,98480,239.56,24.5,55.86,19.2,84.4,-0.35,0.12,-73.59,-5.97,-3.69,0.45,0.07,-0.2,3.76,37.1688225,-97.7338837,381
0.66,72.09,98485,239.14,24.08,56.58,19.2,84.31,0.02,0.63,-76.71,-6.09,-3.93,0.46,0.07,-0.21,3.83,37.1688225,-97.7338837,381
0.66,72.09,98485,239.14,24.08,56.58,19.2,84.31,0.02,0.63,-76.71,-6.09,-3.93,0.46,0.07,-0.21,3.83,37.1688225,-97.7338837,381
0.67,72.09,98472,240.24,25.19,57.3,19.2,84.17,0.76,0.48,-79.94,-6.58,-3.87,0.45,0.08,-0.21,3.91,37.1688225,-97.7338837,381
0.68,72.62,98464,240.93,25.87,58.02,19.2,84.16,-0.11,-0.13,-83.12,-6.82,-3.38,0.45,0.08,-0.2,3.98,37.1688225,-97.7338837,381
0.69,72.62,98470,240.41,25.36,58.75,19.2,84.3,-0.11,0.61,-86.17,-6.82,-3.51,0.45,0.07,-0.22,4.06,37.1688225,-97.7338837,381
0.7,72.62,98439,243.06,28,59.47,19.2,84.5,0.76,0.51,-89.34,-7.37,-3.51,0.45,0.08,-0.22,4.14,37.1688225,-97.7338837,381
0.71,73.15,98444,242.63,27.57,60.2,19.2,84.67,0.07,-0.24,-92.03,-7.68,-3.02,0.45,0.09,-0.22,4.22,37.1688225,-97.7338837,381
0.72,73.68,98427,244.08,29.02,60.93,19.2,84.89,-0.19,0.38,-95.38,-7.68,-3.14,0.45,0.08,-0.23,4.3,37.1688225,-97.7338837,381
0.73,73.68,98437,243.23,28.17,61.66,19.2,85.81,0.75,0.29,-98.8,-7.8,-3.32,0.45,0.09,-0.21,4.39,37.1688225,-97.7338837,381
0.74,73.15,98425,244.25,29.19,62.39,19.2,85.44,0.36,-0.32,-102.46,-7.98,-2.83,0.45,0.1,-0.22,4.47,37.1688225,-97.7338837,381
0.75,73.15,98411,245.44,30.38,63.12,19.2,85.08,-0.13,-0.08,-106.07,-7.92,-2.77,0.45,0.1,-0.22,4.56,37.1688225,-97.7338837,381
0.76,73.15,98408,245.7,30.64,63.85,19.2,84.75,0.44,0.36,-109.61,-8.11,-3.02,0.45,0.11,-0.23,4.64,37.1688225,-97.7338837,381
0.77,73.68,98398,246.55,31.49,64.58,19.2,85.18,0.47,-0.16,-113.27,-8.11,-2.77,0.45,0.11,-0.22,4.73,37.1688225,-97.7338837,381
0.78,73.68,98394,246.89,31.83,65.32,19.2,85.56,-0.06,-0.14,-117.42,-8.05,-2.53,0.45,0.12,-0.23,4.81,37.1688225,-97.7338837,381
0.79,73.15,98382,247.91,32.86,66.05,19.2,85.12,0.45,0.2,-121.45,-8.17,-2.77,0.45,0.12,-0.22,4.9,37.1688527,-97.733864,390
0.79,73.15,98382,247.91,32.86,66.05,19.2,85.12,0.45,0.2,-121.45,-8.17,-2.77,0.45,0.12,-0.22,4.9,37.1688527,-97.733864,390
0.79,73.15,98382,247.91,32.86,66.05,19.2,85.12,0.45,0.2,-121.45,-8.17,-2.77,0.45,0.12,-0.22,4.9,37.1688527,-97.733864,390
0.8,73.68,98373,248.68,33.62,66.78,19.2,85.3,0.67,-0.15,-125.11,-8.29,-2.53,0.45,0.12,-0.23,4.98,37.1688527,-97.733864,390
0.81,73.68,98365,249.36,34.3,67.51,19.2,85.38,0.09,-0.25,-129.08,-8.05,-2.28,0.45,0.12,-0.23,5.07,37.1688527,-97.733864,390
0.82,73.68,98355,250.22,35.16,68.24,19.2,85.29,0.5,-0.02,-133.1,-8.05,-2.35,0.45,0.14,-0.22,5.15,37.1688527,-97.733864,390
0.83,73.15,98352,250.47,35.41,68.98,19.2,85.27,0.84,-0.36,-136.95,-8.11,-2.28,0.45,0.14,-0.22,5.23,37.1688527,-97.733864,390
0.84,73.68,98338,251.67,36.61,69.71,19.2,85.13,0.22,-0.22,-141.1,-7.8,-1.86,0.45,0.14,-0.22,5.31,37.1688527,-97.733864,390
0.85,74.21,98326,252.69,37.63,70.45,19.2,85.39,0.47,0.03,-145.25,-7.74,-1.92,0.45,0.15,-0.22,5.39,37.1688527,-97.733864,390
0.86,74.74,98319,253.29,38.23,71.19,19.2,85.61,0.91,-0.46,-149.34,-7.74,-1.67,0.44,0.16,-0.22,5.47,37.1688527,-97.733864,390
0.87,74.21,98314,253.71,38.65,71.92,19.2,86.79,0.41,-0.34,-153.31,-7.31,-1.19,0.44,0.17,-0.22,5.54,37.1688527,-97.733864,390
0.88,74.21,98302,254.74,39.68,72.66,19.2,86.11,0.26,0.21,-157.34,-7.01,-1.19,0.44,0.17,-0.22,5.61,37.1688527,-97.733864,390
0.89,74.21,98301,254.82,39.76,73.4,19.2,86.08,0.81,-0.52,-161.55,-7.07,-1.06,0.44,0.18,-0.22,5.68,37.1688527,-97.733864,390
0.9,73.68,98282,256.44,41.38,74.13,19.2,85.66,0.54,-0.99,-166.25,-6.89,-0.7,0.44,0.19,-0.22,5.75,37.1688527,-97.733864,390
0.91,73.68,98277,256.87,41.81,74.87,19.2,85.76,0.31,0.05,-170.46,-6.52,-0.39,0.44,0.18,-0.22,5.82,37.1688527,-97.733864,390
0.92,73.68,98272,257.3,42.24,75.6,19.2,85.84,0.75,-0.23,-174.85,-6.4,-0.39,0.44,0.19,-0.22,5.88,37.1688527,-97.733864,390
0.93,74.21,98253,258.92,43.86,76.34,19.2,85.98,0.67,-0.91,-179.86,-6.09,0.03,0.44,0.21,-0.21,5.94,37.1688527,-97.733864,390
0.94,74.21,98247,259.43,44.37,77.07,19.2,85.88,0.03,-0.44,-184.07,-5.05,0.03,0.44,0.21,-0.22,5.99,37.1688527,-97.733864,390
0.95,74.21,98241,259.94,44.88,77.81,19.2,85.94,0.77,0.6,-187.55,-4.81,-0.03,0.44,0.21,-0.21,6.04,37.1688527,-97.733864,390
0.96,74.21,98213,262.33,47.27,78.55,19.2,85.82,0.74,-0.23,-191.46,-5.05,0.34,0.44,0.23,-0.21,6.09,37.1688527,-97.733864,390
0.97,73.68,98213,262.33,47.27,79.28,19.2,85.83,0.06,-0.3,-196.09,-4.69,0.58,0.44,0.24,-0.21,6.14,37.1688527,-97.733864,390
0.98,74.21,98209,262.67,47.61,80.02,19.2,85.89,0.79,0.36,-200.61,-4.32,0.28,0.44,0.24,-0.21,6.18,37.1688527,-97.733864,390
0.98,74.21,98209,262.67,47.61,80.02,19.2,85.89,0.79,0.36,-200.61,-4.32,0.28,0.44,0.24,-0.21,6.18,37.1688527,-97.733864,390
0.99,74.21,98183,264.89,49.83,80.76,19.2,86.01,1.02,-0.69,-205.25,-4.32,0.71,0.44,0.25,-0.21,6.22,37.1688527,-97.733864,390
1,74.21,98178,265.32,50.26,81.49,19.2,86.23,0.13,-0.83,-210.01,-4.02,0.89,0.44,0.26,-0.19,6.26,37.1688527,-97.733864,390
1.01,74.21,98155,267.28,52.23,82.23,19.2,86.06,0.48,0.51,-214.77,-3.71,0.71,0.43,0.27,-0.19,6.3,37.1688527,-97.733864,390
1.02,74.21,98160,266.86,51.8,82.97,19.2,86.05,0.88,-0.38,-219.47,-3.47,0.71,0.44,0.27,-0.18,6.33,37.1688527,-97.733864,390
1.03,74.21,98153,267.46,52.4,83.7,19.2,85.92,0.34,-0.94,-223.99,-2.86,0.95,0.44,0.27,-0.19,6.36,37.1688527,-97.733864,390
1.04,74.21,98141,268.48,53.42,84.44,19.2,85.95,0.2,0.44,-228.63,-2.55,0.77,0.43,0.29,-0.18,6.39,37.1688527,-97.733864,390
1.05,74.21,98130,269.42,54.36,85.18,19.2,86.01,1.02,-0.26,-233.08,-2.49,0.58,0.44,0.29,-0.18,6.41,37.1688527,-97.733864,390
1.06,74.21,98109,271.21,56.16,85.92,19.2,85.96,0.8,-0.91,-238.21,-1.94,0.89,0.43,0.3,-0.17,6.43,37.1688527,-97.733864,390
1.07,74.74,98107,271.39,56.33,86.66,19.2,86.04,0.04,-0.37,-242.54,-1.39,0.89,0.43,0.31,-0.15,6.45,37.1688527,-97.733864,390
1.08,75.8,98097,272.24,57.18,87.4,19.2,86.29,0.73,-0.1,-247.61,-1.45,0.64,0.43,0.32,-0.15,6.47,37.1688527,-97.733864,390
1.09,75.8,98080,273.69,58.63,88.14,19.2,87.15,0.74,-0.86,-252.55,-1.09,0.89,0.43,0.32,-0.14,6.48,37.1688527,-97.733864,390
1.1,73.15,98065,274.97,59.92,88.88,19.2,88.84,0.01,-0.57,-257.07,-0.29,0.95,0.43,0.33,-0.12,6.49,37.1688527,-97.733864,390
1.11,73.15,98054,275.91,60.86,89.63,19.2,84.28,0.5,-0.28,-261.71,-0.11,0.52,0.43,0.34,-0.13,6.49,37.1688527,-97.733864,390
1.12,75.27,98050,276.26,61.2,90.37,19.2,86.24,0.11,-1.22,-266.53,0.19,0.71,0.43,0.34,-0.11,6.5,37.1688527,-97.733864,390
1.13,75.8,98036,277.45,62.4,91.11,19.2,86.67,-0.37,-0.36,-270.38,0.74,0.34,0.43,0.34,-0.1,6.5,37.1688527,-97.733864,390
1.14,75.8,98022,278.65,63.59,91.86,19.2,87.52,0.4,-0.28,-274.34,1.11,-0.21,0.43,0.35,-0.09,6.49,37.1688527,-97.733864,390
1.15,74.74,98024,278.48,63.42,92.6,19.2,87.21,0.01,-1.31,-279.17,1.66,-0.33,0.43,0.36,-0.08,6.48,37.1688527,-97.733864,390
1.16,74.74,98013,279.42,64.36,93.35,19.2,86.62,-0.24,-0.72,-284.29,2.15,-0.94,0.43,0.35,-0.06,6.46,37.1688527,-97.733864,390
1.17,74.74,97988,281.56,66.5,94.09,19.2,86.59,0.11,-0.35,-289.05,2.27,-1.67,0.43,0.35,-0.06,6.43,37.1688527,-97.733864,390
1.18,74.74,97973,282.84,67.78,94.83,19.2,86.63,0.03,-1.09,-293.75,2.45,-2.16,0.43,0.37,-0.03,6.4,37.1688527,-97.733864,390
1.19,74.74,97971,283.01,67.95,95.57,19.2,87.04,-0.02,-0.62,-298.76,3.19,-2.9,0.43,0.37,-0.03,6.36,37.1688527,-97.733864,390
1.2,74.74,97969,283.18,68.12,96.32,19.2,86.7,0.29,-0.34,-304.25,3.31,-3.75,0.43,0.37,-0.01,6.32,37.1688527,-97.733864,390
1.21,74.74,97949,284.89,69.84,97.06,19.2,86.73,-0.02,-1.31,-308.59,3.43,-4.48,0.43,0.37,0,6.26,37.1688527,-97.733864,390
1.22,74.74,97929,286.61,71.55,97.8,19.2,86.89,0.36,0.17,-312.74,3.92,-5.15,0.43,0.37,0.01,6.21,37.1688527,-97.733864,390
1.23,74.74,97920,287.38,72.32,98.54,19.2,86.68,0.56,0.55,-317.19,3.98,-5.82,0.43,0.37,0.04,6.14,37.1688527,-97.733864,390
1.24,74.74,97902,288.92,73.86,99.29,19.2,86.61,0.42,-0.45,-322.2,3.61,-6.37,0.43,0.36,0.05,6.08,37.1688527,-97.733864,390
1.25,74.74,97891,289.86,74.8,100.03,19.2,86.78,0.35,-0.03,-326.53,3.86,-7.05,0.43,0.36,0.06,6,37.1688527,-97.733864,390
1.26,75.27,97889,290.03,74.97,100.77,19.2,87.1,0.76,0.82,-331.11,3.43,-7.23,0.43,0.36,0.08,5.93,37.1688527,-97.733864,390
1.27,74.74,97874,291.31,76.25,101.52,19.2,87.42,0.62,-0.61,-335.81,2.94,-7.41,0.43,0.34,0.09,5.86,37.1688527,-97.733864,390
1.28,74.74,97845,293.8,78.74,102.27,19.2,86.88,0.59,-0.26,-340.45,3.06,-8.02,0.43,0.34,0.1,5.79,37.1688527,-97.733864,390
1.29,75.27,97852,293.2,78.14,103.01,19.2,86.83,0.95,0.72,-344.78,2.76,-8.33,0.43,0.34,0.12,5.71,37.1688527,-97.733864,390
1.3,75.27,97825,295.51,80.45,103.76,19.2,87.08,0.64,-0.34,-349.6,1.96,-8.27,0.43,0.33,0.13,5.64,37.1688527,-97.733864,390
1.3,75.27,97825,295.51,80.45,103.76,19.2,87.08,0.64,-0.34,-349.6,1.96,-8.27,0.43,0.33,0.13,5.64,37.1688527,-97.733864,390
1.31,75.27,97805,297.22,82.16,104.51,19.2,87.1,0.82,-0.54,-354.36,1.96,-8.69,0.43,0.33,0.14,5.57,37.1688527,-97.733864,390
1.32,75.27,97794,298.16,83.11,105.26,19.2,87.15,1.32,0.77,-359.37,1.72,-8.94,0.43,0.32,0.16,5.49,37.1688527,-97.733864,390
1.33,75.27,97778,299.54,84.48,106.01,19.2,87.1,1,-0.26,-364.68,0.99,-8.57,0.43,0.31,0.17,5.43,37.1688527,-97.733864,390
1.34,75.27,97763,300.82,85.76,106.76,19.2,87.26,0.68,-0.76,-369.68,0.68,-8.88,0.43,0.29,0.17,5.36,37.1688527,-97.733864,390
1.35,75.8,97754,301.59,86.53,107.51,19.2,87.21,1.6,0.35,-374.99,0.62,-9.12,0.43,0.27,0.18,5.29,37.1688527,-97.733864,390
1.36,75.8,97743,302.53,87.48,108.26,19.2,87.33,1.4,0,-380.37,0.07,-8.45,0.43,0.26,0.19,5.23,37.1688527,-97.733864,390
1.37,77.39,97731,303.56,88.5,109,19.2,87.48,0.78,-0.31,-385.31,-0.29,-8.33,0.43,0.25,0.2,5.17,37.1688527,-97.733864,390
1.38,71.56,97698,306.39,91.33,109.74,19.2,89,1.55,-0.48,-390.62,-0.48,-8.57,0.43,0.23,0.21,5.11,37.1688527,-97.733864,390
1.39,71.56,97699,306.31,91.25,110.48,19.2,86.51,1.88,0.24,-396.11,-0.84,-8.14,0.44,0.22,0.22,5.06,37.1688527,-97.733864,390
1.4,75.27,97683,307.68,92.62,111.22,19.2,86.45,0.79,-0.44,-400.94,-0.84,-7.66,0.44,0.21,0.22,5.01,37.1688527,-97.733864,390
1.41,74.74,97657,309.91,94.85,111.96,19.2,87.19,1.56,-0.78,-406.06,-0.9,-7.84,0.44,0.19,0.22,4.97,37.1688527,-97.733864,390
1.42,74.74,97637,311.62,96.56,112.7,19.2,86.79,1.94,-0.09,-411.31,-0.9,-7.6,0.44,0.17,0.22,4.94,37.1688527,-97.733864,390
1.43,74.74,97634,311.88,96.82,113.44,19.2,86.88,1.3,-0.28,-417.29,-0.84,-6.98,0.44,0.16,0.24,4.91,37.1688527,-97.733864,390
1.44,74.74,97621,313,97.94,114.19,19.2,86.79,1.42,-0.9,-422.24,-0.66,-7.23,0.44,0.14,0.24,4.89,37.1688527,-97.733864,390
1.45,75.27,97579,316.6,101.54,114.94,19.2,86.8,2.39,-1.05,-427.55,-0.54,-7.17,0.44,0.12,0.24,4.88,37.1688527,-97.733864,390
1.46,75.27,97589,315.74,100.68,115.69,19.2,87.24,1.94,-0.52,-432.49,-0.23,-6.31,0.44,0.1,0.24,4.88,37.1688527,-97.733864,390
1.47,75.27,97571,317.29,102.23,116.44,19.2,87.19,1.37,-0.5,-437.86,0.01,-6.01,0.44,0.08,0.24,4.89,37.1688527,-97.733864,390
1.48,75.8,97550,319.09,104.03,117.19,19.2,87.47,2.07,-1.11,-442.32,0.19,-6.25,0.44,0.07,0.25,4.9,37.1688527,-97.733864,390
1.49,76.33,97552,318.92,103.86,117.94,19.2,87.68,2.07,-1.13,-446.53,0.74,-5.64,0.44,0.04,0.22,4.92,37.1688527,-97.733864,390
1.5,76.33,97523,321.41,106.35,118.7,19.2,87.75,1.17,-0.64,-450.92,1.23,-5.28,0.44,0.02,0.22,4.95,37.1688527,-97.733864,390
1.51,75.27,97503,323.12,108.07,119.45,19.2,87.51,1.24,-1.08,-455.99,1.54,-5.52,0.44,0.01,0.22,4.99,37.1688527,-97.733864,390
1.52,75.27,97492,324.07,109.01,120.2,19.2,87.2,2.17,-1.59,-460.75,2.21,-5.4,0.45,-0.01,0.21,5.04,37.1688527,-97.733864,390
1.53,74.74,97473,325.7,110.64,120.95,19.2,86.94,1.16,-1.08,-465.45,2.94,-5.09,0.45,-0.03,0.2,5.09,37.1688527,-97.733864,390
1.54,75.27,97454,327.33,112.27,121.7,19.2,86.97,1.24,-1.17,-470.27,3.12,-5.64,0.45,-0.03,0.18,5.15,37.1688527,-97.733864,390
1.55,75.27,97442,328.36,113.3,122.45,19.2,86.88,1.65,-1.96,-474.97,3.61,-5.76,0.45,-0.05,0.18,5.22,37.1688527,-97.733864,390
1.56,75.27,97413,330.86,115.8,123.2,19.2,86.82,1.07,-0.99,-479.12,4.65,-6.07,0.44,-0.06,0.16,5.29,37.1688527,-97.733864,390
1.57,75.27,97417,330.51,115.45,123.95,19.2,86.9,1.08,0.12,-482.91,4.77,-6.68,0.45,-0.08,0.14,5.38,37.1688527,-97.733864,390
1.58,75.27,97390,332.83,117.77,124.7,19.2,86.88,1.48,-1.22,-487.49,4.89,-6.98,0.45,-0.1,0.14,5.46,37.1688527,-97.733864,390
1.59,75.27,97371,334.47,119.41,125.44,19.2,87.11,1.12,-1.02,-492.43,5.75,-7.47,0.45,-0.1,0.1,5.55,37.1688527,-97.733864,390
1.6,75.27,97374,334.21,119.15,126.19,19.2,87.08,0.76,-0.12,-496.89,5.75,-8.27,0.45,-0.11,0.08,5.65,37.1688527,-97.733864,390
1.61,75.27,97348,336.44,121.38,126.94,19.2,87.23,1.56,-0.19,-501.34,5.5,-8.69,0.45,-0.12,0.06,5.75,37.1688527,-97.733864,390
1.62,75.27,97339,337.22,122.16,127.69,19.2,87.14,0.88,-0.67,-505.86,5.81,-9.43,0.45,-0.12,0.05,5.85,37.1688527,-97.733864,390
1.62,75.27,97339,337.22,122.16,127.69,19.2,87.14,0.88,-0.67,-505.86,5.81,-9.43,0.45,-0.12,0.05,5.85,37.1688527,-97.733864,390
1.63,75.8,97325,338.42,123.36,128.44,19.2,87.29,1.04,-0.05,-510.37,5.87,-10.16,0.45,-0.12,0.03,5.96,37.1688527,-97.733864,390
1.64,75.8,97312,339.54,124.48,129.19,19.2,87.26,1.53,-0.18,-515.26,5.08,-10.65,0.45,-0.12,0.01,6.07,37.1688527,-97.733864,390
1.65,75.27,97290,341.43,126.37,129.94,19.2,87.23,1.14,-0.89,-520.57,4.71,-11.07,0.45,-0.12,-0.01,6.18,37.1688527,-97.733864,390
1.66,75.27,97279,342.38,127.32,130.69,19.2,87.23,0.93,0.24,-526,4.47,-11.93,0.45,-0.12,-0.05,6.29,37.1688527,-97.733864,390
1.67,75.27,97252,344.7,129.64,131.44,19.2,87.22,1.32,-0.44,-533.02,3.19,-12.54,0.45,-0.11,-0.06,6.41,37.1688527,-97.733864,390
1.68,75.27,97239,345.82,130.76,132.19,19.2,87.17,1.49,-0.41,-535.64,3.06,-12.84,0.45,-0.12,-0.09,6.52,37.1688527,-97.733864,390
1.69,75.27,97215,347.89,132.83,132.93,19.2,87.15,1.69,0.57,-540.53,2.58,-13.15,0.45,-0.11,-0.11,6.63,37.1688527,-97.733864,390
1.7,75.27,97197,349.43,134.38,133.68,19.2,87.01,1.5,-0.2,-547.49,0.99,-13.15,0.45,-0.09,-0.12,6.75,37.1688527,-97.733864,390
1.71,75.27,97182,350.73,135.67,134.43,19.2,87.04,1.42,-0.68,-549.8,0.74,-13.09,0.45,-0.08,-0.15,6.85,37.1688527,-97.733864,390
1.72,75.27,97157,352.88,137.82,135.17,19.2,87.42,2.05,-0.09,-556.4,-0.11,-13.27,0.44,-0.07,-0.17,6.96,37.1688527,-97.733864,390
1.73,75.27,97150,353.48,138.42,135.92,19.2,87.5,1.7,-0.73,-560.67,-1.03,-12.84,0.44,-0.04,-0.17,7.06,37.1688527,-97.733864,390
1.74,75.27,97136,354.69,139.63,136.67,19.2,87.42,1.55,-0.28,-565.31,-1.15,-12.6,0.44,-0.03,-0.19,7.16,37.1688527,-97.733864,390
1.75,75.27,97114,356.58,141.52,137.41,19.2,87.21,1.91,-0.48,-570.37,-1.27,-12.17,0.44,-0.01,-0.21,7.25,37.1688527,-97.733864,390
1.76,75.27,97103,357.53,142.47,138.16,19.2,87.36,1.59,-0.55,-574.77,-1.76,-11.93,0.44,0.01,-0.22,7.33,37.1688527,-97.733864,390
1.77,75.27,97075,359.94,144.89,138.9,19.2,87.23,1.96,0.03,-579.65,-2.12,-11.99,0.44,0.04,-0.23,7.4,37.1688527,-97.733864,390
1.78,75.27,97052,361.93,146.87,139.65,19.2,87.33,2.07,-0.87,-584.11,-2.43,-11.87,0.44,0.06,-0.23,7.48,37.1688527,-97.733864,390
1.79,75.27,97034,363.48,148.42,140.4,19.2,87.37,2.19,-0.36,-589.84,-2.19,-11.14,0.44,0.08,-0.25,7.53,37.1688894,-97.7336014,426
1.79,75.27,97034,363.48,148.42,140.4,19.2,87.37,2.19,-0.36,-589.84,-2.19,-11.14,0.44,0.08,-0.25,7.53,37.1688894,-97.7336014,426
1.79,75.27,97034,363.48,148.42,140.4,19.2,87.37,2.19,-0.36,-589.84,-2.19,-11.14,0.44,0.08,-0.25,7.53,37.1688894,-97.7336014,426
1.8,75.27,97015,365.12,150.06,141.14,19.2,87.35,1.83,-0.75,-596.07,-2.12,-10.71,0.44,0.11,-0.26,7.58,37.1688894,-97.7336014,426
1.81,75.27,96991,367.19,152.13,141.89,19.2,87.4,1.87,-1.27,-602.36,-2.12,-10.52,0.44,0.14,-0.24,7.61,37.1688894,-97.7336014,426
1.82,75.27,96979,368.22,153.16,142.63,19.2,87.35,2.56,-0.51,-606.69,-2.25,-10.1,0.44,0.16,-0.25,7.64,37.1688894,-97.7336014,426
1.83,75.8,96953,370.46,155.4,143.38,19.2,87.5,3.05,-0.36,-611.88,-2,-9.79,0.43,0.18,-0.24,7.66,37.1688894,-97.7336014,426
1.84,75.8,96919,373.4,158.34,144.13,19.2,87.73,2.14,-0.58,-616.64,-1.21,-9.37,0.43,0.22,-0.24,7.66,37.1688894,-97.7336014,426
1.85,75.27,96908,374.35,159.29,144.88,19.2,87.41,2.62,-0.42,-621.16,-0.84,-9.3,0.43,0.24,-0.22,7.65,37.1688894,-97.7336014,426
1.86,75.8,96888,376.07,161.01,145.63,19.2,87.26,4,-0.78,-626.16,-1.15,-9,0.43,0.26,-0.2,7.63,37.1688894,-97.7336014,426
1.87,75.8,96882,376.59,161.53,146.38,19.2,87.53,2.75,-0.65,-632.81,-0.78,-8.08,0.43,0.29,-0.18,7.6,37.1688894,-97.7336014,426
1.88,75.8,96854,379.01,163.95,147.13,19.2,87.57,2.71,-1.87,-637.33,0.44,-8.08,0.43,0.31,-0.17,7.56,37.1688894,-97.7336014,426
1.89,75.8,96836,380.56,165.5,147.88,19.2,87.6,3.27,-2.03,-642.46,1.23,-7.41,0.43,0.32,-0.14,7.5,37.1688894,-97.7336014,426
1.9,75.8,96814,382.46,167.4,148.63,19.2,87.69,2.56,-1.26,-647.4,1.84,-6.19,0.43,0.33,-0.12,7.45,37.1688894,-97.7336014,426
1.91,75.8,96796,384.02,168.96,149.38,19.2,87.47,2.02,-1.41,-652.71,2.39,-6.5,0.43,0.35,-0.11,7.38,37.1688894,-97.7336014,426
1.92,75.8,96775,385.83,170.77,150.13,19.2,87.61,2.85,-1.62,-658.08,3.86,-7.17,0.43,0.37,-0.07,7.3,37.1688894,-97.7336014,426
1.93,75.8,96758,387.3,172.24,150.88,19.2,87.42,2.32,-1.82,-660.46,5.44,-8.02,0.43,0.37,-0.05,7.21,37.1688894,-97.7336014,426
1.94,75.8,96722,390.41,175.35,151.63,19.2,87.46,2.21,-0.2,-664.37,5.93,-8.27,0.43,0.37,-0.01,7.11,37.1688894,-97.7336014,426
1.94,75.8,96722,390.41,175.35,151.63,19.2,87.46,2.21,-0.2,-664.37,5.93,-8.27,0.43,0.37,-0.01,7.11,37.1688894,-97.7336014,426
1.95,75.8,96716,390.93,175.87,152.38,19.2,87.41,2.63,-1.48,-669.13,6.3,-8.63,0.43,0.38,0.01,7.01,37.1688894,-97.7336014,426
1.96,75.8,96702,392.14,177.08,153.13,19.2,87.47,1.47,-1.87,-674.14,7.27,-9.61,0.43,0.37,0.06,6.9,37.1688894,-97.7336014,426
1.97,75.27,96684,393.7,178.64,153.88,19.2,87.42,2.69,0.19,-679.14,7.7,-10.77,0.42,0.36,0.08,6.79,37.1688894,-97.7336014,426
1.98,75.27,96663,395.51,180.45,154.63,19.2,87.42,2.67,0.34,-684.64,7.15,-11.32,0.43,0.35,0.1,6.69,37.1688894,-97.7336014,426
1.99,75.27,96640,397.5,182.44,155.38,19.2,87.36,1.77,-0.93,-690.01,6.85,-12.05,0.43,0.34,0.14,6.59,37.1688894,-97.7336014,426
2,75.27,96630,398.37,183.31,156.13,19.2,87.38,2.42,-0.87,-695.38,6.6,-13.27,0.42,0.32,0.16,6.49,37.1688894,-97.7336014,426
2.01,75.27,96606,400.44,185.38,156.87,19.2,87.15,2.45,-0.73,-700.5,5.93,-13.27,0.43,0.29,0.17,6.41,37.1688894,-97.7336014,426
2.02,75.27,96593,401.57,186.51,157.62,19.2,87.18,1.37,-1.05,-704.96,5.5,-14.06,0.43,0.27,0.2,6.33,37.1688894,-97.7336014,426
2.03,75.27,96550,405.29,190.23,158.37,19.2,87.33,1.94,-0.9,-710.45,5.14,-15.77,0.43,0.25,0.22,6.26,37.1688894,-97.7336014,426
2.04,75.27,96535,406.59,191.53,159.12,19.2,87.19,3.22,-0.97,-714.91,4.47,-16.38,0.43,0.21,0.24,6.2,37.1688894,-97.7336014,426
2.05,75.27,96520,407.89,192.83,159.86,19.2,87.27,1.99,-0.82,-720.28,3.67,-16.14,0.43,0.18,0.25,6.16,37.1688894,-97.7336014,426
2.06,75.27,96487,410.74,195.68,160.61,19.2,87.24,1.64,-1.39,-725.77,2.76,-16.99,0.43,0.16,0.26,6.14,37.1688894,-97.7336014,426
2.07,75.27,96463,412.82,197.76,161.36,19.2,87.09,3.5,-1.13,-731.21,2.15,-17.36,0.43,0.13,0.25,6.13,37.1688894,-97.7336014,426
2.08,75.27,96449,414.03,198.98,162.11,19.2,87.08,2.56,-0.68,-735.91,2.09,-17.61,0.44,0.09,0.24,6.15,37.1688894,-97.7336014,426
2.09,75.27,96441,414.73,199.67,162.86,19.2,87.11,2.78,0.27,-739.32,1.17,-18.09,0.44,0.06,0.25,6.19,37.1688894,-97.7336014,426
2.1,75.27,96416,416.89,201.84,163.6,19.2,87.19,3.48,-1.55,-744.45,0.07,-17.97,0.44,0.03,0.24,6.25,37.1688894,-97.7336014,426
2.11,75.27,96390,419.15,204.09,164.35,19.2,87.11,3.07,-1.63,-750.98,0.07,-17.42,0.44,0,0.22,6.33,37.1688894,-97.7336014,426
2.12,75.8,96366,421.23,206.17,165.1,19.2,87.33,3.02,0.01,-754.95,-0.54,-17.36,0.44,-0.04,0.19,6.43,37.1688894,-97.7336014,426
2.13,75.8,96351,422.53,207.47,165.85,19.2,87.63,3.77,-1.56,-760.75,-1.76,-16.93,0.44,-0.06,0.18,6.54,37.1688894,-97.7336014,426
2.14,75.8,96323,424.96,209.9,166.6,19.2,87.52,3.27,-2.15,-765.94,-1.27,-15.9,0.44,-0.08,0.16,6.66,37.1688894,-97.7336014,426
2.15,75.27,96298,427.12,212.07,167.35,19.2,87.57,3.73,-0.49,-771.61,-1.15,-15.84,0.44,-0.1,0.13,6.79,37.1688894,-97.7336014,426
2.16,75.8,96270,429.55,214.49,168.1,19.2,87.3,3.66,-1.98,-776.92,-1.88,-14.92,0.44,-0.12,0.1,6.92,37.1688894,-97.7336014,426
2.17,75.8,96252,431.12,216.06,168.85,19.2,87.57,2.9,-2.8,-781.81,-1.15,-14.19,0.44,-0.12,0.07,7.06,37.1688894,-97.7336014,426
2.18,75.27,96227,433.29,218.23,169.6,19.2,87.48,3.19,-1.29,-787.54,-0.29,-13.94,0.44,-0.13,0.03,7.2,37.1688894,-97.7336014,426
2.19,75.27,96193,436.24,221.18,170.35,19.2,87.27,2.94,-1.64,-792.3,-0.23,-13.64,0.44,-0.13,0,7.34,37.1688894,-97.7336014,426
2.2,75.27,96185,436.93,221.87,171.1,19.2,87.23,2.39,-2.48,-797.92,-0.17,-13.21,0.44,-0.13,-0.02,7.47,37.1688894,-97.7336014,426
2.21,75.27,96158,439.28,224.22,171.84,19.2,87.32,2.57,-2.05,-802.86,0.74,-13.64,0.44,-0.12,-0.07,7.59,37.1688894,-97.7336014,426
2.22,75.27,96141,440.75,225.69,172.59,19.2,87.28,2.98,-1.83,-809.03,1.05,-14.13,0.44,-0.11,-0.11,7.71,37.1688894,-97.7336014,426
2.23,75.27,96121,442.49,227.43,173.33,19.2,87.22,2.15,-2.29,-815.07,0.99,-14.49,0.44,-0.1,-0.14,7.83,37.1688894,-97.7336014,426
2.24,75.27,96092,445.01,229.95,174.08,19.2,87.15,2.11,-2.63,-820.32,1.23,-15.59,0.44,-0.07,-0.17,7.93,37.1688894,-97.7336014,426
2.25,75.27,96058,447.96,232.91,174.82,19.2,87.13,2.71,-2.39,-825.69,1.72,-16.02,0.44,-0.04,-0.18,8.02,37.1688894,-97.7336014,426
2.26,75.27,96047,448.92,233.86,175.57,19.2,87.34,2.38,-1.98,-831.25,2.33,-16.38,0.44,-0.02,-0.22,8.09,37.1688894,-97.7336014,426
2.26,75.27,96047,448.92,233.86,175.57,19.2,87.34,2.38,-1.98,-831.25,2.33,-16.38,0.44,-0.02,-0.22,8.09,37.1688894,-97.7336014,426
2.27,75.8,96013,451.88,236.82,176.31,19.2,87.31,1.98,-1.56,-837.11,2.45,-17.42,0.44,0.01,-0.24,8.15,37.1688894,-97.7336014,426
2.28,75.27,96019,451.35,236.3,177.06,19.2,87.41,2.83,-1.78,-843.51,2.15,-18.46,0.43,0.06,-0.25,8.19,37.1688894,-97.7336014,426
2.29,75.27,95983,454.49,239.43,177.8,19.2,87.37,2.38,-2.17,-851.27,1.42,-19.25,0.43,0.09,-0.26,8.21,37.1688894,-97.7336014,426
2.3,75.27,95948,457.53,242.47,178.55,19.2,87.37,1.85,-2.35,-858.41,0.62,-19.74,0.43,0.13,-0.25,8.22,37.1688894,-97.7336014,426
2.31,75.27,95937,458.49,243.43,179.29,19.2,87.44,2.37,-2.68,-862.68,-0.05,-20.72,0.43,0.17,-0.24,8.21,37.1688894,-97.7336014,426
2.32,75.27,95909,460.92,245.86,180.04,19.2,87.48,3.47,-3.14,-867.93,0.26,-21.08,0.43,0.21,-0.24,8.17,37.1688894,-97.7336014,426
2.33,75.8,95877,463.71,248.65,180.78,19.2,87.51,2.79,-1.37,-873.73,-0.29,-21.33,0.43,0.24,-0.22,8.11,37.1688894,-97.7336014,426
2.34,75.8,95874,463.97,248.91,181.53,19.2,87.46,2.35,-1.98,-878.31,-0.84,-21.69,0.43,0.27,-0.2,8.03,37.1688894,-97.7336014,426
2.35,75.8,95829,467.89,252.83,182.28,19.2,87.45,2.96,-2.43,-882.21,-1.33,-22.24,0.43,0.3,-0.17,7.93,37.1688894,-97.7336014,426
2.36,75.8,95818,468.85,253.79,183.03,19.2,87.24,3.63,-1.01,-886.85,-2.12,-22.18,0.42,0.33,-0.14,7.8,37.1688894,-97.7336014,426
2.37,75.27,95792,471.11,256.05,183.78,19.2,87.44,3,-1.76,-892.04,-3.35,-21.39,0.42,0.34,-0.12,7.67,37.1688894,-97.7336014,426
2.38,75.27,95774,472.68,257.62,184.52,19.2,87.49,2.33,-2.52,-895.64,-3.16,-20.84,0.43,0.36,-0.09,7.52,37.1688894,-97.7336014,426
2.39,75.27,95749,474.86,259.8,185.27,19.2,87.41,3.71,-0.77,-900.03,-3.16,-20.17,0.42,0.37,-0.04,7.35,37.1688894,-97.7336014,426
2.4,75.27,95717,477.65,262.59,186.02,19.2,87.5,2.19,-0.68,-905.47,-4.02,-19.44,0.42,0.38,-0.01,7.18,37.1688894,-97.7336014,426
2.41,75.27,95707,478.52,263.46,186.76,19.2,87.04,1.61,-1.95,-912,-4.99,-19.62,0.42,0.37,0.02,7,37.1688894,-97.7336014,426
2.42,75.27,95688,480.17,265.12,187.51,19.2,86.96,1.96,-1.9,-918.83,-6.03,-20.23,0.43,0.36,0.07,6.8,37.1688894,-97.7336014,426
2.43,75.27,95641,484.27,269.21,188.26,19.2,87.17,3.3,-2.25,-923.84,-6.46,-20.23,0.43,0.35,0.12,6.59,37.1688894,-97.7336014,426
2.44,75.27,95623,485.84,270.78,189,19.2,86.98,2.3,-2.17,-929.15,-6.28,-18.89,0.43,0.33,0.15,6.39,37.1688894,-97.7336014,426
2.45,75.27,95624,485.76,270.7,189.75,19.2,86.9,2.1,-1.01,-935.31,-6.28,-19.01,0.43,0.29,0.18,6.2,37.1688894,-97.7336014,426
2.46,75.27,95590,488.72,273.66,190.5,19.2,86.98,2.54,-2.19,-941.3,-7.25,-18.64,0.43,0.26,0.21,6,37.1688894,-97.7336014,426
2.47,75.27,95554,491.86,276.81,191.25,19.2,87.14,2.11,-2.6,-946.91,-7.19,-18.52,0.43,0.23,0.23,5.82,37.1688894,-97.7336014,426
2.48,75.27,95538,493.26,278.2,191.99,19.2,87.39,2.5,-1.39,-952.47,-6.89,-18.64,0.44,0.19,0.23,5.65,37.1688894,-97.7336014,426
2.49,75.27,95522,494.66,279.6,192.74,19.2,87.37,2.36,-0.63,-959.61,-7.25,-18.22,0.44,0.14,0.23,5.51,37.1688894,-97.7336014,426
2.5,75.27,95489,497.54,282.48,193.49,19.2,87.51,1.67,-2.77,-966.2,-7.31,-17.85,0.44,0.11,0.25,5.4,37.1688894,-97.7336014,426
2.51,75.27,95470,499.2,284.14,194.24,19.2,87.49,2.05,-0.93,-973.16,-7.31,-17.73,0.44,0.06,0.23,5.32,37.1688894,-97.7336014,426
2.52,75.27,95465,499.64,284.58,194.99,19.2,87.39,1.93,-1.32,-978.59,-8.11,-17.61,0.44,0.02,0.22,5.27,37.1688894,-97.7336014,426
2.53,75.27,95428,502.87,287.81,195.74,19.2,87.21,1.47,-1.67,-984.69,-8.35,-17.54,0.44,-0.01,0.21,5.25,37.1688894,-97.7336014,426
2.54,75.27,95398,505.49,290.43,196.49,19.2,87.46,0.82,-0.83,-990.31,-8.84,-17.85,0.45,-0.04,0.19,5.28,37.1688894,-97.7336014,426
2.55,75.27,95379,507.15,292.09,197.24,19.2,87.22,1.63,-1.75,-994.95,-9.21,-17.79,0.44,-0.07,0.16,5.34,37.1688894,-97.7336014,426
2.56,75.27,95342,510.39,295.33,197.99,19.2,87.25,1.06,-0.99,-997.88,-9.63,-17.61,0.45,-0.1,0.12,5.44,37.1688894,-97.7336014,426
2.57,75.27,95349,509.77,294.72,198.73,19.2,87.08,0.84,0.11,-1002.7,-9.88,-17.91,0.45,-0.12,0.07,5.57,37.1688894,-97.7336014,426
2.58,75.27,95309,513.27,298.21,199.48,19.2,87.21,1.57,-0.28,-1007.15,-10.67,-18.22,0.45,-0.12,0.03,5.73,37.1688894,-97.7336014,426
2.58,75.27,95309,513.27,298.21,199.48,19.2,87.21,1.57,-0.28,-1007.15,-10.67,-18.22,0.45,-0.12,0.03,5.73,37.1688894,-97.7336014,426
2.59,75.27,95285,515.37,300.31,200.23,19.2,87.15,2.14,-0.9,-1011.85,-11.46,-18.03,0.45,-0.13,-0.01,5.91,37.1688894,-97.7336014,426
2.6,75.27,95256,517.91,302.85,200.98,19.2,87.34,2.14,-0.16,-1018.81,-12.2,-17.42,0.45,-0.12,-0.08,6.11,37.1688894,-97.7336014,426
2.61,75.27,95225,520.62,305.56,201.73,19.2,87.47,1.85,-0.25,-1022.78,-12.81,-16.38,0.45,-0.1,-0.1,6.31,37.1688894,-97.7336014,426
2.62,75.27,95209,522.02,306.97,202.47,19.2,87.16,2.08,-1.16,-1027.05,-13.36,-15.47,0.45,-0.09,-0.15,6.51,37.1688894,-97.7336014,426
2.63,75.27,95192,523.51,308.45,203.22,19.2,87.4,1.49,-0.93,-1032.12,-13.9,-15.1,0.44,-0.06,-0.17,6.72,37.1688894,-97.7336014,426
2.64,75.27,95164,525.96,310.91,203.97,19.2,87.46,2.39,-1.27,-1037.55,-13.9,-13.94,0.44,-0.01,-0.2,6.91,37.1688894,-97.7336014,426
2.65,75.27,95129,529.03,313.97,204.72,19.2,87.44,0.26,-1.92,-1043.53,-13.11,-12.48,0.44,0.03,-0.22,7.09,37.1688894,-97.7336014,426
2.66,75.27,95101,531.48,316.42,205.46,19.2,87.15,0.34,-0.28,-1049.94,-12.93,-12.42,0.44,0.07,-0.24,7.24,37.1688894,-97.7336014,426
2.67,75.8,95091,532.36,317.3,206.21,19.2,87,-1.23,-0.91,-1055.74,-13.11,-12.72,0.44,0.11,-0.26,7.39,37.1688894,-97.7336014,426
2.68,75.8,95061,534.99,319.93,206.97,19.2,87.47,-0.95,-1.09,-1061.36,-13.05,-14.43,0.44,0.15,-0.25,7.51,37.1688894,-97.7336014,426
2.69,76.86,95053,535.69,320.63,207.72,19.2,88,0.69,0.08,-1067.22,-12.75,-14.98,0.43,0.21,-0.23,7.6,37.1688894,-97.7336014,426
2.7,76.33,95015,539.02,323.96,208.47,19.2,88.42,0.09,2.27,-1073.26,-13.54,-14.8,0.43,0.24,-0.21,7.67,37.1688894,-97.7336014,426
2.71,75.27,94999,540.43,325.37,209.22,19.2,87.94,-0.88,0.26,-1079.18,-14.82,-15.35,0.43,0.28,-0.19,7.71,37.1688894,-97.7336014,426
2.72,75.27,94974,542.62,327.56,209.97,19.2,87.45,-0.06,0.11,-1085.47,-15.8,-15.65,0.43,0.32,-0.15,7.73,37.1688894,-97.7336014,426
2.73,75.27,94940,545.6,330.54,210.71,19.2,87.39,0.57,2.75,-1093.4,-17.26,-16.02,0.42,0.35,-0.11,7.72,37.1688894,-97.7336014,426
2.74,75.27,94920,547.36,332.3,211.46,19.2,87.2,1.31,1.14,-1101.4,-18.73,-15.04,0.42,0.37,-0.08,7.68,37.1688894,-97.7336014,426
2.75,75.27,94896,549.46,334.4,212.21,19.2,87.01,0.51,0.64,-1108.05,-19.58,-13.52,0.42,0.38,-0.02,7.63,37.1688894,-97.7336014,426
2.76,75.27,94856,552.97,337.92,212.95,19.2,87.2,0.65,1.73,-1115.07,-19.7,-13.03,0.42,0.38,0.02,7.54,37.1688894,-97.7336014,426
2.77,75.27,94819,556.22,341.17,213.69,19.2,87.09,2.19,1.75,-1122.15,-20.62,-11.14,0.42,0.37,0.07,7.44,37.1688894,-97.7336014,426
2.78,74.74,94800,557.89,342.83,214.44,19.2,87.06,0.28,0.74,-1128.8,-20.31,-9.67,0.42,0.35,0.11,7.32,37.1688894,-97.7336014,426
2.79,74.74,94779,559.74,344.68,215.18,19.2,86.96,0.79,1.85,-1135.15,-19.95,-9,0.42,0.32,0.16,7.17,37.1688519,-97.7333182,541
2.79,74.74,94779,559.74,344.68,215.18,19.2,86.96,0.79,1.85,-1135.15,-19.95,-9,0.42,0.32,0.16,7.17,37.1688519,-97.7333182,541
2.79,74.74,94779,559.74,344.68,215.18,19.2,86.96,0.79,1.85,-1135.15,-19.95,-9,0.42,0.32,0.16,7.17,37.1688519,-97.7333182,541
2.8,74.74,94744,562.81,347.75,215.92,19.2,86.91,2.16,0.55,-1142.23,-19.76,-7.17,0.43,0.3,0.19,7.02,37.1688519,-97.7333182,541
2.81,74.74,94709,565.89,350.83,216.67,19.2,86.88,1.04,0.21,-1148.21,-18.73,-6.19,0.43,0.24,0.22,6.86,37.1688519,-97.7333182,541
2.82,75.27,94688,567.74,352.68,217.41,19.2,86.86,1.24,1.33,-1154.86,-17.45,-5.58,0.43,0.2,0.24,6.69,37.1688519,-97.7333182,541
2.83,75.27,94673,569.06,354,218.16,19.2,86.91,0.8,1.11,-1160.54,-16.59,-4.97,0.43,0.16,0.26,6.52,37.1688519,-97.7333182,541
2.84,75.27,94628,573.01,357.96,218.9,19.2,87.13,0.77,0.76,-1166.95,-15.74,-5.03,0.43,0.11,0.25,6.35,37.1688519,-97.7333182,541
2.85,75.27,94626,573.19,358.13,219.65,19.2,87.3,0.63,1.88,-1173.18,-14.45,-5.21,0.44,0.06,0.24,6.2,37.1688519,-97.7333182,541
2.86,75.27,94579,577.33,362.27,220.4,19.2,87.22,-0.41,1.95,-1180.19,-13.9,-5.28,0.44,0.01,0.22,6.07,37.1688519,-97.7333182,541
2.87,75.27,94549,579.97,364.91,221.14,19.2,87.01,-0.43,2.26,-1187.21,-13.11,-6.13,0.44,-0.03,0.19,5.96,37.1688519,-97.7333182,541
2.88,75.27,94519,582.61,367.55,221.89,19.2,87.08,0.76,3.94,-1194.66,-13.48,-7.78,0.45,-0.07,0.16,5.89,37.1688519,-97.7333182,541
2.89,74.74,94497,584.55,369.49,222.64,19.2,87.31,1.54,4.36,-1201.44,-14.52,-7.78,0.45,-0.1,0.12,5.84,37.1688519,-97.7333182,541
2.9,74.74,94458,587.98,372.92,223.38,19.2,87.1,0.63,4.07,-1208.33,-15.55,-6.86,0.45,-0.12,0.07,5.81,37.1688519,-97.7333182,541
2.9,74.74,94458,587.98,372.92,223.38,19.2,87.1,0.63,4.07,-1208.33,-15.55,-6.86,0.45,-0.12,0.07,5.81,37.1688519,-97.7333182,541
2.91,75.27,94447,588.95,373.89,224.13,19.2,87.09,0.88,4.57,-1214.62,-17.2,-7.41,0.45,-0.12,0.01,5.82,37.1688519,-97.7333182,541
2.92,75.27,94399,593.18,378.12,224.87,19.2,87.11,2.64,3.75,-1220.24,-18.48,-7.17,0.45,-0.12,-0.05,5.88,37.1688519,-97.7333182,541
2.93,74.74,94370,595.74,380.68,225.62,19.2,87.03,2.78,3.24,-1226.77,-18.6,-5.52,0.45,-0.11,-0.1,5.96,37.1688519,-97.7333182,541
2.94,75.27,94340,598.38,383.33,226.37,19.2,86.93,2.44,4.26,-1232.99,-18.73,-3.81,0.45,-0.07,-0.15,6.07,37.1688519,-97.7333182,541
2.95,75.27,94308,601.21,386.15,227.11,19.2,86.98,2.77,2.67,-1238.73,-18.6,-2.04,0.45,-0.04,-0.18,6.2,37.1688519,-97.7333182,541
2.96,75.27,94282,603.5,388.44,227.86,19.2,86.83,3.33,2.22,-1244.89,-17.32,-1.19,0.45,0.01,-0.22,6.34,37.1688519,-97.7333182,541
2.97,74.74,94253,606.06,391,228.6,19.2,87.14,3.05,3.96,-1251.49,-15.67,-0.15,0.44,0.06,-0.23,6.48,37.1688519,-97.7333182,541
2.98,74.74,94231,608,392.94,229.35,19.2,87.08,2.53,4.05,-1258.63,-14.33,2.17,0.44,0.11,-0.23,6.61,37.1688519,-97.7333182,541
2.99,75.27,94198,610.92,395.86,230.09,19.2,87.08,1.69,2.55,-1264.36,-12.68,1.99,0.44,0.17,-0.23,6.74,37.1688519,-97.7333182,541
3,74.74,94167,613.65,398.6,230.83,19.2,86.9,2.48,3.64,-1270.35,-11.04,1.38,0.43,0.21,-0.23,6.85,37.1688519,-97.7333182,541
3.01,74.74,94139,616.13,401.07,231.58,19.2,86.9,2.24,4.17,-1275.9,-9.94,1.19,0.43,0.26,-0.2,6.95,37.1688519,-97.7333182,541
3.02,74.74,94116,618.16,403.1,232.32,19.2,87.06,1.69,4.42,-1281.09,-9.57,-0.45,0.43,0.31,-0.15,7.02,37.1688519,-97.7333182,541
3.03,74.74,94085,620.9,405.84,233.06,19.2,87.04,2.82,3.93,-1287.38,-8.9,-1.19,0.43,0.34,-0.12,7.07,37.1688519,-97.7333182,541
3.04,74.74,94048,624.17,409.11,233.8,19.2,86.89,3.62,4.23,-1293.05,-8.47,-2.83,0.42,0.36,-0.06,7.08,37.1688519,-97.7333182,541
3.05,74.74,94018,626.82,411.76,234.54,19.2,86.93,2.24,5.18,-1298.97,-8.72,-3.32,0.42,0.38,-0.01,7.08,37.1688519,-97.7333182,541
3.06,74.74,93984,629.83,414.77,235.28,19.2,86.72,3.04,4.93,-1304.47,-9.14,-3.38,0.42,0.37,0.04,7.05,37.1688519,-97.7333182,541
3.07,74.74,93954,632.49,417.43,236.02,19.2,86.9,3.66,4.46,-1309.65,-9.51,-4.42,0.42,0.36,0.11,6.99,37.1688519,-97.7333182,541
3.08,74.74,93937,633.99,418.93,236.77,19.2,86.82,4.45,5.3,-1314.54,-10.12,-3.44,0.42,0.33,0.15,6.93,37.1688519,-97.7333182,541
3.09,74.74,93903,637,421.94,237.51,19.2,86.73,4.17,5,-1320.21,-10.73,-3.2,0.43,0.29,0.2,6.84,37.1688519,-97.7333182,541
3.1,74.74,93852,641.52,426.46,238.25,19.2,86.59,4.2,4.87,-1325.16,-10.85,-2.65,0.43,0.24,0.23,6.74,37.1688519,-97.7333182,541
3.11,74.74,93846,642.05,426.99,238.99,19.2,86.8,4.89,5.24,-1330.77,-10.85,-3.02,0.43,0.18,0.25,6.64,37.1688519,-97.7333182,541
3.12,74.74,93799,646.21,431.15,239.73,19.2,86.68,4.41,4.36,-1335.66,-10.55,-0.88,0.43,0.12,0.26,6.53,37.1688519,-97.7333182,541
3.13,74.74,93778,648.07,433.01,240.48,19.2,86.85,4.3,3.68,-1340.91,-9.75,-0.76,0.43,0.07,0.24,6.43,37.1688519,-97.7333182,541
3.14,74.74,93750,650.55,435.5,241.22,19.2,86.77,3.96,4.76,-1346.76,-9.14,-0.7,0.44,0.01,0.23,6.35,37.1688519,-97.7333182,541
3.15,75.27,93721,653.12,438.07,241.96,19.2,86.83,4.44,4.15,-1352.5,-8.41,-1.8,0.44,-0.04,0.19,6.27,37.1688519,-97.7333182,541
3.16,75.27,93691,655.79,440.73,242.71,19.2,87.03,4.7,5.58,-1358.79,-8.29,-1.06,0.44,-0.07,0.16,6.21,37.1688519,-97.7333182,541
3.17,74.74,93648,659.6,444.54,243.45,19.2,86.97,5.97,3.41,-1363.73,-7.37,-0.76,0.44,-0.1,0.11,6.17,37.1688519,-97.7333182,541
3.18,74.74,93633,660.93,445.87,244.2,19.2,86.9,6.05,3.13,-1367.09,-5.97,-0.82,0.45,-0.12,0.05,6.15,37.1688519,-97.7333182,541
3.19,74.74,93594,664.39,449.33,244.94,19.2,86.94,5.83,5.22,-1370.57,-5.66,-0.94,0.45,-0.12,-0.01,6.15,37.1688519,-97.7333182,541
3.2,74.74,93568,666.7,451.64,245.68,19.2,87.02,6,2.64,-1375.45,-4.63,-1.55,0.45,-0.11,-0.08,6.17,37.1688519,-97.7333182,541
3.21,75.27,93529,670.16,455.1,246.43,19.2,87.07,5.88,3.83,-1378.99,-3.28,-1.25,0.45,-0.09,-0.12,6.19,37.1688519,-97.7333182,541
3.22,75.27,93490,673.63,458.57,247.17,19.2,86.98,5.85,3.99,-1383.57,-2.86,-2.71,0.45,-0.06,-0.18,6.23,37.1688519,-97.7333182,541
3.22,75.27,93490,673.63,458.57,247.17,19.2,86.98,5.85,3.99,-1383.57,-2.86,-2.71,0.45,-0.06,-0.18,6.23,37.1688519,-97.7333182,541
3.23,75.27,93471,675.32,460.26,247.92,19.2,87.08,4.71,2.29,-1387.11,-1.94,-2.22,0.45,-0.01,-0.21,6.26,37.1688519,-97.7333182,541
3.24,74.74,93442,677.89,462.84,248.66,19.2,86.93,5.74,4.28,-1391.57,-1.15,-5.34,0.44,0.05,-0.23,6.3,37.1688519,-97.7333182,541
3.25,74.74,93417,680.12,465.06,249.41,19.2,86.84,5.94,5.13,-1395.96,-1.45,-5.76,0.44,0.11,-0.23,6.33,37.1688519,-97.7333182,541
3.26,74.74,93383,683.14,468.08,250.15,19.2,86.83,4.79,4.97,-1400.78,-1.45,-6.98,0.44,0.17,-0.23,6.35,37.1688519,-97.7333182,541
3.27,74.74,93345,686.52,471.46,250.89,19.2,86.76,5.93,5.48,-1405.54,-2.74,-9.37,0.43,0.23,-0.21,6.36,37.1688519,-97.7333182,541
3.28,74.74,93321,688.65,473.6,251.64,19.2,86.65,6.68,4.88,-1412.2,-5.24,-9.18,0.43,0.28,-0.19,6.38,37.1688519,-97.7333182,541
3.29,74.74,93300,690.52,475.46,252.38,19.2,86.5,5.77,4.45,-1418.97,-6.15,-7.05,0.43,0.32,-0.14,6.39,37.1688519,-97.7333182,541
3.3,75.27,93243,695.6,480.54,253.12,19.2,86.86,4.9,5.08,-1423,-8.05,-8.39,0.43,0.35,-0.08,6.38,37.1688519,-97.7333182,541
3.31,75.27,93229,696.84,481.78,253.87,19.2,87.1,7.27,1.93,-1428.55,-9.39,-6.5,0.43,0.37,-0.02,6.36,37.1688519,-97.7333182,541
3.32,74.74,93198,699.6,484.55,254.61,19.2,87.07,7.04,2.51,-1431.24,-6.58,-5.7,0.43,0.37,0.04,6.33,37.1688519,-97.7333182,541
3.33,74.74,93180,701.21,486.15,255.36,19.2,87.01,7.25,7.24,-1434.29,-6.28,-5.03,0.43,0.34,0.1,6.28,37.1688519,-97.7333182,541
3.34,74.74,93141,704.68,489.62,256.1,19.2,87,4.9,2.49,-1437.04,-7.74,-3.75,0.43,0.32,0.15,6.22,37.1688519,-97.7333182,541
3.35,75.27,93114,707.09,492.03,256.85,19.2,86.81,4.95,0.07,-1439.79,-5.24,-5.76,0.43,0.28,0.2,6.15,37.1688519,-97.7333182,541
3.36,74.74,93075,710.57,495.51,257.59,19.2,87.1,6.82,5.1,-1444.12,-4.08,-5.58,0.43,0.23,0.22,6.08,37.1688519,-97.7333182,541
3.37,74.74,93044,713.33,498.27,258.33,19.2,87.01,5.54,4.62,-1447.78,-4.81,-6.01,0.43,0.17,0.24,6.01,37.1688519,-97.7333182,541
3.38,74.74,93009,716.45,501.39,259.08,19.2,86.58,3.34,2.59,-1452.79,-4.02,-6.74,0.44,0.11,0.25,5.95,37.1688519,-97.7333182,541
3.39,74.74,92974,719.58,504.52,259.82,19.2,86.84,5.19,4.4,-1457.49,-5.05,-9.24,0.44,0.05,0.24,5.89,37.1688519,-97.7333182,541
3.4,74.74,92951,721.63,506.57,260.56,19.2,86.99,8.23,1.26,-1463.35,-5.79,-9.43,0.44,-0.01,0.21,5.85,37.1688519,-97.7333182,541
3.41,74.74,92921,724.31,509.25,261.31,19.2,86.64,3.9,3.5,-1466.82,-3.77,-8.88,0.44,-0.06,0.18,5.85,37.1688519,-97.7333182,541
3.42,74.74,92899,726.27,511.21,262.05,19.2,86.98,6.18,6.77,-1470.91,-6.28,-11.56,0.45,-0.09,0.13,5.88,37.1688519,-97.7333182,541
3.43,75.27,92856,730.11,515.05,262.79,19.1,86.76,7.09,-0.77,-1473.84,-8.35,-10.77,0.45,-0.11,0.07,5.93,37.1688519,-97.7333182,541
3.44,74.74,92832,732.26,517.2,263.54,19.2,86.97,4.92,4.11,-1476.29,-6.58,-10.46,0.45,-0.13,0,6.01,37.1688519,-97.7333182,541
3.45,74.74,92788,736.19,521.13,264.28,19.2,86.72,7.68,6.39,-1478.54,-7.8,-10.22,0.45,-0.12,-0.08,6.12,37.1688519,-97.7333182,541
3.46,74.74,92759,738.78,523.72,265.02,19.2,86.7,4.33,0.77,-1481.96,-9.51,-9,0.45,-0.08,-0.13,6.23,37.1688519,-97.7333182,541
3.47,74.74,92731,741.29,526.23,265.77,19.2,86.5,4.44,2.42,-1484.1,-7.86,-9.3,0.45,-0.05,-0.18,6.35,37.1688519,-97.7333182,541
3.48,74.74,92696,744.42,529.36,266.51,19.2,86.53,8.08,4.02,-1485.5,-7.92,-10.04,0.44,0,-0.21,6.47,37.1688519,-97.7333182,541
3.49,74.74,92668,746.92,531.86,267.25,19.2,86.45,4.83,1.6,-1487.52,-8.41,-7.84,0.44,0.07,-0.23,6.59,37.1688519,-97.7333182,541
3.5,74.21,92637,749.7,534.64,267.99,19.2,86.67,3.39,4.53,-1488.61,-8.47,-8.75,0.44,0.13,-0.23,6.69,37.1688519,-97.7333182,541
3.51,74.21,92602,752.83,537.77,268.72,19.2,86.57,5.29,3.32,-1489.41,-9.21,-9.61,0.44,0.19,-0.23,6.79,37.1688519,-97.7333182,541
3.52,74.21,92583,754.53,539.47,269.46,19.2,86.45,5.73,1.29,-1487.88,-9.57,-10.59,0.43,0.25,-0.2,6.86,37.1688519,-97.7333182,541
3.53,74.21,92541,758.29,543.23,270.2,19.2,86.37,5.62,3.42,-1484.71,-8.29,-11.07,0.43,0.3,-0.17,6.88,37.1688519,-97.7333182,541
3.54,74.21,92501,761.88,546.82,270.93,19.2,86.54,5.71,5.5,-1480.92,-8.47,-10.46,0.43,0.34,-0.11,6.88,37.1688519,-97.7333182,541
3.54,74.21,92501,761.88,546.82,270.93,19.2,86.54,5.71,5.5,-1480.92,-8.47,-10.46,0.43,0.34,-0.11,6.88,37.1688519,-97.7333182,541
3.55,74.21,92466,765.01,549.96,271.67,19.2,86.41,5.55,3.67,-1474.21,-8.78,-9.98,0.43,0.36,-0.06,6.85,37.1688519,-97.7333182,541
3.56,74.21,92434,767.88,552.82,272.41,19.2,86.22,5.66,3.37,-1464.2,-8.17,-10.28,0.43,0.37,0,6.79,37.1688519,-97.7333182,541
3.57,74.21,92412,769.86,554.8,273.14,19.2,86.31,5.94,4.37,-1455.78,-9.27,-9.18,0.43,0.36,0.07,6.71,37.1688519,-97.7333182,541
3.58,73.68,92361,774.43,559.37,273.88,19.2,86.2,3.66,2.16,-1443.87,-10.24,-9,0.43,0.33,0.13,6.61,37.1688519,-97.7333182,541
3.59,73.68,92343,776.05,560.99,274.61,19.2,85.9,4.19,2.97,-1429.84,-9.45,-10.83,0.43,0.3,0.18,6.48,37.1688519,-97.7333182,541
3.6,74.21,92317,778.38,563.32,275.34,19.2,85.88,6.56,3.26,-1416.35,-9.63,-9.73,0.43,0.26,0.22,6.35,37.1688519,-97.7333182,541
3.61,73.68,92257,783.77,568.71,276.08,19.2,85.95,1.89,0.99,-1402.31,-9.33,-8.39,0.43,0.2,0.24,6.22,37.1688519,-97.7333182,541
3.62,73.68,92238,785.47,570.41,276.81,19.2,85.52,0.93,2.75,-1387.23,-9.27,-10.89,0.43,0.14,0.25,6.09,37.1688519,-97.7333182,541
3.63,73.68,92211,787.9,572.84,277.54,19.2,85.96,2.68,-0.04,-1371.36,-9.21,-13.33,0.44,0.09,0.24,5.96,37.1688519,-97.7333182,541
3.64,73.68,92177,790.95,575.9,278.27,19.2,85.63,2.26,0.27,-1353.17,-9.69,-12.97,0.44,0.03,0.23,5.87,37.1688519,-97.7333182,541
3.65,73.68,92143,794.01,578.95,279,19.2,85.5,1.39,2.09,-1335.9,-8.9,-15.9,0.44,-0.02,0.19,5.82,37.1688519,-97.7333182,541
3.66,73.15,92101,797.79,582.73,279.73,19.2,85.53,2.36,1.54,-1317.53,-10.36,-18.03,0.44,-0.07,0.16,5.83,37.1688519,-97.7333182,541
3.67,73.15,92062,801.29,586.24,280.46,19.2,85.43,3.64,-0.07,-1298.73,-11.22,-16.99,0.45,-0.1,0.12,5.87,37.1688519,-97.7333182,541
3.68,73.68,92027,804.44,589.38,281.19,19.2,85.36,2.49,2.4,-1278.77,-11.77,-17.79,0.45,-0.11,0.07,5.97,37.1688519,-97.7333182,541
3.69,73.68,92006,806.33,591.27,281.92,19.2,85.37,4.61,-0.17,-1261.25,-13.72,-16.57,0.45,-0.13,0.01,6.09,37.1688519,-97.7333182,541
3.7,73.68,91960,810.47,595.42,282.65,19.2,85.28,3.38,-3.32,-1247.52,-13.36,-14.43,0.45,-0.12,-0.04,6.23,37.1688519,-97.7333182,541
3.71,73.15,91933,812.91,597.85,283.38,19.2,85.29,0.07,1.03,-1234.03,-11.59,-16.87,0.45,-0.1,-0.11,6.42,37.1688519,-97.7333182,541
3.72,73.15,91899,815.97,600.91,284.11,19.2,85.13,2.73,-0.21,-1219.62,-12.93,-17.61,0.45,-0.08,-0.14,6.64,37.1688519,-97.7333182,541
3.73,73.68,91870,818.58,603.52,284.84,19.2,84.57,2.16,-1.9,-1208.33,-12.44,-17.79,0.44,-0.05,-0.18,6.86,37.1688519,-97.7333182,541
3.74,72.62,91825,822.64,607.58,285.56,19.2,85.2,1.04,-4.28,-1193.81,-9.51,-18.22,0.44,0,-0.21,7.05,37.1688519,-97.7333182,541
3.75,72.62,91785,826.24,611.19,286.28,19.2,84.41,3.78,-2.37,-1181.11,-9.88,-19.07,0.44,0.05,-0.23,7.23,37.1688519,-97.7333182,541
3.76,72.62,91738,830.48,615.42,287,19.2,84.74,0.72,-1.72,-1167.19,-7.01,-20.05,0.44,0.1,-0.24,7.36,37.1688519,-97.7333182,541
3.77,72.09,91715,832.56,617.5,287.72,19.2,84.55,1.93,-0.52,-1155.41,-7.86,-23.46,0.44,0.14,-0.26,7.47,37.1688519,-97.7333182,541
3.78,72.09,91677,835.99,620.93,288.43,19.2,84.21,0.53,-1.49,-1147.91,-8.96,-26.76,0.43,0.19,-0.24,7.55,37.1688519,-97.7333182,541
3.78,72.09,91677,835.99,620.93,288.43,19.2,84.21,0.53,-1.49,-1147.91,-8.96,-26.76,0.43,0.19,-0.24,7.55,37.1688519,-97.7333182,541
3.79,72.09,91631,840.14,625.08,289.15,19.2,84.28,3.08,-3.34,-1139.48,-10,-26.82,0.43,0.24,-0.22,7.6,37.1688519,-97.7333182,541
3.8,72.09,91601,842.85,627.79,289.86,19.2,84.1,4.62,-3.37,-1131.67,-9.75,-26.15,0.43,0.28,-0.18,7.6,37.1688519,-97.7333182,541
3.81,72.09,91572,845.47,630.41,290.58,19.2,84.21,3.74,-3.66,-1123.8,-9.63,-24.93,0.43,0.31,-0.16,7.57,37.1688519,-97.7333182,541
3.82,72.09,91527,849.54,634.48,291.29,19.2,84.09,5.4,-4.52,-1116.72,-10,-25.17,0.43,0.34,-0.11,7.49,37.1688519,-97.7333182,541
3.83,72.09,91484,853.42,638.37,292,19.2,83.99,7.13,-6.02,-1112.2,-8.53,-21.76,0.43,0.36,-0.07,7.38,37.1688519,-97.7333182,541
3.84,72.09,91453,856.23,641.17,292.72,19.2,84.07,3.34,-4.28,-1107.68,-6.03,-21.82,0.42,0.37,-0.03,7.23,37.1688519,-97.7333182,541
3.85,71.56,91420,859.21,644.15,293.43,19.2,83.68,6.23,-7.24,-1104.39,-3.16,-21.57,0.43,0.37,0.02,7.05,37.1688519,-97.7333182,541
3.86,71.56,91396,861.38,646.33,294.14,19.2,83.29,5.48,-7.71,-1102.13,0.5,-21.51,0.43,0.36,0.07,6.83,37.1688519,-97.7333182,541
3.86,71.56,91396,861.38,646.33,294.14,19.2,83.29,5.48,-7.71,-1102.13,0.5,-21.51,0.43,0.36,0.07,6.83,37.1688519,-97.7333182,541
3.87,71.03,91366,864.1,649.04,294.84,19.2,83.28,5.9,-6.26,-1099.99,4.59,-22.55,0.43,0.35,0.12,6.61,37.1688519,-97.7333182,541
3.88,70.5,91325,867.81,652.75,295.55,19.1,82.95,5.57,-5.73,-1098.95,7.34,-22.55,0.43,0.31,0.16,6.4,37.1688519,-97.7333182,541
3.89,70.5,91303,869.8,654.75,296.25,19.2,82.64,5.75,-3.23,-1100.05,9.11,-24.26,0.43,0.28,0.19,6.21,37.1688519,-97.7333182,541
3.9,70.5,91266,873.16,658.1,296.95,19.2,82.52,6.54,-2.34,-1100.05,9.72,-26.21,0.43,0.25,0.22,6.06,37.1688519,-97.7333182,541
3.91,70.5,91229,876.51,661.45,297.65,19.2,82.23,8.12,-3.78,-1098.83,8.92,-27.43,0.43,0.19,0.23,5.94,37.1688519,-97.7333182,541
3.92,70.5,91204,878.77,663.72,298.35,19.1,82.43,6.76,-1.24,-1098.65,7.58,-27.98,0.44,0.15,0.24,5.88,37.1688519,-97.7333182,541
3.93,70.5,91163,882.49,667.43,299.05,19.2,82.39,10.25,-3.22,-1100.36,6.6,-28.16,0.43,0.1,0.25,5.88,37.1688519,-97.7333182,541
3.94,69.97,91134,885.12,670.06,299.75,19.2,82.43,10.49,-4.43,-1102.19,6.85,-24.38,0.44,0.06,0.24,5.95,37.1688519,-97.7333182,541
3.95,69.97,91088,889.29,674.24,300.45,19.1,82.12,8.17,-2.09,-1105.61,7.64,-21.69,0.44,0.01,0.22,6.07,37.1688519,-97.7333182,541
3.96,69.97,91061,891.74,676.69,301.14,19.2,81.49,9.84,-2.61,-1110.61,6.54,-21.27,0.44,-0.03,0.2,6.23,37.1688519,-97.7333182,541
3.97,69.97,91024,895.1,680.04,301.83,19.1,81.52,11.31,-7.11,-1117.27,7.46,-20.78,0.44,-0.07,0.16,6.41,37.1688519,-97.7333182,541
3.98,68.91,91005,896.83,681.77,302.52,19.2,81.38,12.01,-5.19,-1123.13,11.97,-17.67,0.44,-0.1,0.14,6.63,37.1688519,-97.7333182,541
3.99,68.91,90966,900.37,685.31,303.2,19.1,81.09,10.11,-1.18,-1130.39,15.15,-16.63,0.44,-0.13,0.08,6.84,37.1688519,-97.7333182,541
4,68.91,90936,903.1,688.04,303.89,19.2,80.83,10.22,-4.46,-1138.63,16.13,-16.38,0.44,-0.14,0.04,7.05,37.1688519,-97.7333182,541
4.01,67.85,90887,907.55,692.49,304.56,19.1,80.62,10.75,-5.46,-1147.48,19.97,-15.65,0.44,-0.13,0,7.23,37.1688519,-97.7333182,541
4.02,67.32,90867,909.37,694.31,305.24,19.1,79.77,10.56,1.75,-1156.33,22.17,-17.36,0.44,-0.13,-0.07,7.4,37.1688519,-97.7333182,541
4.03,67.85,90822,913.46,698.4,305.91,19.2,79.33,10.36,-0.04,-1165.24,19.79,-17.91,0.44,-0.11,-0.12,7.53,37.1688519,-97.7333182,541
4.04,67.32,90777,917.55,702.5,306.57,19.1,79.43,9.99,-5.32,-1174.76,19.79,-18.4,0.44,-0.08,-0.14,7.63,37.1688519,-97.7333182,541
4.05,66.79,90750,920.01,704.95,307.24,19.2,79.08,13.28,-1.2,-1184.28,22.11,-19.68,0.44,-0.04,-0.18,7.68,37.1688519,-97.7333182,541
4.06,66.79,90712,923.47,708.41,307.9,19.2,78.92,12.41,0.99,-1193.5,21.01,-20.6,0.44,0,-0.22,7.7,37.1688519,-97.7333182,541
4.07,66.26,90665,927.75,712.69,308.56,19.2,78.58,14.34,-1.62,-1205.22,19.48,-19.74,0.44,0.05,-0.23,7.68,37.1688519,-97.7333182,541
4.08,66.26,90632,930.76,715.7,309.22,19.2,78.27,14.22,-1.03,-1217.73,19.48,-18.58,0.44,0.1,-0.24,7.6,37.1688519,-97.7333182,541
4.09,66.26,90594,934.22,719.16,309.87,19.1,78.26,15.18,-0.32,-1225.73,19.3,-14.92,0.43,0.15,-0.24,7.46,37.1688519,-97.7333182,541
4.1,65.73,90554,937.87,722.81,310.52,19.2,77.92,16.94,-1.79,-1230.79,20.58,-10.46,0.44,0.2,-0.24,7.27,37.1688519,-97.7333182,541
4.11,65.73,90538,939.32,724.27,311.17,19.1,77.51,13.64,0.04,-1234.88,23.33,-6.92,0.44,0.24,-0.21,7.03,37.1688519,-97.7333182,541
4.12,64.67,90494,943.34,728.28,311.82,19.2,77.27,14.24,1.31,-1239.58,24.49,-6.92,0.43,0.3,-0.18,6.78,37.1688519,-97.7333182,541
4.13,64.14,90455,946.9,731.84,312.46,19.1,76.68,12.36,-0.67,-1242.88,25.46,-5.7,0.43,0.32,-0.13,6.53,37.1688519,-97.7333182,541
4.14,63.61,90434,948.81,733.75,313.09,19.1,76,12.25,1.81,-1247.03,27.3,-8.51,0.43,0.34,-0.09,6.27,37.1688519,-97.7333182,541
4.15,63.08,90408,951.19,736.13,313.72,19.1,75.35,15.56,3.35,-1250.14,26.2,-8.14,0.43,0.37,-0.02,6.05,37.1688519,-97.7333182,541
4.16,62.55,90361,955.48,740.42,314.34,19.1,75.03,11.55,2.13,-1251.3,24.55,-7.05,0.43,0.37,0.03,5.9,37.1688519,-97.7333182,541
4.17,62.02,90314,959.77,744.71,314.96,19.1,74.23,14.24,3.17,-1252.83,22.9,-8.45,0.43,0.35,0.1,5.8,37.1688519,-97.7333182,541
4.18,61.49,90279,962.97,747.91,315.58,19.1,73.82,16.67,2.3,-1254.48,21.86,-7.23,0.43,0.33,0.15,5.76,37.1688519,-97.7333182,541
4.18,61.49,90279,962.97,747.91,315.58,19.1,73.82,16.67,2.3,-1254.48,21.86,-7.23,0.43,0.33,0.15,5.76,37.1688519,-97.7333182,541
4.19,61.49,90250,965.62,750.56,316.19,19.1,73.46,12.2,4.62,-1256.61,21.44,-4.3,0.43,0.3,0.19,5.81,37.1688519,-97.7333182,541
4.2,60.96,90190,971.11,756.05,316.8,19.1,72.96,14.54,3.48,-1259.24,19.48,-2.71,0.43,0.26,0.22,5.91,37.1688519,-97.7333182,541
4.21,60.43,90164,973.48,758.43,317.4,19.2,72.74,15.5,0.33,-1260.52,20.21,0.1,0.43,0.2,0.23,6.07,37.1688519,-97.7333182,541
4.22,60.43,90124,977.15,762.09,318,19.2,72.44,14.51,4.43,-1261.74,22.66,-1.25,0.43,0.14,0.26,6.28,37.1688519,-97.7333182,541
4.23,59.37,90083,980.9,765.84,318.59,19.1,71.66,14.52,4.87,-1261.8,21.98,1.19,0.43,0.1,0.26,6.49,37.1688519,-97.7333182,541
4.24,58.84,90050,983.92,768.86,319.18,19.2,71.33,14.63,1.11,-1261.56,23.08,2.48,0.43,0.04,0.24,6.72,37.1688519,-97.7333182,541
4.25,58.84,89999,988.59,773.53,319.77,19.1,70.85,15.32,5.41,-1262.72,24.55,2.66,0.44,-0.01,0.22,6.96,37.1688519,-97.7333182,541
4.26,58.31,89962,991.98,776.92,320.35,19.1,70.49,14.99,4.83,-1264.79,24.3,4.73,0.44,-0.05,0.19,7.15,37.1688519,-97.7333182,541
