#version,serial,flight,call,time,state,state_name,acceleration,pressure,altitude,height,speed,temperature,drogue_voltage,main_voltage,battery_voltage,accel_x,accel_y,accel_z,gyro_roll,gyro_pitch,gyro_yaw,mag_x,mag_y,mag_z,tilt,pyro,igniter_a,igniter_b,igniter_c,igniter_d,connected,locked,nsat,latitude,longitude,altitude,year,month,day,hour,minute,second,pad_dist,pad_range,pad_az,pad_el,pdop,hdop,vdop,sat01,sat02,sat03,sat04,sat05,sat06,sat07,sat08,sat09,sat10,sat11,sat12,sat13,sat14,sat15,sat16,sat17,sat18,sat19,sat20,sat21,sat22,sat23,sat24,sat25,sat26,sat27,sat28,sat29,sat30,sat31,sat32
6,1257,17,KB0G,-0.3,3,   boost,0,83103,1641.02,1.37,0,33,4.2,4.17,4.16,9.9,0.32,0.08,-0.02,-0.2,-0.02,-0.05,-0.47,-0.03,1.87,4.18,0,0.01,0.01,0.01,1,1,13,40.8858039,-104.6377364,1671,2019,5,4,20,26,19,0,0,0,0,1.2,0.7,1,41,0,43,0,0,43,0,0,0,0,0,0,36,0,36,0,40,31,36,0,0,34,0,36,0,0,0,0,0,0,0,0
6,1257,17,KB0G,-0.29,3,   boost,-0.53,83123,1639.06,-0.59,0,33,4.2,4.17,4.16,9.9,0.32,-0.02,0.1,0.05,0.28,-0.05,-0.47,-0.04,1.87,4.18,0,0.01,0.01,0.01,1,1,13,40.8858039,-104.6377364,1671,2019,5,4,20,26,19,0,0,0,0,1.2,0.7,1,41,0,43,0,0,43,0,0,0,0,0,0,36,0,36,0,40,31,36,0,0,34,0,36,0,0,0,0,0,0,0,0
6,1257,17,KB0G,-0.28,3,   boost,0,83106,1640.72,1.08,0,33,4.2,4.17,4.16,9.87,0.3,0.04,-0.14,0.05,0.04,-0.05,-0.47,-0.03,1.87,4.18,0,0.01,0.01,0.01,1,1,13,40.8858039,-104.6377364,1671,2019,5,4,20,26,19,0,0,0,0,1.2,0.7,1,41,0,43,0,0,43,0,0,0,0,0,0,36,0,36,0,40,31,36,0,0,34,0,36,0,0,0,0,0,0,0,0
6,1257,17,KB0G,-0.27,3,   boost,-0.53,83115,1639.85,0.2,0,33,4.2,4.17,4.16,9.89,0.3,0.02,0.04,-0.07,-0.2,-0.05,-0.47,-0.04,1.87,4.18,0,0.01,0.01,0.01,1,1,13,40.8858039,-104.6377364,1671,2019,5,4,20,26,19,0,0,0,0,1.2,0.7,1,41,0,43,0,0,43,0,0,0,0,0,0,36,0,36,0,40,31,36,0,0,34,0,36,0,0,0,0,0,0,0,0
6,1257,17,KB0G,-0.26,3,   boost,-0.53,83132,1638.18,-1.47,0,33,4.2,4.17,4.16,9.91,0.36,0.11,-0.32,0.17,-0.14,-0.05,-0.47,-0.03,1.87,4.18,0,0.01,0.01,0.01,1,1,13,40.8858039,-104.6377364,1671,2019,5,4,20,26,19,0,0,0,0,1.2,0.7,1,41,0,43,0,0,43,0,0,0,0,0,0,36,0,36,0,40,31,36,0,0,34,0,36,0,0,0,0,0,0,0,0
6,1257,17,KB0G,-0.25,3,   boost,-0.53,83124,1638.97,-0.68,0,33,4.2,4.17,4.16,9.86,0.31,0.01,-0.63,0.05,0.04,-0.05,-0.47,-0.03,1.87,4.18,0,0.01,0.01,0.01,1,1,13,40.8858039,-104.6377364,1671,2019,5,4,20,26,19,0,0,0,0,1.2,0.7,1,41,0,43,0,0,43,0,0,0,0,0,0,36,0,36,0,40,31,36,0,0,34,0,36,0,0,0,0,0,0,0,0
6,1257,17,KB0G,-0.24,3,   boost,-0.53,83149,1636.52,-3.13,0,33,4.2,4.17,4.16,9.88,0.33,0.04,0.04,0.17,-0.2,-0.05,-0.47,-0.03,1.87,4.18,0,0.01,0.01,0.01,1,1,13,40.8858039,-104.6377364,1671,2019,5,4,20,26,19,0,0,0,0,1.2,0.7,1,41,0,43,0,0,43,0,0,0,0,0,0,36,0,36,0,40,31,36,0,0,34,0,36,0,0,0,0,0,0,0,0
6,1257,17,KB0G,-0.23,3,   boost,-0.53,83114,1639.94,0.29,0,33,4.2,4.17,4.16,9.9,0.32,0.08,0.1,-0.01,-0.2,-0.05,-0.47,-0.04,1.87,4.18,0,0.01,0.01,0.01,1,1,13,40.8858039,-104.6377364,1671,2019,5,4,20,26,19,0,0,0,0,1.2,0.7,1,41,0,43,0,0,43,0,0,0,0,0,0,36,0,36,0,40,31,36,0,0,34,0,36,0,0,0,0,0,0,0,0
6,1257,17,KB0G,-0.22,3,   boost,-0.53,83133,1638.09,-1.56,0,33,4.2,4.17,4.16,9.89,0.29,-0.06,-0.08,0.23,-0.2,-0.05,-0.47,-0.03,1.87,4.18,0,0.01,0.01,0.01,1,1,13,40.8858039,-104.6377364,1671,2019,5,4,20,26,19,0,0,0,0,1.2,0.7,1,41,0,43,0,0,43,0,0,0,0,0,0,36,0,36,0,40,31,36,0,0,34,0,36,0,0,0,0,0,0,0,0
6,1257,17,KB0G,-0.21,3,   boost,-0.53,83099,1641.41,1.76,0,33,4.2,4.17,4.16,9.87,0.3,0.09,0.04,0.11,-0.08,-0.05,-0.47,-0.04,1.87,4.18,0,0.01,0.01,0.01,1,1,13,40.8858039,-104.6377364,1671,2019,5,4,20,26,19,0,0,0,0,1.2,0.7,1,41,0,43,0,0,43,0,0,0,0,0,0,36,0,36,0,40,31,36,0,0,34,0,36,0,0,0,0,0,0,0,0
6,1257,17,KB0G,-0.2,3,   boost,-0.53,83119,1639.45,-0.2,0,33,4.2,4.17,4.16,9.88,0.34,-0.02,-0.44,0.23,-0.2,-0.05,-0.47,-0.04,1.87,4.18,0,0.01,0.01,0.01,1,1,13,40.8858039,-104.6377364,1671,2019,5,4,20,26,19,0,0,0,0,1.2,0.7,1,41,0,43,0,0,43,0,0,0,0,0,0,36,0,36,0,40,31,36,0,0,34,0,36,0,0,0,0,0,0,0,0
6,1257,17,KB0G,-0.19,3,   boost,0,83119,1639.45,-0.2,0,33,4.2,4.17,4.16,9.9,0.34,0.07,0.29,0.05,-0.08,-0.05,-0.47,-0.03,1.87,4.18,0,0.01,0.01,0.01,1,1,13,40.8858039,-104.6377364,1671,2019,5,4,20,26,19,0,0,0,0,1.2,0.7,1,41,0,43,0,0,43,0,0,0,0,0,0,36,0,36,0,40,31,36,0,0,34,0,36,0,0,0,0,0,0,0,0
6,1257,17,KB0G,-0.18,3,   boost,-0.53,83118,1639.55,-0.1,0,33,4.2,4.17,4.16,9.9,0.34,0.02,0.1,0.23,-0.08,-0.05,-0.48,-0.05,1.87,4.18,0,0.01,0.01,0.01,1,1,13,40.8858039,-104.6377364,1671,2019,5,4,20,26,19,0,0,0,0,1.2,0.7,1,41,0,43,0,0,43,0,0,0,0,0,0,36,0,36,0,40,31,36,0,0,34,0,36,0,0,0,0,0,0,0,0
6,1257,17,KB0G,-0.17,3,   boost,-0.53,83117,1639.65,0,0,33,4.2,4.17,4.16,9.87,0.31,0,0.41,0.05,0.04,-0.05,-0.48,-0.05,1.87,4.18,0,0.01,0.01,0.01,1,1,13,40.8858039,-104.6377364,1671,2019,5,4,20,26,19,0,0,0,0,1.2,0.7,1,41,0,43,0,0,43,0,0,0,0,0,0,36,0,36,0,40,31,36,0,0,34,0,36,0,0,0,0,0,0,0,0
6,1257,17,KB0G,-0.16,3,   boost,-0.53,83117,1639.65,0,0,33,4.2,4.17,4.16,9.9,0.33,0.01,-0.14,0.11,0.04,-0.05,-0.47,-0.04,1.87,4.18,0,0.01,0.01,0.01,1,1,13,40.8858039,-104.6377364,1671,2019,5,4,20,26,19,0,0,0,0,1.2,0.7,1,41,0,43,0,0,43,0,0,0,0,0,0,36,0,36,0,40,31,36,0,0,34,0,36,0,0,0,0,0,0,0,0
6,1257,17,KB0G,-0.15,3,   boost,-0.53,83110,1640.33,0.68,0,33,4.2,4.17,4.16,9.87,0.32,-0.02,0.04,-0.01,0.1,-0.04,-0.48,-0.04,1.87,4.18,0,0.01,0.01,0.01,1,1,13,40.8858039,-104.6377364,1671,2019,5,4,20,26,19,0,0,0,0,1.2,0.7,1,41,0,43,0,0,43,0,0,0,0,0,0,36,0,36,0,40,31,36,0,0,34,0,36,0,0,0,0,0,0,0,0
6,1257,17,KB0G,-0.14,3,   boost,-0.53,83112,1640.14,0.49,0,33,4.2,4.17,4.16,9.88,0.26,0.09,0.29,-0.01,0.1,-0.05,-0.48,-0.05,1.87,4.18,0,0.01,0.01,0.01,1,1,13,40.8858039,-104.6377364,1671,2019,5,4,20,26,19,0,0,0,0,1.2,0.7,1,41,0,43,0,0,43,0,0,0,0,0,0,36,0,36,0,40,31,36,0,0,34,0,36,0,0,0,0,0,0,0,0
6,1257,17,KB0G,-0.13,3,   boost,-0.53,83112,1640.14,0.49,0,33,4.2,4.17,4.16,9.87,0.25,0.02,-0.02,-0.01,0.04,-0.05,-0.47,-0.04,1.87,4.18,0,0.01,0.01,0.01,1,1,13,40.8858039,-104.6377364,1671,2019,5,4,20,26,19,0,0,0,0,1.2,0.7,1,41,0,43,0,0,43,0,0,0,0,0,0,36,0,36,0,40,31,36,0,0,34,0,36,0,0,0,0,0,0,0,0
6,1257,17,KB0G,-0.12,3,   boost,-0.53,83108,1640.53,0.88,0.01,32.9,4.2,4.17,4.16,9.89,0.31,0.07,-0.02,0.05,-0.2,-0.05,-0.48,-0.05,1.87,4.18,0,0.01,0.01,0.01,1,1,13,40.8858039,-104.6377364,1671,2019,5,4,20,26,19,0,0,0,0,1.2,0.7,1,41,0,43,0,0,43,0,0,0,0,0,0,36,0,36,0,40,31,36,0,0,34,0,36,0,0,0,0,0,0,0,0
6,1257,17,KB0G,-0.11,3,   boost,-0.53,83117,1639.65,0,0.05,32.9,4.2,4.17,4.16,9.83,0.21,0.02,0.17,-0.01,-0.14,-0.05,-0.48,-0.04,1.87,4.18,0,0.01,0.01,0.01,1,1,13,40.8858039,-104.6377364,1671,2019,5,4,20,26,19,0,0,0,0,1.2,0.7,1,41,0,43,0,0,43,0,0,0,0,0,0,36,0,36,0,40,31,36,0,0,34,0,36,0,0,0,0,0,0,0,0
6,1257,17,KB0G,-0.1,3,   boost,-0.53,83117,1639.65,0,0.18,32.9,4.2,4.17,4.16,9.94,0.24,0.08,-0.14,-0.32,-0.08,-0.05,-0.47,-0.04,1.87,4.18,0,0.01,0.01,0.01,1,1,13,40.8858039,-104.6377364,1671,2019,5,4,20,26,19,0,0,0,0,1.2,0.7,1,41,0,43,0,0,43,0,0,0,0,0,0,36,0,36,0,40,31,36,0,0,34,0,36,0,0,0,0,0,0,0,0
6,1257,17,KB0G,-0.09,3,   boost,-0.53,83158,1635.64,-4.01,0.43,32.9,4.2,4.17,4.16,9.86,0.29,-0.13,-0.99,0.05,0.28,-0.05,-0.48,-0.04,1.87,4.18,0,0.01,0.01,0.01,1,1,13,40.8858039,-104.6377364,1671,2019,5,4,20,26,19,0,0,0,0,1.2,0.7,1,41,0,43,0,0,43,0,0,0,0,0,0,36,0,36,0,40,31,36,0,0,34,0,36,0,0,0,0,0,0,0,0
6,1257,17,KB0G,-0.08,3,   boost,103.37,83104,1640.92,1.27,0.82,32.9,4.2,4.17,4.16,9.85,0.4,0.02,0.59,-0.13,0.04,-0.05,-0.48,-0.04,1.87,4.18,0,0.01,0.01,0.01,1,1,13,40.8858039,-104.6377364,1671,2019,5,4,20,26,19,0,0,0,0,1.2,0.7,1,41,0,43,0,0,43,0,0,0,0,0,0,36,0,36,0,40,31,36,0,0,34,0,36,0,0,0,0,0,0,0,0
6,1257,17,KB0G,-0.07,3,   boost,73.15,83164,1635.06,-4.59,1.36,32.9,4.2,4.17,4.16,74.47,14.83,10.85,3.03,1.39,-2.46,-0.05,-0.47,-0.04,1.87,4.18,0,0.01,0.01,0.01,1,1,13,40.8858039,-104.6377364,1671,2019,5,4,20,26,19,0,0,0,0,1.2,0.7,1,41,0,43,0,0,43,0,0,0,0,0,0,36,0,36,0,40,31,36,0,0,34,0,36,0,0,0,0,0,0,0,0
6,1257,17,KB0G,-0.06,3,   boost,69.44,83103,1641.02,1.37,2,32.9,4.2,4.17,4.16,86.18,7.24,-4.27,6.64,4.63,-6.25,-0.05,-0.47,-0.04,1.87,4.18,0,0.01,0.01,0.01,1,1,13,40.8858039,-104.6377364,1671,2019,5,4,20,26,19,0,0,0,0,1.2,0.7,1,41,0,43,0,0,43,0,0,0,0,0,0,36,0,36,0,40,31,36,0,0,34,0,36,0,0,0,0,0,0,0,0
6,1257,17,KB0G,-0.05,3,   boost,70.5,83108,1640.53,0.88,2.7,32.9,4.2,4.17,4.16,81.61,-3.94,-2.32,-5.82,-0.68,-6.67,-0.05,-0.48,-0.04,1.87,4.18,0,0.01,0.01,0.01,1,1,13,40.8858039,-104.6377364,1671,2019,5,4,20,26,19,0,0,0,0,1.2,0.7,1,41,0,43,0,0,43,0,0,0,0,0,0,36,0,36,0,40,31,36,0,0,34,0,36,0,0,0,0,0,0,0,0
6,1257,17,KB0G,-0.04,3,   boost,70.5,83121,1639.26,-0.39,3.41,32.9,4.2,4.17,4.16,82.55,-2.62,-0.65,-21.75,-0.56,-13.08,-0.05,-0.47,-0.03,1.87,4.18,0,0.01,0.01,0.01,1,1,13,40.8858039,-104.6377364,1671,2019,5,4,20,26,19,0,0,0,0,1.2,0.7,1,41,0,43,0,0,43,0,0,0,0,0,0,36,0,36,0,40,31,36,0,0,34,0,36,0,0,0,0,0,0,0,0
6,1257,17,KB0G,-0.03,3,   boost,69.44,83093,1642,2.35,4.11,32.9,4.2,4.17,4.16,82.26,7.83,-2.09,-37.43,3.41,-12.65,-0.05,-0.48,-0.04,1.87,4.18,0,0.01,0.01,0.01,1,1,13,40.8858039,-104.6377364,1671,2019,5,4,20,26,19,0,0,0,0,1.2,0.7,1,41,0,43,0,0,43,0,0,0,0,0,0,36,0,36,0,40,31,36,0,0,34,0,36,0,0,0,0,0,0,0,0
6,1257,17,KB0G,-0.02,3,   boost,70.5,83116,1639.75,0.1,4.81,32.9,4.2,4.17,4.16,80.68,-1.87,6.55,42.46,-1.66,-2.16,-0.05,-0.48,-0.03,1.87,4.18,0,0.01,0.01,0.01,1,1,13,40.8858039,-104.6377364,1671,2019,5,4,20,26,19,0,0,0,0,1.2,0.7,1,41,0,43,0,0,43,0,0,0,0,0,0,36,0,36,0,40,31,36,0,0,34,0,36,0,0,0,0,0,0,0,0
6,1257,17,KB0G,-0.01,3,   boost,71.03,83099,1641.41,1.76,5.51,32.9,4.2,4.17,4.16,82.36,-4.22,-7.81,105.7,-4.83,-0.39,-0.05,-0.47,-0.04,1.87,4.18,0,0.01,0.01,0.01,1,1,13,40.8858039,-104.6377364,1671,2019,5,4,20,26,19,0,0,0,0,1.2,0.7,1,41,0,43,0,0,43,0,0,0,0,0,0,36,0,36,0,40,31,36,0,0,34,0,36,0,0,0,0,0,0,0,0
6,1257,17,KB0G,0,3,   boost,68.38,83137,1637.7,-1.95,6.21,32.9,4.2,4.17,4.16,82.67,-3.37,7.85,105.39,-1.48,-3.5,-0.05,-0.47,-0.03,1.87,4.18,0,0.01,0.01,0.01,1,1,13,40.8858039,-104.6377364,1671,2019,5,4,20,26,19,0,0,0,0,1.2,0.7,1,41,0,43,0,0,43,0,0,0,0,0,0,36,0,36,0,40,31,36,0,0,34,0,36,0,0,0,0,0,0,0,0
6,1257,17,KB0G,0,3,   boost,68.38,83137,1637.7,-1.95,6.21,32.9,4.2,4.17,4.16,82.67,-3.37,7.85,105.39,-1.48,-3.5,-0.05,-0.47,-0.03,1.87,4.18,0,0.01,0.01,0.01,1,1,13,40.8858039,-104.6377364,1671,2019,5,4,20,26,19,0,0,0,0,1.2,0.7,1,41,0,43,0,0,43,0,0,0,0,0,0,36,0,36,0,40,31,36,0,0,34,0,36,0,0,0,0,0,0,0,0
6,1257,17,KB0G,0,3,   boost,68.38,83137,1637.7,-1.95,6.21,32.9,4.2,4.17,4.16,82.67,-3.37,7.85,105.39,-1.48,-3.5,-0.05,-0.47,-0.03,1.87,4.18,0,0.01,0.01,0.01,1,1,13,40.8858039,-104.6377364,1671,2019,5,4,20,26,19,0,0,0,0,1.2,0.7,1,41,0,43,0,0,43,0,0,0,0,0,0,36,0,36,0,40,31,36,0,0,34,0,36,0,0,0,0,0,0,0,0
6,1257,17,KB0G,0,3,   boost,68.38,83137,1637.7,-1.95,6.21,32.9,4.2,4.17,4.16,82.67,-3.37,7.85,105.39,-1.48,-3.5,-0.05,-0.47,-0.03,1.87,4.18,0,0.01,0.01,0.01,1,1,13,40.8858039,-104.6377364,1671,2019,5,4,20,26,19,0,0,0,0,1.2,0.7,1,41,0,43,0,0,43,0,0,0,0,0,0,36,0,36,0,40,31,36,0,0,34,0,36,0,0,0,0,0,0,0,0
6,1257,17,KB0G,0,3,   boost,68.38,83137,1637.7,-1.95,6.21,32.9,4.2,4.17,4.16,82.67,-3.37,7.85,105.39,-1.48,-3.5,-0.05,-0.47,-0.03,1.87,4.18,0,0.01,0.01,0.01,1,1,13,40.8858039,-104.6377364,1671,2019,5,4,20,26,19,0,0,0,0,1.2,0.7,1,41,0,43,0,0,43,0,0,0,0,0,0,36,0,36,0,40,31,36,0,0,34,0,36,0,0,0,0,0,0,0,0
6,1257,17,KB0G,0,3,   boost,68.38,83137,1637.7,-1.95,6.21,32.9,4.2,4.17,4.16,82.67,-3.37,7.85,105.39,-1.48,-3.5,-0.05,-0.47,-0.03,1.87,4.18,0,0.01,0.01,0.01,1,1,13,40.8858039,-104.6377364,1671,2019,5,4,20,26,19,0,0,0,0,1.2,0.7,1,41,0,43,0,0,43,0,0,0,0,0,0,36,0,36,0,40,31,36,0,0,34,0,36,0,0,0,0,0,0,0,0
6,1257,17,KB0G,0,3,   boost,68.38,83137,1637.7,-1.95,6.21,32.9,4.2,4.17,4.16,82.67,-3.37,7.85,105.39,-1.48,-3.5,-0.05,-0.47,-0.03,1.87,4.18,0,0.01,0.01,0.01,1,1,13,40.8858039,-104.6377364,1671,2019,5,4,20,26,19,0,0,0,0,1.2,0.7,1,41,0,43,0,0,43,0,0,0,0,0,0,36,0,36,0,40,31,36,0,0,34,0,36,0,0,0,0,0,0,0,0
6,1257,17,KB0G,0,3,   boost,68.38,83137,1637.7,-1.95,6.21,32.9,4.2,4.17,4.16,82.67,-3.37,7.85,105.39,-1.48,-3.5,-0.05,-0.47,-0.03,1.87,4.18,0,0.01,0.01,0.01,1,1,13,40.8858039,-104.6377364,1671,2019,5,4,20,26,19,0,0,0,0,1.2,0.7,1,41,0,43,0,0,43,0,0,0,0,0,0,36,0,36,0,40,31,36,0,0,34,0,36,0,0,0,0,0,0,0,0
6,1257,17,KB0G,0,3,   boost,68.38,83137,1637.7,-1.95,6.21,32.9,4.2,4.17,4.16,82.67,-3.37,7.85,105.39,-1.48,-3.5,-0.05,-0.47,-0.03,1.86,4.18,0,0.01,0.01,0.01,1,1,13,40.8858039,-104.6377364,1671,2019,5,4,20,26,19,0,0,0,0,1.2,0.7,1,41,0,43,0,0,43,0,0,0,0,0,0,36,0,36,0,40,31,36,0,0,34,0,36,0,0,0,0,0,0,0,0
6,1257,17,KB0G,0,3,   boost,68.38,83137,1637.7,-1.95,6.21,32.9,4.2,4.17,4.16,82.67,-3.37,7.85,105.39,-1.48,-3.5,-0.05,-0.47,-0.03,1.87,4.18,0,0.01,0.01,0.01,1,1,13,40.8858039,-104.6377364,1671,2019,5,4,20,26,19,0,0,0,0,1.2,0.7,1,41,0,43,0,0,43,0,0,0,0,0,0,36,0,36,0,40,31,36,0,0,34,0,36,0,0,0,0,0,0,0,0
6,1257,17,KB0G,0,3,   boost,68.38,83137,1637.7,-1.95,6.21,32.9,4.2,4.17,4.16,82.67,-3.37,7.85,105.39,-1.48,-3.5,-0.05,-0.47,-0.03,1.86,4.18,0,0.01,0.01,0.01,1,1,13,40.8858039,-104.6377364,1671,2019,5,4,20,26,19,0,0,0,0,1.2,0.7,1,41,0,43,0,0,43,0,0,0,0,0,0,36,0,36,0,40,31,36,0,0,34,0,36,0,0,0,0,0,0,0,0
6,1257,17,KB0G,0,3,   boost,68.38,83137,1637.7,-1.95,6.21,32.9,4.2,4.17,4.16,82.67,-3.37,7.85,105.39,-1.48,-3.5,-0.05,-0.47,-0.03,1.86,4.18,0,0.01,0.01,0.01,1,1,13,40.8858039,-104.6377364,1671,2019,5,4,20,26,19,0,0,0,0,1.2,0.7,1,41,0,43,0,0,43,0,0,0,0,0,0,36,0,36,0,40,31,36,0,0,34,0,36,0,0,0,0,0,0,0,0
6,1257,17,KB0G,0,3,   boost,68.38,83137,1637.7,-1.95,6.21,32.9,4.2,4.17,4.16,82.67,-3.37,7.85,105.39,-1.48,-3.5,-0.05,-0.47,-0.03,1.86,4.18,0,0.01,0.01,0.01,1,1,13,40.8858039,-104.6377364,1671,2019,5,4,20,26,19,0,0,0,0,1.2,0.7,1,41,0,43,0,0,43,0,0,0,0,0,0,36,0,36,0,40,31,36,0,0,34,0,36,0,0,0,0,0,0,0,0
6,1257,17,KB0G,0,3,   boost,68.38,83137,1637.7,-1.95,6.21,32.9,4.2,4.17,4.16,82.67,-3.37,7.85,105.39,-1.48,-3.5,-0.05,-0.47,-0.03,1.86,4.18,0,0.01,0.01,0.01,1,1,13,40.8858039,-104.6377364,1671,2019,5,4,20,26,19,0,0,0,0,1.2,0.7,1,41,0,43,0,0,43,0,0,0,0,0,0,36,0,36,0,40,31,36,0,0,34,0,36,0,0,0,0,0,0,0,0
6,1257,17,KB0G,0,3,   boost,68.38,83137,1637.7,-1.95,6.21,32.9,4.2,4.17,4.16,82.67,-3.37,7.85,105.39,-1.48,-3.5,-0.05,-0.47,-0.03,1.86,4.18,0,0.01,0.01,0.01,1,1,13,40.8858039,-104.6377364,1671,2019,5,4,20,26,19,0,0,0,0,1.2,0.7,1,41,0,43,0,0,43,0,0,0,0,0,0,36,0,36,0,40,31,36,0,0,34,0,36,0,0,0,0,0,0,0,0
6,1257,17,KB0G,0,3,   boost,68.38,83137,1637.7,-1.95,6.21,32.9,4.2,4.17,4.16,82.67,-3.37,7.85,105.39,-1.48,-3.5,-0.05,-0.47,-0.03,1.86,4.18,0,0.01,0.01,0.01,1,1,13,40.8858039,-104.6377364,1671,2019,5,4,20,26,19,0,0,0,0,1.2,0.7,1,41,0,43,0,0,43,0,0,0,0,0,0,36,0,36,0,40,31,36,0,0,34,0,36,0,0,0,0,0,0,0,0
6,1257,17,KB0G,0,3,   boost,68.38,83137,1637.7,-1.95,6.21,32.9,4.2,4.17,4.16,82.67,-3.37,7.85,105.39,-1.48,-3.5,-0.05,-0.47,-0.03,1.85,4.18,0,0.01,0.01,0.01,1,1,13,40.8858039,-104.6377364,1671,2019,5,4,20,26,19,0,0,0,0,1.2,0.7,1,41,0,43,0,0,43,0,0,0,0,0,0,36,0,36,0,40,31,36,0,0,34,0,36,0,0,0,0,0,0,0,0
6,1257,17,KB0G,0,3,   boost,68.38,83137,1637.7,-1.95,6.21,32.9,4.2,4.17,4.16,82.67,-3.37,7.85,105.39,-1.48,-3.5,-0.05,-0.47,-0.03,1.85,4.18,0,0.01,0.01,0.01,1,1,13,40.8858039,-104.6377364,1671,2019,5,4,20,26,19,0,0,0,0,1.2,0.7,1,41,0,43,0,0,43,0,0,0,0,0,0,36,0,36,0,40,31,36,0,0,34,0,36,0,0,0,0,0,0,0,0
6,1257,17,KB0G,0,3,   boost,68.38,83137,1637.7,-1.95,6.21,32.9,4.2,4.17,4.16,82.67,-3.37,7.85,105.39,-1.48,-3.5,-0.05,-0.47,-0.03,1.85,4.18,0,0.01,0.01,0.01,1,1,13,40.8858039,-104.6377364,1671,2019,5,4,20,26,19,0,0,0,0,1.2,0.7,1,41,0,43,0,0,43,0,0,0,0,0,0,36,0,36,0,40,31,36,0,0,34,0,36,0,0,0,0,0,0,0,0
6,1257,17,KB0G,0,3,   boost,68.38,83137,1637.7,-1.95,6.21,32.9,4.2,4.17,4.16,82.67,-3.37,7.85,105.39,-1.48,-3.5,-0.05,-0.47,-0.03,1.86,4.18,0,0.01,0.01,0.01,1,1,13,40.8858039,-104.6377364,1671,2019,5,4,20,26,19,0,0,0,0,1.2,0.7,1,41,0,43,0,0,43,0,0,0,0,0,0,36,0,36,0,40,31,36,0,0,34,0,36,0,0,0,0,0,0,0,0
6,1257,17,KB0G,0,3,   boost,68.38,83137,1637.7,-1.95,6.21,32.9,4.2,4.17,4.16,82.67,-3.37,7.85,105.39,-1.48,-3.5,-0.05,-0.47,-0.03,1.86,4.18,0,0.01,0.01,0.01,1,1,13,40.8858039,-104.6377364,1671,2019,5,4,20,26,19,0,0,0,0,1.2,0.7,1,41,0,43,0,0,43,0,0,0,0,0,0,36,0,36,0,40,31,36,0,0,34,0,36,0,0,0,0,0,0,0,0
6,1257,17,KB0G,0,3,   boost,68.38,83137,1637.7,-1.95,6.21,32.9,4.2,4.17,4.16,82.67,-3.37,7.85,105.39,-1.48,-3.5,-0.05,-0.47,-0.03,1.86,4.18,0,0.01,0.01,0.01,1,1,13,40.8858039,-104.6377364,1671,2019,5,4,20,26,19,0,0,0,0,1.2,0.7,1,41,0,43,0,0,43,0,0,0,0,0,0,36,0,36,0,40,31,36,0,0,34,0,36,0,0,0,0,0,0,0,0
6,1257,17,KB0G,0,3,   boost,68.38,83137,1637.7,-1.95,6.21,32.9,4.2,4.17,4.16,82.67,-3.37,7.85,105.39,-1.48,-3.5,-0.05,-0.47,-0.03,1.86,4.18,0,0.01,0.01,0.01,1,1,13,40.8858039,-104.6377364,1671,2019,5,4,20,26,19,0,0,0,0,1.2,0.7,1,41,0,43,0,0,43,0,0,0,0,0,0,36,0,36,0,40,31,36,0,0,34,0,36,0,0,0,0,0,0,0,0
6,1257,17,KB0G,0,3,   boost,68.38,83137,1637.7,-1.95,6.21,32.9,4.2,4.17,4.16,82.67,-3.37,7.85,105.39,-1.48,-3.5,-0.05,-0.47,-0.03,1.85,4.18,0,0.01,0.01,0.01,1,1,13,40.8858039,-104.6377364,1671,2019,5,4,20,26,19,0,0,0,0,1.2,0.7,1,41,0,43,0,0,43,0,0,0,0,0,0,36,0,36,0,40,31,36,0,0,34,0,36,0,0,0,0,0,0,0,0
6,1257,17,KB0G,0,3,   boost,68.38,83137,1637.7,-1.95,6.21,32.9,4.2,4.17,4.16,82.67,-3.37,7.85,105.39,-1.48,-3.5,-0.05,-0.47,-0.03,1.85,4.18,0,0.01,0.01,0.01,1,1,13,40.8858039,-104.6377364,1671,2019,5,4,20,26,19,0,0,0,0,1.2,0.7,1,41,0,43,0,0,43,0,0,0,0,0,0,36,0,36,0,40,31,36,0,0,34,0,36,0,0,0,0,0,0,0,0
6,1257,17,KB0G,0,3,   boost,68.38,83137,1637.7,-1.95,6.21,32.9,4.2,4.17,4.16,82.67,-3.37,7.85,105.39,-1.48,-3.5,-0.05,-0.47,-0.03,1.86,4.18,0,0.01,0.01,0.01,1,1,13,40.8858039,-104.6377364,1671,2019,5,4,20,26,19,0,0,0,0,1.2,0.7,1,41,0,43,0,0,43,0,0,0,0,0,0,36,0,36,0,40,31,36,0,0,34,0,36,0,0,0,0,0,0,0,0
6,1257,17,KB0G,0,3,   boost,68.38,83137,1637.7,-1.95,6.21,32.9,4.2,4.17,4.16,82.67,-3.37,7.85,105.39,-1.48,-3.5,-0.05,-0.47,-0.03,1.86,4.18,0,0.01,0.01,0.01,1,1,13,40.8858039,-104.6377364,1671,2019,5,4,20,26,19,0,0,0,0,1.2,0.7,1,41,0,43,0,0,43,0,0,0,0,0,0,36,0,36,0,40,31,36,0,0,34,0,36,0,0,0,0,0,0,0,0
6,1257,17,KB0G,0,3,   boost,68.38,83137,1637.7,-1.95,6.21,32.9,4.2,4.17,4.16,82.67,-3.37,7.85,105.39,-1.48,-3.5,-0.05,-0.47,-0.03,1.83,4.18,0,0.01,0.01,0.01,1,1,13,40.8858039,-104.6377364,1671,2019,5,4,20,26,19,0,0,0,0,1.2,0.7,1,41,0,43,0,0,43,0,0,0,0,0,0,36,0,36,0,40,31,36,0,0,34,0,36,0,0,0,0,0,0,0,0
6,1257,17,KB0G,0,3,   boost,68.38,83137,1637.7,-1.95,6.21,32.9,4.2,4.17,4.16,82.67,-3.37,7.85,105.39,-1.48,-3.5,-0.05,-0.47,-0.03,1.77,4.18,0,0.01,0.01,0.01,1,1,13,40.8858039,-104.6377364,1671,2019,5,4,20,26,19,0,0,0,0,1.2,0.7,1,41,0,43,0,0,43,0,0,0,0,0,0,36,0,36,0,40,31,36,0,0,34,0,36,0,0,0,0,0,0,0,0
6,1257,17,KB0G,0,3,   boost,68.38,83137,1637.7,-1.95,6.21,32.9,4.2,4.17,4.16,82.67,-3.37,7.85,105.39,-1.48,-3.5,-0.05,-0.47,-0.03,1.7,4.18,0,0.01,0.01,0.01,1,1,13,40.8858039,-104.6377364,1671,2019,5,4,20,26,19,0,0,0,0,1.2,0.7,1,41,0,43,0,0,43,0,0,0,0,0,0,36,0,36,0,40,31,36,0,0,34,0,36,0,0,0,0,0,0,0,0
6,1257,17,KB0G,0,3,   boost,68.38,83137,1637.7,-1.95,6.21,32.9,4.2,4.17,4.16,82.67,-3.37,7.85,105.39,-1.48,-3.5,-0.05,-0.47,-0.03,1.57,4.18,0,0.01,0.01,0.01,1,1,13,40.8858039,-104.6377364,1671,2019,5,4,20,26,19,0,0,0,0,1.2,0.7,1,41,0,43,0,0,43,0,0,0,0,0,0,36,0,36,0,40,31,36,0,0,34,0,36,0,0,0,0,0,0,0,0
6,1257,17,KB0G,0,3,   boost,68.38,83137,1637.7,-1.95,6.21,32.9,4.2,4.17,4.16,82.67,-3.37,7.85,105.39,-1.48,-3.5,-0.05,-0.47,-0.03,1.44,4.18,0,0.01,0.01,0.01,1,1,13,40.8858039,-104.6377364,1671,2019,5,4,20,26,19,0,0,0,0,1.2,0.7,1,41,0,43,0,0,43,0,0,0,0,0,0,36,0,36,0,40,31,36,0,0,34,0,36,0,0,0,0,0,0,0,0
6,1257,17,KB0G,0,3,   boost,68.38,83137,1637.7,-1.95,6.21,32.9,4.2,4.17,4.16,82.67,-3.37,7.85,105.39,-1.48,-3.5,-0.05,-0.47,-0.03,1.42,4.18,0,0.01,0.01,0.01,1,1,13,40.8858039,-104.6377364,1671,2019,5,4,20,26,19,0,0,0,0,1.2,0.7,1,41,0,43,0,0,43,0,0,0,0,0,0,36,0,36,0,40,31,36,0,0,34,0,36,0,0,0,0,0,0,0,0
6,1257,17,KB0G,0,3,   boost,68.38,83137,1637.7,-1.95,6.21,32.9,4.2,4.17,4.16,82.67,-3.37,7.85,105.39,-1.48,-3.5,-0.05,-0.47,-0.03,1.42,4.18,0,0.01,0.01,0.01,1,1,13,40.8858039,-104.6377364,1671,2019,5,4,20,26,19,0,0,0,0,1.2,0.7,1,41,0,43,0,0,43,0,0,0,0,0,0,36,0,36,0,40,31,36,0,0,34,0,36,0,0,0,0,0,0,0,0
6,1257,17,KB0G,0,3,   boost,68.38,83137,1637.7,-1.95,6.21,32.9,4.2,4.17,4.16,82.67,-3.37,7.85,105.39,-1.48,-3.5,-0.05,-0.47,-0.03,1.39,4.18,0,0.01,0.01,0.01,1,1,13,40.8858039,-104.6377364,1671,2019,5,4,20,26,19,0,0,0,0,1.2,0.7,1,41,0,43,0,0,43,0,0,0,0,0,0,36,0,36,0,40,31,36,0,0,34,0,36,0,0,0,0,0,0,0,0
6,1257,17,KB0G,0.01,3,   boost,68.38,83137,1637.7,-1.95,6.9,32.9,4.2,4.17,4.16,80.86,-2.66,1.52,67.43,-3.31,-5.33,-0.05,-0.47,-0.04,1.34,4.18,0,0.01,0.01,0.01,1,1,13,40.8858039,-104.6377364,1671,2019,5,4,20,26,19,0,0,0,0,1.2,0.7,1,41,0,43,0,0,43,0,0,0,0,0,0,36,0,36,0,40,31,36,0,0,34,0,36,0,0,0,0,0,0,0,0
6,1257,17,KB0G,0.01,3,   boost,68.38,83137,1637.7,-1.95,6.9,32.9,4.2,4.17,4.16,80.86,-2.66,1.52,67.43,-3.31,-5.33,-0.05,-0.47,-0.04,1.34,4.18,0,0.01,0.01,0.01,1,1,13,40.8858039,-104.6377364,1671,2019,5,4,20,26,19,0,0,0,0,1.2,0.7,1,41,0,43,0,0,43,0,0,0,0,0,0,36,0,36,0,40,31,36,0,0,34,0,36,0,0,0,0,0,0,0,0
6,1257,17,KB0G,0.02,3,   boost,69.44,83109,1640.43,0.78,7.6,32.9,4.2,4.15,4.16,80.59,-4.01,1.64,35.81,-1.05,-1.73,-0.05,-0.47,-0.03,1.32,4.17,0,0,0,0.08,1,1,13,40.8858039,-104.6377364,1671,2019,5,4,20,26,19,0,0,0,0,1.2,0.7,1,41,0,43,0,0,43,0,0,0,0,0,0,36,0,36,0,40,31,36,0,0,34,0,36,0,0,0,0,0,0,0,0
6,1257,17,KB0G,0.02,3,   boost,69.44,83109,1640.43,0.78,7.6,32.9,4.2,4.15,4.16,80.59,-4.01,1.64,35.81,-1.05,-1.73,-0.05,-0.47,-0.03,1.32,4.17,0,0,0,0.08,1,1,13,40.8858039,-104.6377364,1671,2019,5,4,20,26,19,0,0,0,0,1.2,0.7,1,41,0,43,0,0,43,0,0,0,0,0,0,36,0,36,0,40,31,36,0,0,34,0,36,0,0,0,0,0,0,0,0
6,1257,17,KB0G,0.03,3,   boost,70.5,83114,1639.94,0.29,8.3,32.9,4.2,4.15,4.16,81.6,-1.01,1.72,40.82,-0.32,2.6,-0.05,-0.47,-0.03,1.35,4.17,0,0,0,0.08,1,1,13,40.8858039,-104.6377364,1671,2019,5,4,20,26,19,0,0,0,0,1.2,0.7,1,41,0,43,0,0,43,0,0,0,0,0,0,36,0,36,0,40,31,36,0,0,34,0,36,0,0,0,0,0,0,0,0
6,1257,17,KB0G,0.04,3,   boost,71.03,83105,1640.82,1.17,9,32.9,4.2,4.15,4.16,82.13,-3.29,1.3,95.2,1.21,9.38,-0.05,-0.47,-0.04,1.44,4.17,0,0,0,0.08,1,1,13,40.8858039,-104.6377364,1671,2019,5,4,20,26,19,0,0,0,0,1.2,0.7,1,41,0,43,0,0,43,0,0,0,0,0,0,36,0,36,0,40,31,36,0,0,34,0,36,0,0,0,0,0,0,0,0
6,1257,17,KB0G,0.05,3,   boost,71.03,83090,1642.29,2.64,9.71,32.9,4.2,4.15,4.16,82.95,-0.52,-1.24,127.79,4.02,12.07,-0.05,-0.46,-0.03,1.55,4.17,0,0,0,0.08,1,1,13,40.8858039,-104.6377364,1671,2019,5,4,20,26,19,0,0,0,0,1.2,0.7,1,41,0,43,0,0,43,0,0,0,0,0,0,36,0,36,0,40,31,36,0,0,34,0,36,0,0,0,0,0,0,0,0
6,1257,17,KB0G,0.06,3,   boost,72.09,83090,1642.29,2.64,10.43,32.9,4.2,4.15,4.16,83.22,0.24,-2.11,115.1,2.67,12.43,-0.05,-0.45,-0.04,1.67,4.17,0,0,0,0.08,1,1,13,40.8858039,-104.6377364,1671,2019,5,4,20,26,19,0,0,0,0,1.2,0.7,1,41,0,43,0,0,43,0,0,0,0,0,0,36,0,36,0,40,31,36,0,0,34,0,36,0,0,0,0,0,0,0,0
6,1257,17,KB0G,0.07,3,   boost,72.09,83093,1642,2.35,11.14,32.9,4.2,4.15,4.16,83.78,1.8,-1.7,106.25,-0.62,12.68,-0.05,-0.45,-0.04,1.8,4.17,0,0,0,0.08,1,1,13,40.8858039,-104.6377364,1671,2019,5,4,20,26,19,0,0,0,0,1.2,0.7,1,41,0,43,0,0,43,0,0,0,0,0,0,36,0,36,0,40,31,36,0,0,34,0,36,0,0,0,0,0,0,0,0
6,1257,17,KB0G,0.08,3,   boost,72.09,83082,1643.07,3.42,11.87,32.9,4.2,4.15,4.16,83.84,-0.53,-4.32,103.81,1.45,7.79,-0.05,-0.45,-0.03,1.87,4.17,0,0,0,0.08,1,1,13,40.8858039,-104.6377364,1671,2019,5,4,20,26,19,0,0,0,0,1.2,0.7,1,41,0,43,0,0,43,0,0,0,0,0,0,36,0,36,0,40,31,36,0,0,34,0,36,0,0,0,0,0,0,0,0
6,1257,17,KB0G,0.09,3,   boost,72.09,83085,1642.78,3.13,12.59,32.9,4.2,4.15,4.16,83.86,-6.31,0.32,136.58,1.39,4.98,-0.05,-0.43,-0.04,1.92,4.17,0,0,0,0.08,1,1,13,40.8858039,-104.6377364,1671,2019,5,4,20,26,19,0,0,0,0,1.2,0.7,1,41,0,43,0,0,43,0,0,0,0,0,0,36,0,36,0,40,31,36,0,0,34,0,36,0,0,0,0,0,0,0,0
6,1257,17,KB0G,0.1,3,   boost,73.15,83096,1641.7,2.05,13.32,32.9,4.2,4.15,4.16,84.3,6.75,-2.39,131.4,1.94,1.81,-0.05,-0.43,-0.04,1.93,4.17,0,0,0,0.08,1,1,13,40.8858039,-104.6377364,1671,2019,5,4,20,26,19,0,0,0,0,1.2,0.7,1,41,0,43,0,0,43,0,0,0,0,0,0,36,0,36,0,40,31,36,0,0,34,0,36,0,0,0,0,0,0,0,0
6,1257,17,KB0G,0.11,3,   boost,73.15,83095,1641.8,2.15,14.04,32.9,4.2,4.15,4.16,84.88,6.23,0.19,118.15,1.76,-2.16,-0.05,-0.42,-0.03,1.91,4.17,0,0,0,0.08,1,1,13,40.8858039,-104.6377364,1671,2019,5,4,20,26,19,0,0,0,0,1.2,0.7,1,41,0,43,0,0,43,0,0,0,0,0,0,36,0,36,0,40,31,36,0,0,34,0,36,0,0,0,0,0,0,0,0
6,1257,17,KB0G,0.12,3,   boost,73.68,83095,1641.8,2.15,14.78,32.9,4.2,4.15,4.16,85.21,-0.99,-1.15,129.5,1.7,-2.71,-0.05,-0.42,-0.03,1.88,4.17,0,0,0,0.08,1,1,13,40.8858039,-104.6377364,1671,2019,5,4,20,26,19,0,0,0,0,1.2,0.7,1,41,0,43,0,0,43,0,0,0,0,0,0,36,0,36,0,40,31,36,0,0,34,0,36,0,0,0,0,0,0,0,0
6,1257,17,KB0G,0.13,3,   boost,73.68,83098,1641.51,1.86,15.51,32.9,4.2,4.15,4.16,85.28,3.5,4.21,125.54,3.34,-4.78,-0.05,-0.42,-0.05,1.82,4.17,0,0,0,0.08,1,1,13,40.8858039,-104.6377364,1671,2019,5,4,20,26,19,0,0,0,0,1.2,0.7,1,41,0,43,0,0,43,0,0,0,0,0,0,36,0,36,0,40,31,36,0,0,34,0,36,0,0,0,0,0,0,0,0
6,1257,17,KB0G,0.14,3,   boost,73.68,83067,1644.54,4.89,16.25,32.9,4.2,4.15,4.16,85.48,0.99,2.22,128.95,2.98,-4.23,-0.05,-0.42,-0.05,1.78,4.17,0,0,0,0.08,1,1,13,40.8858039,-104.6377364,1671,2019,5,4,20,26,19,0,0,0,0,1.2,0.7,1,41,0,43,0,0,43,0,0,0,0,0,0,36,0,36,0,40,31,36,0,0,34,0,36,0,0,0,0,0,0,0,0
6,1257,17,KB0G,0.15,3,   boost,73.15,83067,1644.54,4.89,16.99,32.9,4.2,4.15,4.16,85.47,-3.25,0.79,115.04,5.48,-4.05,-0.05,-0.4,-0.03,1.72,4.17,0,0,0,0.08,1,1,13,40.8858039,-104.6377364,1671,2019,5,4,20,26,19,0,0,0,0,1.2,0.7,1,41,0,43,0,0,43,0,0,0,0,0,0,36,0,36,0,40,31,36,0,0,34,0,36,0,0,0,0,0,0,0,0
6,1257,17,KB0G,0.16,3,   boost,74.74,83070,1644.24,4.59,17.73,32.9,4.2,4.15,4.16,85.15,7.08,2.83,118.58,4.99,-6.55,-0.05,-0.41,-0.04,1.65,4.17,0,0,0,0.08,1,1,13,40.8858039,-104.6377364,1671,2019,5,4,20,26,19,0,0,0,0,1.2,0.7,1,41,0,43,0,0,43,0,0,0,0,0,0,36,0,36,0,40,31,36,0,0,34,0,36,0,0,0,0,0,0,0,0
6,1257,17,KB0G,0.17,3,   boost,74.74,83055,1645.71,6.06,18.47,32.9,4.2,4.15,4.16,86.44,2.91,-2.84,107.1,6.7,-5.57,-0.05,-0.41,-0.04,1.58,4.17,0,0,0,0.08,1,1,13,40.8858039,-104.6377364,1671,2019,5,4,20,26,19,0,0,0,0,1.2,0.7,1,41,0,43,0,0,43,0,0,0,0,0,0,36,0,36,0,40,31,36,0,0,34,0,36,0,0,0,0,0,0,0,0
6,1257,17,KB0G,0.18,3,   boost,74.74,83080,1643.27,3.62,19.22,32.9,4.2,4.15,4.16,86.65,0.36,2.89,107.9,8.41,-5.7,-0.05,-0.39,-0.02,1.51,4.17,0,0,0,0.08,1,1,13,40.8858039,-104.6377364,1671,2019,5,4,20,26,19,0,0,0,0,1.2,0.7,1,41,0,43,0,0,43,0,0,0,0,0,0,36,0,36,0,40,31,36,0,0,34,0,36,0,0,0,0,0,0,0,0
6,1257,17,KB0G,0.19,3,   boost,75.27,83070,1644.24,4.59,19.97,32.9,4.2,4.15,4.16,87.05,0.34,-3.25,107.16,9.39,-6.98,-0.05,-0.39,-0.03,1.42,4.17,0,0,0,0.08,1,1,13,40.8858039,-104.6377364,1671,2019,5,4,20,26,19,0,0,0,0,1.2,0.7,1,41,0,43,0,0,43,0,0,0,0,0,0,36,0,36,0,40,31,36,0,0,34,0,36,0,0,0,0,0,0,0,0
6,1257,17,KB0G,0.2,3,   boost,75.27,83051,1646.1,6.45,20.72,32.9,4.2,4.15,4.16,86.85,0.36,2.67,106.68,11.65,-6.61,-0.05,-0.39,-0.03,1.34,4.17,0,0,0,0.08,1,1,13,40.8858039,-104.6377364,1671,2019,5,4,20,26,19,0,0,0,0,1.2,0.7,1,41,0,43,0,0,43,0,0,0,0,0,0,36,0,36,0,40,31,36,0,0,34,0,36,0,0,0,0,0,0,0,0
6,1257,17,KB0G,0.21,3,   boost,75.27,83061,1645.12,5.47,21.47,32.9,4.2,4.15,4.16,87.2,1.81,-2.53,105.76,12.2,-7.22,-0.05,-0.38,-0.02,1.26,4.17,0,0,0,0.08,1,1,13,40.8858039,-104.6377364,1671,2019,5,4,20,26,19,0,0,0,0,1.2,0.7,1,41,0,43,0,0,43,0,0,0,0,0,0,36,0,36,0,40,31,36,0,0,34,0,36,0,0,0,0,0,0,0,0
6,1257,17,KB0G,0.22,3,   boost,75.27,83049,1646.3,6.65,22.22,32.9,4.2,4.15,4.16,87.35,1.99,2.47,105.03,14.15,-6.98,-0.06,-0.38,-0.04,1.19,4.17,0,0,0,0.08,1,1,13,40.8858039,-104.6377364,1671,2019,5,4,20,26,19,0,0,0,0,1.2,0.7,1,41,0,43,0,0,43,0,0,0,0,0,0,36,0,36,0,40,31,36,0,0,34,0,36,0,0,0,0,0,0,0,0
6,1257,17,KB0G,0.23,3,   boost,75.27,83049,1646.3,6.65,22.97,32.9,4.2,4.15,4.16,87.48,-0.07,-2.11,104.36,14.58,-7.65,-0.06,-0.38,-0.03,1.13,4.17,0,0,0,0.08,1,1,13,40.8858039,-104.6377364,1671,2019,5,4,20,26,19,0,0,0,0,1.2,0.7,1,41,0,43,0,0,43,0,0,0,0,0,0,36,0,36,0,40,31,36,0,0,34,0,36,0,0,0,0,0,0,0,0
6,1257,17,KB0G,0.24,3,   boost,74.21,83065,1644.73,5.08,23.72,32.9,4.2,4.15,4.16,87.73,2.24,2.41,104.78,16.9,-8.08,-0.06,-0.38,-0.04,1.1,4.17,0,0,0,0.08,1,1,13,40.8858039,-104.6377364,1671,2019,5,4,20,26,19,0,0,0,0,1.2,0.7,1,41,0,43,0,0,43,0,0,0,0,0,0,36,0,36,0,40,31,36,0,0,34,0,36,0,0,0,0,0,0,0,0
6,1257,17,KB0G,0.25,3,   boost,74.21,83067,1644.54,4.89,24.49,32.9,4.2,4.15,4.16,86.31,0.06,-0.74,106.13,17.14,-8.5,-0.06,-0.38,-0.04,1.09,4.17,0,0,0,0.08,1,1,13,40.8858039,-104.6377364,1671,2019,5,4,20,26,19,0,0,0,0,1.2,0.7,1,41,0,43,0,0,43,0,0,0,0,0,0,36,0,36,0,40,31,36,0,0,34,0,36,0,0,0,0,0,0,0,0
6,1257,17,KB0G,0.26,3,   boost,78.45,83067,1644.54,4.89,25.25,32.9,4.2,4.15,4.16,90.27,1.77,0.31,105.15,19.89,-8.08,-0.06,-0.37,-0.03,1.13,4.17,0,0,0,0.08,1,1,13,40.8858039,-104.6377364,1671,2019,5,4,20,26,19,0,0,0,0,1.2,0.7,1,41,0,43,0,0,43,0,0,0,0,0,0,36,0,36,0,40,31,36,0,0,34,0,36,0,0,0,0,0,0,0,0
6,1257,17,KB0G,0.27,3,   boost,80.04,83053,1645.91,6.26,26.03,32.8,4.2,4.15,4.16,90.45,1.3,-0.81,105.27,20.13,-8.38,-0.06,-0.37,-0.03,1.2,4.17,0,0,0,0.08,1,1,13,40.8858039,-104.6377364,1671,2019,5,4,20,26,19,0,0,0,0,1.2,0.7,1,41,0,43,0,0,43,0,0,0,0,0,0,36,0,36,0,40,31,36,0,0,34,0,36,0,0,0,0,0,0,0,0
6,1257,17,KB0G,0.28,3,   boost,80.04,83038,1647.37,7.72,26.81,32.8,4.2,4.15,4.16,92.19,0.76,1.02,105.15,22.27,-8.69,-0.06,-0.37,-0.04,1.32,4.17,0,0,0,0.08,1,1,13,40.8858039,-104.6377364,1671,2019,5,4,20,26,19,0,0,0,0,1.2,0.7,1,41,0,43,0,0,43,0,0,0,0,0,0,36,0,36,0,40,31,36,0,0,34,0,36,0,0,0,0,0,0,0,0
6,1257,17,KB0G,0.29,3,   boost,76.86,83038,1647.37,7.72,27.59,32.8,4.2,4.15,4.16,90.23,1.54,-0.41,105.64,23,-8.44,-0.06,-0.35,-0.02,1.47,4.17,0,0,0,0.08,1,1,13,40.8858039,-104.6377364,1671,2019,5,4,20,26,19,0,0,0,0,1.2,0.7,1,41,0,43,0,0,43,0,0,0,0,0,0,36,0,36,0,40,31,36,0,0,34,0,36,0,0,0,0,0,0,0,0
6,1257,17,KB0G,0.3,3,   boost,76.86,83020,1649.13,9.48,28.36,32.8,4.2,4.15,4.16,88.92,0.45,1.47,104.97,25.07,-8.57,-0.06,-0.36,-0.04,1.66,4.17,0,0,0,0.08,1,1,13,40.8858039,-104.6377364,1671,2019,5,4,20,26,19,0,0,0,0,1.2,0.7,1,41,0,43,0,0,43,0,0,0,0,0,0,36,0,36,0,40,31,36,0,0,34,0,36,0,0,0,0,0,0,0,0
6,1257,17,KB0G,0.31,3,   boost,76.86,83032,1647.96,8.31,29.14,32.8,4.2,4.15,4.16,88.72,1.46,-0.44,105.45,25.68,-8.44,-0.06,-0.35,-0.03,1.88,4.17,0,0,0,0.08,1,1,13,40.8858039,-104.6377364,1671,2019,5,4,20,26,19,0,0,0,0,1.2,0.7,1,41,0,43,0,0,43,0,0,0,0,0,0,36,0,36,0,40,31,36,0,0,34,0,36,0,0,0,0,0,0,0,0
6,1257,17,KB0G,0.32,3,   boost,76.86,83034,1647.76,8.11,29.91,32.8,4.2,4.15,4.16,88.81,1.09,0.28,105.7,27.64,-8.2,-0.06,-0.34,-0.02,2.12,4.17,0,0,0,0.08,1,1,13,40.8858039,-104.6377364,1671,2019,5,4,20,26,19,0,0,0,0,1.2,0.7,1,41,0,43,0,0,43,0,0,0,0,0,0,36,0,36,0,40,31,36,0,0,34,0,36,0,0,0,0,0,0,0,0
6,1257,17,KB0G,0.33,3,   boost,76.86,83016,1649.52,9.88,30.67,32.8,4.2,4.15,4.16,88.5,0.65,0.42,107.04,28.25,-8.75,-0.06,-0.34,-0.02,2.37,4.17,0,0,0,0.08,1,1,13,40.8858039,-104.6377364,1671,2019,5,4,20,26,19,0,0,0,0,1.2,0.7,1,41,0,43,0,0,43,0,0,0,0,0,0,36,0,36,0,40,31,36,0,0,34,0,36,0,0,0,0,0,0,0,0
6,1257,17,KB0G,0.34,3,   boost,76.86,83016,1649.52,9.88,31.44,32.8,4.19,4.15,4.15,88.76,1.36,0.13,107.22,30.14,-8.2,-0.06,-0.33,-0.03,2.66,4.17,0,0,0,0,1,1,13,40.8858039,-104.6377364,1671,2019,5,4,20,26,19,0,0,0,0,1.2,0.7,1,41,0,43,0,0,43,0,0,0,0,0,0,36,0,36,0,40,31,36,0,0,34,0,36,0,0,0,0,0,0,0,0
6,1257,17,KB0G,0.34,3,   boost,76.86,83016,1649.52,9.88,31.44,32.8,4.19,4.15,4.15,88.76,1.36,0.13,107.22,30.14,-8.2,-0.06,-0.33,-0.03,2.66,4.17,0,0,0,0,1,1,13,40.8858039,-104.6377364,1671,2019,5,4,20,26,19,0,0,0,0,1.2,0.7,1,41,0,43,0,0,43,0,0,0,0,0,0,36,0,36,0,40,31,36,0,0,34,0,36,0,0,0,0,0,0,0,0
6,1257,17,KB0G,0.35,3,   boost,76.86,83018,1649.33,9.68,32.21,32.8,4.19,4.15,4.15,88.6,0.73,0.51,108.75,30.87,-8.26,-0.07,-0.34,-0.03,2.95,4.17,0,0,0,0,1,1,13,40.8858039,-104.6377364,1671,2019,5,4,20,26,19,0,0,0,0,1.2,0.7,1,41,0,43,0,0,43,0,0,0,0,0,0,36,0,36,0,40,31,36,0,0,34,0,36,0,0,0,0,0,0,0,0
6,1257,17,KB0G,0.36,3,   boost,76.86,83017,1649.43,9.78,32.98,32.8,4.19,4.15,4.15,88.75,1.06,0.34,110.28,32.34,-8.38,-0.06,-0.34,-0.03,3.26,4.17,0,0,0,0,1,1,13,40.8858039,-104.6377364,1671,2019,5,4,20,26,19,0,0,0,0,1.2,0.7,1,41,0,43,0,0,43,0,0,0,0,0,0,36,0,36,0,40,31,36,0,0,34,0,36,0,0,0,0,0,0,0,0
6,1257,17,KB0G,0.37,3,   boost,76.86,83017,1649.43,9.78,33.74,32.8,4.19,4.15,4.15,88.7,1.04,0.68,110.89,33.38,-8.69,-0.07,-0.32,-0.03,3.58,4.17,0,0,0,0,1,1,13,40.8858039,-104.6377364,1671,2019,5,4,20,26,19,0,0,0,0,1.2,0.7,1,41,0,43,0,0,43,0,0,0,0,0,0,36,0,36,0,40,31,36,0,0,34,0,36,0,0,0,0,0,0,0,0
6,1257,17,KB0G,0.38,3,   boost,76.86,82999,1651.19,11.54,34.51,32.8,4.19,4.15,4.15,88.71,0.98,0.11,110.09,34.66,-7.89,-0.07,-0.33,-0.03,3.92,4.17,0,0,0,0,1,1,13,40.8858039,-104.6377364,1671,2019,5,4,20,26,19,0,0,0,0,1.2,0.7,1,41,0,43,0,0,43,0,0,0,0,0,0,36,0,36,0,40,31,36,0,0,34,0,36,0,0,0,0,0,0,0,0
6,1257,17,KB0G,0.39,3,   boost,76.86,83007,1650.41,10.76,35.28,32.8,4.19,4.15,4.15,88.87,0.61,1.05,109.61,35.15,-7.89,-0.07,-0.32,-0.02,4.26,4.17,0,0,0,0,1,1,13,40.8858039,-104.6377364,1671,2019,5,4,20,26,19,0,0,0,0,1.2,0.7,1,41,0,43,0,0,43,0,0,0,0,0,0,36,0,36,0,40,31,36,0,0,34,0,36,0,0,0,0,0,0,0,0
6,1257,17,KB0G,0.4,3,   boost,76.86,83007,1650.41,10.76,36.04,32.8,4.19,4.15,4.15,88.86,0.82,-0.04,111.13,36.12,-8.32,-0.07,-0.31,-0.01,4.61,4.17,0,0,0,0,1,1,13,40.8858039,-104.6377364,1671,2019,5,4,20,26,19,0,0,0,0,1.2,0.7,1,41,0,43,0,0,43,0,0,0,0,0,0,36,0,36,0,40,31,36,0,0,34,0,36,0,0,0,0,0,0,0,0
6,1257,17,KB0G,0.41,3,   boost,76.86,82982,1652.85,13.2,36.81,32.8,4.19,4.15,4.15,88.79,0.57,1.46,114.92,36.73,-8.32,-0.07,-0.32,-0.02,4.97,4.17,0,0,0,0,1,1,13,40.8858034,-104.6377364,1671,2019,5,4,20,26,20,0,0,180,0,1.2,0.7,1,41,0,44,0,0,43,0,0,0,0,0,0,36,0,36,0,40,31,36,0,0,34,0,36,0,0,0,0,0,0,0,0
6,1257,17,KB0G,0.41,3,   boost,76.86,82982,1652.85,13.2,36.81,32.8,4.19,4.15,4.15,88.79,0.57,1.46,114.92,36.73,-8.32,-0.07,-0.32,-0.02,4.97,4.17,0,0,0,0,1,1,13,40.8858034,-104.6377364,1671,2019,5,4,20,26,20,0,0,180,0,1.2,0.7,1,41,0,44,0,0,43,0,0,0,0,0,0,36,0,36,0,40,31,36,0,0,34,0,36,0,0,0,0,0,0,0,0
6,1257,17,KB0G,0.41,3,   boost,76.86,82982,1652.85,13.2,36.81,32.8,4.19,4.15,4.15,88.79,0.57,1.46,114.92,36.73,-8.32,-0.07,-0.32,-0.02,4.97,4.17,0,0,0,0,1,1,13,40.8858034,-104.6377364,1671,2019,5,4,20,26,20,0,0,180,0,1.2,0.7,1,41,0,44,0,0,43,0,0,0,0,0,0,36,0,36,0,40,31,36,0,0,34,0,36,0,0,0,0,0,0,0,0
6,1257,17,KB0G,0.42,3,   boost,77.39,82985,1652.56,12.91,37.58,32.8,4.19,4.15,4.15,88.94,1.36,0,115.59,37.71,-8.26,-0.07,-0.31,-0.01,5.34,4.17,0,0,0,0,1,1,13,40.8858034,-104.6377364,1671,2019,5,4,20,26,20,0,0,180,0,1.2,0.7,1,41,0,44,0,0,43,0,0,0,0,0,0,36,0,36,0,40,31,36,0,0,34,0,36,0,0,0,0,0,0,0,0
6,1257,17,KB0G,0.43,3,   boost,77.39,82996,1651.48,11.83,38.35,32.8,4.19,4.15,4.15,89.29,0.68,1.78,117.66,38.32,-8.69,-0.08,-0.3,-0.01,5.72,4.17,0,0,0,0,1,1,13,40.8858034,-104.6377364,1671,2019,5,4,20,26,20,0,0,180,0,1.2,0.7,1,41,0,44,0,0,43,0,0,0,0,0,0,36,0,36,0,40,31,36,0,0,34,0,36,0,0,0,0,0,0,0,0
6,1257,17,KB0G,0.44,3,   boost,77.39,82977,1653.34,13.69,39.12,32.8,4.19,4.15,4.15,89.27,0.72,0.07,118.64,39.11,-8.32,-0.08,-0.29,0,6.1,4.17,0,0,0,0,1,1,13,40.8858034,-104.6377364,1671,2019,5,4,20,26,20,0,0,180,0,1.2,0.7,1,41,0,44,0,0,43,0,0,0,0,0,0,36,0,36,0,40,31,36,0,0,34,0,36,0,0,0,0,0,0,0,0
6,1257,17,KB0G,0.45,3,   boost,77.39,82977,1653.34,13.69,39.89,32.8,4.19,4.15,4.15,89.17,0.91,1.51,119.49,39.91,-8.08,-0.08,-0.29,-0.01,6.49,4.17,0,0,0,0,1,1,13,40.8858034,-104.6377364,1671,2019,5,4,20,26,20,0,0,180,0,1.2,0.7,1,41,0,44,0,0,43,0,0,0,0,0,0,36,0,36,0,40,31,36,0,0,34,0,36,0,0,0,0,0,0,0,0
6,1257,17,KB0G,0.46,3,   boost,77.92,82996,1651.48,11.83,40.66,32.8,4.19,4.15,4.15,89.58,0.78,0.22,119.19,40.39,-8.38,-0.08,-0.29,-0.01,6.89,4.17,0,0,0,0,1,1,13,40.8858034,-104.6377364,1671,2019,5,4,20,26,20,0,0,180,0,1.2,0.7,1,41,0,44,0,0,43,0,0,0,0,0,0,36,0,36,0,40,31,36,0,0,34,0,36,0,0,0,0,0,0,0,0
6,1257,17,KB0G,0.47,3,   boost,77.92,82958,1655.2,15.55,41.43,32.8,4.19,4.15,4.15,89.72,0.94,1.51,121.32,40.82,-7.96,-0.08,-0.29,-0.02,7.29,4.17,0,0,0,0,1,1,13,40.8858034,-104.6377364,1671,2019,5,4,20,26,20,0,0,180,0,1.2,0.7,1,41,0,44,0,0,43,0,0,0,0,0,0,36,0,36,0,40,31,36,0,0,34,0,36,0,0,0,0,0,0,0,0
6,1257,17,KB0G,0.48,3,   boost,77.92,82958,1655.2,15.55,42.2,32.8,4.19,4.15,4.15,87.68,0.6,0.53,123.09,41.25,-7.65,-0.09,-0.28,-0.01,7.69,4.17,0,0,0,0,1,1,13,40.8858034,-104.6377364,1671,2019,5,4,20,26,20,0,0,180,0,1.2,0.7,1,41,0,44,0,0,43,0,0,0,0,0,0,36,0,36,0,40,31,36,0,0,34,0,36,0,0,0,0,0,0,0,0
6,1257,17,KB0G,0.49,3,   boost,77.92,82952,1655.79,16.14,42.97,32.8,4.19,4.15,4.15,89.75,0.94,1.78,123.77,41.98,-7.65,-0.08,-0.28,-0.02,8.1,4.17,0,0,0,0,1,1,13,40.8858034,-104.6377364,1671,2019,5,4,20,26,20,0,0,180,0,1.2,0.7,1,41,0,44,0,0,43,0,0,0,0,0,0,36,0,36,0,40,31,36,0,0,34,0,36,0,0,0,0,0,0,0,0
6,1257,17,KB0G,0.5,3,   boost,77.92,82939,1657.06,17.41,43.74,32.8,4.19,4.15,4.15,89.87,0.72,0.39,126.45,42.16,-6.86,-0.09,-0.27,-0.02,8.51,4.17,0,0,0,0,1,1,13,40.8858034,-104.6377364,1671,2019,5,4,20,26,20,0,0,180,0,1.2,0.7,1,41,0,44,0,0,43,0,0,0,0,0,0,36,0,36,0,40,31,36,0,0,34,0,36,0,0,0,0,0,0,0,0
6,1257,17,KB0G,0.51,3,   boost,77.92,82939,1657.06,17.41,44.51,32.8,4.19,4.15,4.15,89.89,0.61,2.02,128.4,42.53,-6.86,-0.09,-0.26,-0.01,8.93,4.17,0,0,0,0,1,1,13,40.8858034,-104.6377364,1671,2019,5,4,20,26,20,0,0,180,0,1.2,0.7,1,41,0,44,0,0,43,0,0,0,0,0,0,36,0,36,0,40,31,36,0,0,34,0,36,0,0,0,0,0,0,0,0
6,1257,17,KB0G,0.52,3,   boost,78.45,82949,1656.08,16.43,45.29,32.8,4.19,4.15,4.15,89.99,0.68,0.54,130.24,42.65,-6.98,-0.09,-0.27,-0.01,9.34,4.17,0,0,0,0,1,1,13,40.8858034,-104.6377364,1671,2019,5,4,20,26,20,0,0,180,0,1.2,0.7,1,41,0,44,0,0,43,0,0,0,0,0,0,36,0,36,0,40,31,36,0,0,34,0,36,0,0,0,0,0,0,0,0
6,1257,17,KB0G,0.53,3,   boost,78.98,82926,1658.33,18.68,46.06,32.8,4.19,4.15,4.15,89.99,0.62,2.49,132.37,42.96,-6.31,-0.09,-0.26,-0.02,9.76,4.17,0,0,0,0,1,1,13,40.8858034,-104.6377364,1671,2019,5,4,20,26,20,0,0,180,0,1.2,0.7,1,41,0,44,0,0,43,0,0,0,0,0,0,36,0,36,0,40,31,36,0,0,34,0,36,0,0,0,0,0,0,0,0
6,1257,17,KB0G,0.54,3,   boost,79.51,82925,1658.43,18.78,46.84,32.8,4.19,4.15,4.15,90.93,0.52,0.98,136.03,42.59,-6.67,-0.09,-0.25,-0.02,10.17,4.17,0,0,0,0,1,1,13,40.8858034,-104.6377364,1671,2019,5,4,20,26,20,0,0,180,0,1.2,0.7,1,41,0,44,0,0,43,0,0,0,0,0,0,36,0,36,0,40,31,36,0,0,34,0,36,0,0,0,0,0,0,0,0
6,1257,17,KB0G,0.55,3,   boost,79.51,82915,1659.41,19.76,47.61,32.8,4.19,4.15,4.15,91.37,0.42,2.56,138.11,42.77,-6.12,-0.1,-0.24,-0.02,10.59,4.17,0,0,0,0,1,1,13,40.8858034,-104.6377364,1671,2019,5,4,20,26,20,0,0,180,0,1.2,0.7,1,41,0,44,0,0,43,0,0,0,0,0,0,36,0,36,0,40,31,36,0,0,34,0,36,0,0,0,0,0,0,0,0
6,1257,17,KB0G,0.56,3,   boost,79.51,82915,1659.41,19.76,48.39,32.8,4.19,4.15,4.15,91.47,0.44,0.83,141.83,42.16,-6.43,-0.1,-0.24,-0.01,10.99,4.17,0,0,0,0,1,1,13,40.8858034,-104.6377364,1671,2019,5,4,20,26,20,0,0,180,0,1.2,0.7,1,41,0,44,0,0,43,0,0,0,0,0,0,36,0,36,0,40,31,36,0,0,34,0,36,0,0,0,0,0,0,0,0
6,1257,17,KB0G,0.57,3,   boost,78.98,82921,1658.82,19.17,49.17,32.8,4.19,4.15,4.15,91.22,0.26,2.8,145.8,41.86,-6,-0.1,-0.24,-0.03,11.39,4.17,0,0,0,0,1,1,13,40.8858034,-104.6377364,1671,2019,5,4,20,26,20,0,0,180,0,1.2,0.7,1,41,0,44,0,0,43,0,0,0,0,0,0,36,0,36,0,40,31,36,0,0,34,0,36,0,0,0,0,0,0,0,0
6,1257,17,KB0G,0.58,3,   boost,78.98,82901,1660.78,21.13,49.94,32.8,4.19,4.15,4.15,91.2,0.33,1.3,150.32,41.07,-5.7,-0.1,-0.23,-0.03,11.79,4.17,0,0,0,0,1,1,13,40.8858034,-104.6377364,1671,2019,5,4,20,26,20,0,0,180,0,1.2,0.7,1,41,0,44,0,0,43,0,0,0,0,0,0,36,0,36,0,40,31,36,0,0,34,0,36,0,0,0,0,0,0,0,0
6,1257,17,KB0G,0.59,3,   boost,79.51,82901,1660.78,21.13,50.71,32.8,4.19,4.15,4.15,91.3,-0.06,2.97,154.96,40.88,-5.94,-0.1,-0.22,-0.02,12.17,4.17,0,0,0,0,1,1,13,40.8858034,-104.6377364,1671,2019,5,4,20,26,20,0,0,180,0,1.2,0.7,1,41,0,44,0,0,43,0,0,0,0,0,0,36,0,36,0,40,31,36,0,0,34,0,36,0,0,0,0,0,0,0,0
6,1257,17,KB0G,0.6,3,   boost,78.98,82915,1659.41,19.76,51.49,32.8,4.19,4.15,4.15,91.26,0.21,1.56,159.78,40.21,-5.7,-0.1,-0.22,-0.04,12.55,4.17,0,0,0,0,1,1,13,40.8858034,-104.6377364,1671,2019,5,4,20,26,20,0,0,180,0,1.2,0.7,1,41,0,44,0,0,43,0,0,0,0,0,0,36,0,36,0,40,31,36,0,0,34,0,36,0,0,0,0,0,0,0,0
6,1257,17,KB0G,0.61,3,   boost,79.51,82885,1662.35,22.7,52.26,32.8,4.19,4.15,4.15,91.13,0.1,3.18,163.01,39.66,-5.7,-0.1,-0.21,-0.03,12.92,4.17,0,0,0,0,1,1,13,40.8858034,-104.6377364,1671,2019,5,4,20,26,20,0,0,180,0,1.2,0.7,1,41,0,44,0,0,43,0,0,0,0,0,0,36,0,36,0,40,31,36,0,0,34,0,36,0,0,0,0,0,0,0,0
6,1257,17,KB0G,0.62,3,   boost,79.51,82847,1666.07,26.42,53.03,32.8,4.19,4.15,4.15,91.28,-0.07,1.67,168.14,38.5,-5.94,-0.11,-0.2,-0.03,13.28,4.17,0,0,0,0,1,1,13,40.8858034,-104.6377364,1671,2019,5,4,20,26,20,0,0,180,0,1.2,0.7,1,41,0,44,0,0,43,0,0,0,0,0,0,36,0,36,0,40,31,36,0,0,34,0,36,0,0,0,0,0,0,0,0
6,1257,17,KB0G,0.63,3,   boost,79.51,82875,1663.33,23.68,53.8,32.8,4.19,4.15,4.15,91.18,-0.25,3.46,172.96,37.71,-5.94,-0.11,-0.19,-0.03,13.63,4.17,0,0,0,0,1,1,13,40.8858034,-104.6377364,1671,2019,5,4,20,26,20,0,0,180,0,1.2,0.7,1,41,0,44,0,0,43,0,0,0,0,0,0,36,0,36,0,40,31,36,0,0,34,0,36,0,0,0,0,0,0,0,0
6,1257,17,KB0G,0.64,3,   boost,79.51,82856,1665.19,25.54,54.57,32.8,4.19,4.15,4.15,91.43,-0.09,1.82,177.84,36.18,-6.12,-0.11,-0.19,-0.03,13.96,4.17,0,0,0,0,1,1,13,40.8858034,-104.6377364,1671,2019,5,4,20,26,20,0,0,180,0,1.2,0.7,1,41,0,44,0,0,43,0,0,0,0,0,0,36,0,36,0,40,31,36,0,0,34,0,36,0,0,0,0,0,0,0,0
6,1257,17,KB0G,0.65,3,   boost,79.51,82856,1665.19,25.54,55.34,32.8,4.19,4.15,4.15,91.48,-0.16,3.73,180.71,35.27,-6.06,-0.11,-0.18,-0.03,14.27,4.17,0,0,0,0,1,1,13,40.8858034,-104.6377364,1671,2019,5,4,20,26,20,0,0,180,0,1.2,0.7,1,41,0,44,0,0,43,0,0,0,0,0,0,36,0,36,0,40,31,36,0,0,34,0,36,0,0,0,0,0,0,0,0
6,1257,17,KB0G,0.66,3,   boost,79.51,82836,1667.15,27.5,56.1,32.8,4.21,4.16,4.17,91.61,-0.4,1.89,187.55,33.74,-6.86,-0.11,-0.17,-0.04,14.57,4.2,0,0,0,0,1,1,13,40.8858034,-104.6377364,1671,2019,5,4,20,26,20,0,0,180,0,1.2,0.7,1,41,0,44,0,0,43,0,0,0,0,0,0,36,0,36,0,40,31,36,0,0,34,0,36,0,0,0,0,0,0,0,0
6,1257,17,KB0G,0.66,3,   boost,79.51,82836,1667.15,27.5,56.1,32.8,4.21,4.16,4.17,91.61,-0.4,1.89,187.55,33.74,-6.86,-0.11,-0.17,-0.04,14.57,4.2,0,0,0,0,1,1,13,40.8858034,-104.6377364,1671,2019,5,4,20,26,20,0,0,180,0,1.2,0.7,1,41,0,44,0,0,43,0,0,0,0,0,0,36,0,36,0,40,31,36,0,0,34,0,36,0,0,0,0,0,0,0,0
6,1257,17,KB0G,0.67,3,   boost,79.51,82836,1667.15,27.5,56.87,32.8,4.21,4.16,4.17,91.53,-0.62,3.29,193.65,32.64,-7.16,-0.11,-0.16,-0.05,14.85,4.2,0,0,0,0,1,1,13,40.8858034,-104.6377364,1671,2019,5,4,20,26,20,0,0,180,0,1.2,0.7,1,41,0,44,0,0,43,0,0,0,0,0,0,36,0,36,0,40,31,36,0,0,34,0,36,0,0,0,0,0,0,0,0
6,1257,17,KB0G,0.68,3,   boost,79.51,82844,1666.36,26.71,57.63,32.8,4.21,4.16,4.17,91.46,-0.34,2.17,199.39,31.18,-7.59,-0.11,-0.17,-0.07,15.11,4.2,0,0,0,0,1,1,13,40.8858034,-104.6377364,1671,2019,5,4,20,26,20,0,0,180,0,1.2,0.7,1,41,0,44,0,0,43,0,0,0,0,0,0,36,0,36,0,40,31,36,0,0,34,0,36,0,0,0,0,0,0,0,0
6,1257,17,KB0G,0.69,3,   boost,79.51,82810,1669.7,30.05,58.4,32.8,4.21,4.16,4.17,91.45,-0.57,3.17,204.27,30.2,-8.14,-0.11,-0.16,-0.07,15.36,4.2,0,0,0,0,1,1,13,40.8858034,-104.6377364,1671,2019,5,4,20,26,20,0,0,180,0,1.2,0.7,1,41,0,44,0,0,43,0,0,0,0,0,0,36,0,36,0,40,31,36,0,0,34,0,36,0,0,0,0,0,0,0,0
6,1257,17,KB0G,0.7,3,   boost,80.04,82810,1669.7,30.05,59.17,32.8,4.21,4.16,4.17,91.82,-0.66,2.15,210.8,28.98,-8.75,-0.12,-0.14,-0.06,15.59,4.2,0,0,0,0,1,1,13,40.8858034,-104.6377364,1671,2019,5,4,20,26,20,0,0,180,0,1.2,0.7,1,41,0,44,0,0,43,0,0,0,0,0,0,36,0,36,0,40,31,36,0,0,34,0,36,0,0,0,0,0,0,0,0
6,1257,17,KB0G,0.71,3,   boost,80.04,82813,1669.4,29.75,59.93,32.8,4.21,4.16,4.17,91.94,-0.68,2.93,217.52,28.06,-9.18,-0.11,-0.15,-0.08,15.8,4.2,0,0,0,0,1,1,13,40.8858034,-104.6377364,1671,2019,5,4,20,26,20,0,0,180,0,1.2,0.7,1,41,0,44,0,0,43,0,0,0,0,0,0,36,0,36,0,40,31,36,0,0,34,0,36,0,0,0,0,0,0,0,0
6,1257,17,KB0G,0.72,3,   boost,80.57,82806,1670.09,30.44,60.7,32.8,4.21,4.16,4.17,92.12,-1,2.27,223.13,27.09,-10.58,-0.11,-0.14,-0.09,16,4.2,0,0,0,0,1,1,13,40.8858034,-104.6377364,1671,2019,5,4,20,26,20,0,0,180,0,1.2,0.7,1,41,0,44,0,0,43,0,0,0,0,0,0,36,0,36,0,40,31,36,0,0,34,0,36,0,0,0,0,0,0,0,0
6,1257,17,KB0G,0.73,3,   boost,80.04,82797,1670.97,31.32,61.46,32.8,4.21,4.16,4.17,92.26,-0.57,3.28,229.6,26.36,-11.31,-0.12,-0.13,-0.09,16.18,4.2,0,0,0,0,1,1,13,40.8858034,-104.6377364,1671,2019,5,4,20,26,20,0,0,180,0,1.2,0.7,1,41,0,44,0,0,43,0,0,0,0,0,0,36,0,36,0,40,31,36,0,0,34,0,36,0,0,0,0,0,0,0,0
6,1257,17,KB0G,0.74,3,   boost,80.04,82805,1670.19,30.54,62.23,32.8,4.21,4.16,4.17,92.23,-1.14,2.59,234.85,25.75,-11.74,-0.12,-0.12,-0.1,16.34,4.2,0,0,0,0,1,1,13,40.8858034,-104.6377364,1671,2019,5,4,20,26,20,0,0,180,0,1.2,0.7,1,41,0,44,0,0,43,0,0,0,0,0,0,36,0,36,0,40,31,36,0,0,34,0,36,0,0,0,0,0,0,0,0
6,1257,17,KB0G,0.75,3,   boost,80.04,82762,1674.4,34.75,63,32.8,4.21,4.16,4.17,91.7,-1.42,4.06,241.57,24.95,-12.9,-0.12,-0.11,-0.11,16.49,4.2,0,0,0,0,1,1,13,40.8858034,-104.6377364,1671,2019,5,4,20,26,20,0,0,180,0,1.2,0.7,1,41,0,44,0,0,43,0,0,0,0,0,0,36,0,36,0,40,31,36,0,0,34,0,36,0,0,0,0,0,0,0,0
6,1257,17,KB0G,0.76,3,   boost,80.57,82777,1672.93,33.28,63.76,32.8,4.21,4.16,4.17,91.89,-0.92,2.31,248.34,24.16,-13.81,-0.12,-0.11,-0.11,16.61,4.2,0,0,0,0,1,1,13,40.8858034,-104.6377364,1671,2019,5,4,20,26,20,0,0,180,0,1.2,0.7,1,41,0,44,0,0,43,0,0,0,0,0,0,36,0,36,0,40,31,36,0,0,34,0,36,0,0,0,0,0,0,0,0
6,1257,17,KB0G,0.77,3,   boost,80.57,82761,1674.5,34.85,64.53,32.8,4.21,4.16,4.17,92.18,-1.63,4.11,254.63,23.06,-15.1,-0.12,-0.11,-0.13,16.72,4.2,0,0,0,0,1,1,13,40.8858034,-104.6377364,1671,2019,5,4,20,26,20,0,0,180,0,1.2,0.7,1,41,0,44,0,0,43,0,0,0,0,0,0,36,0,36,0,40,31,36,0,0,34,0,36,0,0,0,0,0,0,0,0
6,1257,17,KB0G,0.78,3,   boost,80.04,82761,1674.5,34.85,65.29,32.8,4.21,4.16,4.17,92.17,-1.42,2.72,260.79,21.96,-16.38,-0.12,-0.1,-0.15,16.8,4.2,0,0,0,0,1,1,13,40.8858034,-104.6377364,1671,2019,5,4,20,26,20,0,0,180,0,1.2,0.7,1,41,0,44,0,0,43,0,0,0,0,0,0,36,0,36,0,40,31,36,0,0,34,0,36,0,0,0,0,0,0,0,0
6,1257,17,KB0G,0.79,3,   boost,80.57,82760,1674.6,34.95,66.06,32.8,4.21,4.16,4.17,92.29,-1.51,3.66,268.48,21.05,-17.84,-0.11,-0.11,-0.16,16.85,4.2,0,0,0,0,1,1,13,40.8858034,-104.6377364,1671,2019,5,4,20,26,20,0,0,180,0,1.2,0.7,1,41,0,44,0,0,43,0,0,0,0,0,0,36,0,36,0,40,31,36,0,0,34,0,36,0,0,0,0,0,0,0,0
6,1257,17,KB0G,0.8,3,   boost,80.57,82762,1674.4,34.75,66.83,32.8,4.21,4.16,4.17,92.48,-1.59,3.01,275.99,19.82,-19.43,-0.11,-0.11,-0.18,16.88,4.2,0,0,0,0,1,1,13,40.8858034,-104.6377364,1671,2019,5,4,20,26,20,0,0,180,0,1.2,0.7,1,41,0,44,0,0,43,0,0,0,0,0,0,36,0,36,0,40,31,36,0,0,34,0,36,0,0,0,0,0,0,0,0
6,1257,17,KB0G,0.81,3,   boost,80.57,82762,1674.4,34.75,67.59,32.8,4.21,4.16,4.17,92.57,-1.58,3.64,282.1,19.21,-20.77,-0.11,-0.09,-0.18,16.88,4.2,0,0,0,0,1,1,13,40.8858034,-104.6377364,1671,2019,5,4,20,26,20,0,0,180,0,1.2,0.7,1,41,0,44,0,0,43,0,0,0,0,0,0,36,0,36,0,40,31,36,0,0,34,0,36,0,0,0,0,0,0,0,0
6,1257,17,KB0G,0.82,3,   boost,80.57,82743,1676.27,36.62,68.36,32.8,4.21,4.16,4.17,92.49,-1.02,3.13,287.04,18.67,-22.54,-0.11,-0.1,-0.19,16.86,4.2,0,0,0,0,1,1,13,40.8858034,-104.6377364,1671,2019,5,4,20,26,20,0,0,180,0,1.2,0.7,1,41,0,44,0,0,43,0,0,0,0,0,0,36,0,36,0,40,31,36,0,0,34,0,36,0,0,0,0,0,0,0,0
6,1257,17,KB0G,0.83,3,   boost,80.57,82717,1678.82,39.17,69.13,32.8,4.21,4.16,4.17,92.58,-2.05,3.35,293.39,18.24,-24.01,-0.11,-0.1,-0.21,16.82,4.2,0,0,0,0,1,1,13,40.8858034,-104.6377364,1671,2019,5,4,20,26,20,0,0,180,0,1.2,0.7,1,41,0,44,0,0,43,0,0,0,0,0,0,36,0,36,0,40,31,36,0,0,34,0,36,0,0,0,0,0,0,0,0
6,1257,17,KB0G,0.84,3,   boost,80.57,82720,1678.52,38.87,69.89,32.8,4.21,4.16,4.17,92.68,-1.59,2.79,297.84,17.81,-25.11,-0.11,-0.09,-0.22,16.76,4.2,0,0,0,0,1,1,13,40.8858034,-104.6377364,1671,2019,5,4,20,26,20,0,0,180,0,1.2,0.7,1,41,0,44,0,0,43,0,0,0,0,0,0,36,0,36,0,40,31,36,0,0,34,0,36,0,0,0,0,0,0,0,0
6,1257,17,KB0G,0.85,3,   boost,80.57,82712,1679.31,39.66,70.66,32.8,4.21,4.16,4.17,92.55,-1.68,2.56,305.41,17.38,-26.88,-0.11,-0.09,-0.24,16.67,4.2,0,0,0,0,1,1,13,40.8858034,-104.6377364,1671,2019,5,4,20,26,20,0,0,180,0,1.2,0.7,1,41,0,44,0,0,43,0,0,0,0,0,0,36,0,36,0,40,31,36,0,0,34,0,36,0,0,0,0,0,0,0,0
6,1257,17,KB0G,0.86,3,   boost,80.57,82732,1677.34,37.69,71.43,32.8,4.21,4.16,4.17,92.44,-2.05,2.83,310.78,17.75,-28.71,-0.11,-0.1,-0.25,16.55,4.2,0,0,0,0,1,1,13,40.8858034,-104.6377364,1671,2019,5,4,20,26,20,0,0,180,0,1.2,0.7,1,41,0,44,0,0,43,0,0,0,0,0,0,36,0,36,0,40,31,36,0,0,34,0,36,0,0,0,0,0,0,0,0
6,1257,17,KB0G,0.87,3,   boost,80.57,82700,1680.48,40.83,72.2,32.8,4.21,4.16,4.17,92.37,-1.32,2.62,313.47,18.18,-30.42,-0.11,-0.1,-0.27,16.42,4.2,0,0,0,0,1,1,13,40.8858034,-104.6377364,1671,2019,5,4,20,26,20,0,0,180,0,1.2,0.7,1,41,0,44,0,0,43,0,0,0,0,0,0,36,0,36,0,40,31,36,0,0,34,0,36,0,0,0,0,0,0,0,0
6,1257,17,KB0G,0.88,3,   boost,80.57,82670,1683.43,43.78,72.97,32.8,4.21,4.16,4.17,92.51,-1.92,2.53,316.28,18.97,-31.82,-0.1,-0.11,-0.28,16.26,4.2,0,0,0,0,1,1,13,40.8858034,-104.6377364,1671,2019,5,4,20,26,20,0,0,180,0,1.2,0.7,1,41,0,44,0,0,43,0,0,0,0,0,0,36,0,36,0,40,31,36,0,0,34,0,36,0,0,0,0,0,0,0,0
6,1257,17,KB0G,0.89,3,   boost,80.57,82670,1683.43,43.78,73.74,32.8,4.21,4.16,4.17,92.34,-1.77,2.62,318.66,19.58,-33.47,-0.1,-0.11,-0.29,16.08,4.2,0,0,0,0,1,1,13,40.8858034,-104.6377364,1671,2019,5,4,20,26,20,0,0,180,0,1.2,0.7,1,41,0,44,0,0,43,0,0,0,0,0,0,36,0,36,0,40,31,36,0,0,34,0,36,0,0,0,0,0,0,0,0
6,1257,17,KB0G,0.9,3,   boost,80.57,82694,1681.07,41.42,74.51,32.8,4.21,4.16,4.17,92.45,-1.26,2.24,321.53,20.86,-35.3,-0.1,-0.13,-0.31,15.89,4.2,0,0,0,0,1,1,13,40.8858034,-104.6377364,1671,2019,5,4,20,26,20,0,0,180,0,1.2,0.7,1,41,0,44,0,0,43,0,0,0,0,0,0,36,0,36,0,40,31,36,0,0,34,0,36,0,0,0,0,0,0,0,0
6,1257,17,KB0G,0.91,3,   boost,80.57,82665,1683.92,44.27,75.28,32.8,4.21,4.16,4.17,92.62,-1.83,2.72,323.05,22.02,-36.28,-0.1,-0.13,-0.33,15.67,4.2,0,0,0,0,1,1,13,40.8858034,-104.6377364,1671,2019,5,4,20,26,20,0,0,180,0,1.2,0.7,1,41,0,44,0,0,43,0,0,0,0,0,0,36,0,36,0,40,31,36,0,0,34,0,36,0,0,0,0,0,0,0,0
6,1257,17,KB0G,0.92,3,   boost,80.57,82665,1683.92,44.27,76.05,32.8,4.21,4.16,4.17,92.67,-0.84,2.32,322.5,23.37,-37.44,-0.1,-0.13,-0.33,15.45,4.2,0,0,0,0,1,1,13,40.8858034,-104.6377364,1671,2019,5,4,20,26,20,0,0,180,0,1.2,0.7,1,41,0,44,0,0,43,0,0,0,0,0,0,36,0,36,0,40,31,36,0,0,34,0,36,0,0,0,0,0,0,0,0
6,1257,17,KB0G,0.93,3,   boost,80.57,82652,1685.19,45.55,76.83,32.8,4.21,4.16,4.17,92.79,-1.69,2.76,323.48,24.46,-38.6,-0.09,-0.15,-0.36,15.2,4.2,0,0,0,0,1,1,13,40.8858034,-104.6377364,1671,2019,5,4,20,26,20,0,0,180,0,1.2,0.7,1,41,0,44,0,0,43,0,0,0,0,0,0,36,0,36,0,40,31,36,0,0,34,0,36,0,0,0,0,0,0,0,0
6,1257,17,KB0G,0.94,3,   boost,80.57,82662,1684.21,44.56,77.6,32.8,4.21,4.16,4.17,92.53,-0.78,2.26,325.37,25.75,-39.51,-0.09,-0.16,-0.37,14.94,4.2,0,0,0,0,1,1,13,40.8858034,-104.6377364,1671,2019,5,4,20,26,20,0,0,180,0,1.2,0.7,1,41,0,44,0,0,43,0,0,0,0,0,0,36,0,36,0,40,31,36,0,0,34,0,36,0,0,0,0,0,0,0,0
6,1257,17,KB0G,0.95,3,   boost,80.57,82648,1685.59,45.94,78.38,32.8,4.21,4.16,4.17,92.29,-1.05,2.88,324.76,27.09,-40.12,-0.09,-0.16,-0.37,14.66,4.2,0,0,0,0,1,1,13,40.8858034,-104.6377364,1671,2019,5,4,20,26,20,0,0,180,0,1.2,0.7,1,41,0,44,0,0,43,0,0,0,0,0,0,36,0,36,0,40,31,36,0,0,34,0,36,0,0,0,0,0,0,0,0
6,1257,17,KB0G,0.96,3,   boost,80.57,82627,1687.65,48,79.15,32.8,4.21,4.16,4.17,92.48,-0.69,2.37,324.03,28.37,-40.73,-0.09,-0.17,-0.39,14.37,4.2,0,0,0,0,1,1,13,40.8858034,-104.6377364,1671,2019,5,4,20,26,20,0,0,180,0,1.2,0.7,1,41,0,44,0,0,43,0,0,0,0,0,0,36,0,36,0,40,31,36,0,0,34,0,36,0,0,0,0,0,0,0,0
6,1257,17,KB0G,0.97,3,   boost,80.57,82616,1688.73,49.08,79.93,32.8,4.21,4.16,4.17,92.48,-0.71,3.53,322.87,29.47,-40.61,-0.08,-0.19,-0.39,14.08,4.2,0,0,0,0,1,1,13,40.8858034,-104.6377364,1671,2019,5,4,20,26,20,0,0,180,0,1.2,0.7,1,41,0,44,0,0,43,0,0,0,0,0,0,36,0,36,0,40,31,36,0,0,34,0,36,0,0,0,0,0,0,0,0
6,1257,17,KB0G,0.98,3,   boost,80.57,82610,1689.32,49.67,80.71,32.8,4.2,4.15,4.17,92.56,-0.34,2.19,321.34,30.57,-40.73,-0.08,-0.2,-0.39,13.77,4.2,0,0,0.01,0.01,1,1,13,40.8858034,-104.6377364,1671,2019,5,4,20,26,20,0,0,180,0,1.2,0.7,1,41,0,44,0,0,43,0,0,0,0,0,0,36,0,36,0,40,31,36,0,0,34,0,36,0,0,0,0,0,0,0,0
6,1257,17,KB0G,0.98,3,   boost,80.57,82610,1689.32,49.67,80.71,32.8,4.2,4.15,4.17,92.56,-0.34,2.19,321.34,30.57,-40.73,-0.08,-0.2,-0.39,13.77,4.2,0,0,0.01,0.01,1,1,13,40.8858034,-104.6377364,1671,2019,5,4,20,26,20,0,0,180,0,1.2,0.7,1,41,0,44,0,0,43,0,0,0,0,0,0,36,0,36,0,40,31,36,0,0,34,0,36,0,0,0,0,0,0,0,0
6,1257,17,KB0G,0.99,3,   boost,80.57,82574,1692.85,53.21,81.49,32.8,4.2,4.15,4.17,92.74,0.04,3.9,318.72,31.54,-40.98,-0.08,-0.21,-0.41,13.46,4.2,0,0,0.01,0.01,1,1,13,40.8858034,-104.6377364,1671,2019,5,4,20,26,20,0,0,180,0,1.2,0.7,1,41,0,44,0,0,43,0,0,0,0,0,0,36,0,36,0,40,31,36,0,0,34,0,36,0,0,0,0,0,0,0,0
6,1257,17,KB0G,1,3,   boost,81.1,82574,1692.85,53.21,82.28,32.8,4.2,4.15,4.17,92.93,-0.31,2.61,316.22,32.22,-40.49,-0.08,-0.23,-0.4,13.14,4.2,0,0,0.01,0.01,1,1,13,40.8858034,-104.6377364,1671,2019,5,4,20,26,20,0,0,180,0,1.2,0.7,1,41,0,44,0,0,43,0,0,0,0,0,0,36,0,36,0,40,31,36,0,0,34,0,36,0,0,0,0,0,0,0,0
6,1257,17,KB0G,1.01,3,   boost,81.1,82593,1690.99,51.34,83.06,32.8,4.2,4.15,4.17,92.89,0.45,4.34,311.94,32.46,-40.06,-0.07,-0.25,-0.43,12.81,4.2,0,0,0.01,0.01,1,1,13,40.8858034,-104.6377364,1671,2019,5,4,20,26,20,0,0,180,0,1.2,0.7,1,41,0,44,0,0,43,0,0,0,0,0,0,36,0,36,0,40,31,36,0,0,34,0,36,0,0,0,0,0,0,0,0
6,1257,17,KB0G,1.02,3,   boost,81.1,82561,1694.13,54.48,83.85,32.8,4.2,4.15,4.17,93.07,0.19,3.22,306.69,32.64,-39.51,-0.07,-0.27,-0.44,12.48,4.2,0,0,0.01,0.01,1,1,13,40.8858034,-104.6377364,1671,2019,5,4,20,26,20,0,0,180,0,1.2,0.7,1,41,0,44,0,0,43,0,0,0,0,0,0,36,0,36,0,40,31,36,0,0,34,0,36,0,0,0,0,0,0,0,0
6,1257,17,KB0G,1.03,3,   boost,81.1,82561,1694.13,54.48,84.64,32.8,4.2,4.15,4.17,93,0.22,4.38,301.63,32.34,-38.66,-0.07,-0.27,-0.43,12.15,4.2,0,0,0.01,0.01,1,1,13,40.8858034,-104.6377364,1671,2019,5,4,20,26,20,0,0,180,0,1.2,0.7,1,41,0,44,0,0,43,0,0,0,0,0,0,36,0,36,0,40,31,36,0,0,34,0,36,0,0,0,0,0,0,0,0
6,1257,17,KB0G,1.04,3,   boost,81.1,82561,1694.13,54.48,85.43,32.8,4.2,4.15,4.17,93.05,0.53,3.31,295.52,31.79,-37.99,-0.06,-0.29,-0.44,11.82,4.2,0,0,0.01,0.01,1,1,13,40.8858034,-104.6377364,1671,2019,5,4,20,26,20,0,0,180,0,1.2,0.7,1,41,0,44,0,0,43,0,0,0,0,0,0,36,0,36,0,40,31,36,0,0,34,0,36,0,0,0,0,0,0,0,0
6,1257,17,KB0G,1.05,3,   boost,81.1,82542,1696,56.35,86.23,32.7,4.2,4.15,4.17,93.07,0.18,4.33,289.66,31.42,-36.46,-0.06,-0.31,-0.45,11.49,4.2,0,0,0.01,0.01,1,1,13,40.8858034,-104.6377364,1671,2019,5,4,20,26,20,0,0,180,0,1.2,0.7,1,41,0,44,0,0,43,0,0,0,0,0,0,36,0,36,0,40,31,36,0,0,34,0,36,0,0,0,0,0,0,0,0
6,1257,17,KB0G,1.06,3,   boost,81.1,82536,1696.59,56.94,87.02,32.8,4.2,4.15,4.17,93.07,0.46,3.82,285.88,30.99,-36.58,-0.06,-0.31,-0.44,11.16,4.2,0,0,0.01,0.01,1,1,13,40.8858034,-104.6377364,1671,2019,5,4,20,26,20,0,0,180,0,1.2,0.7,1,41,0,44,0,0,43,0,0,0,0,0,0,36,0,36,0,40,31,36,0,0,34,0,36,0,0,0,0,0,0,0,0
6,1257,17,KB0G,1.07,3,   boost,81.63,82526,1697.57,57.92,87.82,32.8,4.2,4.15,4.17,93.13,0.96,4.8,280.57,30.32,-35.97,-0.06,-0.33,-0.45,10.82,4.2,0,0,0.01,0.01,1,1,13,40.8858034,-104.6377364,1671,2019,5,4,20,26,20,0,0,180,0,1.2,0.7,1,41,0,44,0,0,43,0,0,0,0,0,0,36,0,36,0,40,31,36,0,0,34,0,36,0,0,0,0,0,0,0,0
6,1257,17,KB0G,1.08,3,   boost,81.63,82521,1698.06,58.41,88.62,32.8,4.2,4.15,4.17,93.32,0.68,3.71,273.98,29.41,-35.54,-0.06,-0.34,-0.44,10.49,4.2,0,0,0.01,0.01,1,1,13,40.8858034,-104.6377364,1671,2019,5,4,20,26,20,0,0,180,0,1.2,0.7,1,41,0,44,0,0,43,0,0,0,0,0,0,36,0,36,0,40,31,36,0,0,34,0,36,0,0,0,0,0,0,0,0
6,1257,17,KB0G,1.09,3,   boost,81.1,82491,1701.01,61.36,89.41,32.8,4.2,4.15,4.17,93.44,0.97,5.5,265.86,28.19,-34.63,-0.06,-0.36,-0.43,10.15,4.2,0,0,0.01,0.01,1,1,13,40.8858034,-104.6377364,1671,2019,5,4,20,26,20,0,0,180,0,1.2,0.7,1,41,0,44,0,0,43,0,0,0,0,0,0,36,0,36,0,40,31,36,0,0,34,0,36,0,0,0,0,0,0,0,0
6,1257,17,KB0G,1.1,3,   boost,81.1,82472,1702.88,63.23,90.21,32.8,4.2,4.15,4.17,93.26,1.21,4.14,258.35,26.05,-33.47,-0.06,-0.37,-0.44,9.82,4.2,0,0,0.01,0.01,1,1,13,40.8858034,-104.6377364,1671,2019,5,4,20,26,20,0,0,180,0,1.2,0.7,1,41,0,44,0,0,43,0,0,0,0,0,0,36,0,36,0,40,31,36,0,0,34,0,36,0,0,0,0,0,0,0,0
6,1257,17,KB0G,1.11,3,   boost,81.1,82472,1702.88,63.23,91.01,32.8,4.2,4.15,4.17,93.18,1.29,5.31,251.33,24.59,-33.22,-0.06,-0.38,-0.44,9.49,4.2,0,0,0.01,0.01,1,1,13,40.8858034,-104.6377364,1671,2019,5,4,20,26,20,0,0,180,0,1.2,0.7,1,41,0,44,0,0,43,0,0,0,0,0,0,36,0,36,0,40,31,36,0,0,34,0,36,0,0,0,0,0,0,0,0
6,1257,17,KB0G,1.12,3,   boost,81.63,82481,1702,62.35,91.82,32.8,4.2,4.15,4.17,93.28,1.03,5.16,243.15,22.39,-32.43,-0.05,-0.4,-0.45,9.16,4.2,0,0,0.01,0.01,1,1,13,40.8858034,-104.6377364,1671,2019,5,4,20,26,20,0,0,180,0,1.2,0.7,1,41,0,44,0,0,43,0,0,0,0,0,0,36,0,36,0,40,31,36,0,0,34,0,36,0,0,0,0,0,0,0,0
6,1257,17,KB0G,1.13,3,   boost,81.63,82444,1705.63,65.99,92.62,32.8,4.2,4.15,4.17,93.45,1.73,5.09,236.07,20.5,-32.13,-0.05,-0.42,-0.44,8.83,4.2,0,0,0.01,0.01,1,1,13,40.8858034,-104.6377364,1671,2019,5,4,20,26,20,0,0,180,0,1.2,0.7,1,41,0,44,0,0,43,0,0,0,0,0,0,36,0,36,0,40,31,36,0,0,34,0,36,0,0,0,0,0,0,0,0
6,1257,17,KB0G,1.14,3,   boost,81.63,82444,1705.63,65.99,93.42,32.8,4.2,4.15,4.17,93.53,1.68,4.55,228.93,17.81,-31.7,-0.05,-0.42,-0.45,8.5,4.2,0,0,0.01,0.01,1,1,13,40.8858034,-104.6377364,1671,2019,5,4,20,26,20,0,0,180,0,1.2,0.7,1,41,0,44,0,0,43,0,0,0,0,0,0,36,0,36,0,40,31,36,0,0,34,0,36,0,0,0,0,0,0,0,0
6,1257,17,KB0G,1.15,3,   boost,81.63,82431,1706.91,67.26,94.23,32.8,4.2,4.15,4.17,93.57,1.58,5.69,220.08,15.49,-30.6,-0.05,-0.44,-0.45,8.18,4.2,0,0,0.01,0.01,1,1,13,40.8858034,-104.6377364,1671,2019,5,4,20,26,20,0,0,180,0,1.2,0.7,1,41,0,44,0,0,43,0,0,0,0,0,0,36,0,36,0,40,31,36,0,0,34,0,36,0,0,0,0,0,0,0,0
6,1257,17,KB0G,1.16,3,   boost,81.63,82398,1710.16,70.51,95.04,32.7,4.2,4.15,4.17,93.5,1.73,4.78,212.15,12.99,-29.81,-0.05,-0.45,-0.44,7.87,4.2,0,0,0.01,0.01,1,1,13,40.8858034,-104.6377364,1671,2019,5,4,20,26,20,0,0,180,0,1.2,0.7,1,41,0,44,0,0,43,0,0,0,0,0,0,36,0,36,0,40,31,36,0,0,34,0,36,0,0,0,0,0,0,0,0
6,1257,17,KB0G,1.17,3,   boost,81.63,82391,1710.85,71.2,95.85,32.7,4.2,4.15,4.17,93.46,1.57,5.3,203.91,10.73,-29.38,-0.05,-0.45,-0.42,7.57,4.2,0,0,0.01,0.01,1,1,13,40.8858034,-104.6377364,1671,2019,5,4,20,26,20,0,0,180,0,1.2,0.7,1,41,0,44,0,0,43,0,0,0,0,0,0,36,0,36,0,40,31,36,0,0,34,0,36,0,0,0,0,0,0,0,0
6,1257,17,KB0G,1.18,3,   boost,81.63,82390,1710.95,71.3,96.65,32.7,4.2,4.15,4.17,93.75,3.06,5.24,196.46,8.04,-28.52,-0.05,-0.46,-0.43,7.27,4.2,0,0,0.01,0.01,1,1,13,40.8858034,-104.6377364,1671,2019,5,4,20,26,20,0,0,180,0,1.2,0.7,1,41,0,44,0,0,43,0,0,0,0,0,0,36,0,36,0,40,31,36,0,0,34,0,36,0,0,0,0,0,0,0,0
6,1257,17,KB0G,1.19,3,   boost,81.63,82386,1711.34,71.69,97.46,32.8,4.2,4.15,4.17,93.52,1.6,5.32,189.08,5.85,-27.06,-0.05,-0.47,-0.43,6.99,4.2,0,0,0.01,0.01,1,1,13,40.8858034,-104.6377364,1671,2019,5,4,20,26,20,0,0,180,0,1.2,0.7,1,41,0,44,0,0,43,0,0,0,0,0,0,36,0,36,0,40,31,36,0,0,34,0,36,0,0,0,0,0,0,0,0
6,1257,17,KB0G,1.2,3,   boost,81.63,82367,1713.21,73.56,98.27,32.8,4.2,4.15,4.17,93.41,2.68,5.23,182.12,2.61,-27.36,-0.05,-0.48,-0.43,6.72,4.2,0,0,0.01,0.01,1,1,13,40.8858034,-104.6377364,1671,2019,5,4,20,26,20,0,0,180,0,1.2,0.7,1,41,0,44,0,0,43,0,0,0,0,0,0,36,0,36,0,40,31,36,0,0,34,0,36,0,0,0,0,0,0,0,0
6,1257,17,KB0G,1.21,3,   boost,81.63,82349,1714.98,75.33,99.08,32.8,4.2,4.15,4.17,93.47,2.57,5.45,174.91,0.05,-25.9,-0.05,-0.49,-0.42,6.47,4.2,0,0,0.01,0.01,1,1,13,40.8858034,-104.6377364,1671,2019,5,4,20,26,20,0,0,180,0,1.2,0.7,1,41,0,44,0,0,43,0,0,0,0,0,0,36,0,36,0,40,31,36,0,0,34,0,36,0,0,0,0,0,0,0,0
6,1257,17,KB0G,1.22,3,   boost,81.63,82349,1714.98,75.33,99.89,32.8,4.2,4.15,4.17,93.68,2.67,5.1,168.63,-2.82,-24.98,-0.05,-0.5,-0.42,6.24,4.2,0,0,0.01,0.01,1,1,13,40.8858034,-104.6377364,1671,2019,5,4,20,26,20,0,0,180,0,1.2,0.7,1,41,0,44,0,0,43,0,0,0,0,0,0,36,0,36,0,40,31,36,0,0,34,0,36,0,0,0,0,0,0,0,0
6,1257,17,KB0G,1.23,3,   boost,81.63,82339,1715.97,76.32,100.7,32.8,4.2,4.15,4.17,93.76,3.12,4.89,162.28,-5.57,-24.01,-0.05,-0.51,-0.43,6.04,4.2,0,0,0.01,0.01,1,1,13,40.8858034,-104.6377364,1671,2019,5,4,20,26,20,0,0,180,0,1.2,0.7,1,41,0,44,0,0,43,0,0,0,0,0,0,36,0,36,0,40,31,36,0,0,34,0,36,0,0,0,0,0,0,0,0
6,1257,17,KB0G,1.24,3,   boost,81.63,82333,1716.56,76.91,101.52,32.8,4.2,4.15,4.17,93.78,2.75,5.24,156.24,-8.5,-23.4,-0.05,-0.52,-0.43,5.86,4.2,0,0,0.01,0.01,1,1,13,40.8858034,-104.6377364,1671,2019,5,4,20,26,20,0,0,180,0,1.2,0.7,1,41,0,44,0,0,43,0,0,0,0,0,0,36,0,36,0,40,31,36,0,0,34,0,36,0,0,0,0,0,0,0,0
