#version,serial,flight,call,time,state,state_name,acceleration,pressure,altitude,height,speed,temperature,drogue_voltage,main_voltage,battery_voltage,accel_x,accel_y,accel_z,gyro_roll,gyro_pitch,gyro_yaw,mag_x,mag_y,mag_z,tilt,pyro,igniter_a,igniter_b,igniter_c,igniter_d,connected,locked,nsat,latitude,longitude,altitude,year,month,day,hour,minute,second,pad_dist,pad_range,pad_az,pad_el,pdop,hdop,vdop,sat01,sat02,sat03,sat04,sat05,sat06,sat07,sat08,sat09,sat10,sat11,sat12,sat13,sat14,sat15,sat16,sat17,sat18,sat19,sat20,sat21,sat22,sat23,sat24,sat25,sat26,sat27,sat28,sat29,sat30,sat31,sat32
6, 4357, 3,KB0G,    -0.30, 3,   boost,   -0.54,  97046.00,  362.44,    0.43,    0.00, 21.5, 4.15, 4.17, 4.15,   9.89,  -0.23,  -0.11,   0.10,  -0.09,   0.07,   0.14,   0.28,   0.25,   1.46, 4.14, 0.00, 0.00, 0.00, 0.00, 1, 1, 11,  37.1687075, -97.7339931,   384.0, 2019, 11, 10, 15, 54, 53,        0,        0,   0,   0,   1.5,   0.9,   1.1,  0,  0,  0,  0, 41,  0,  0,  0,  0, 22,  0,  0, 39,  0, 41, 29,  0,  0,  0, 33, 38,  0,  0,  0,  0, 31, 38,  0, 38,  0,  0,  0
6, 4357, 3,KB0G,    -0.29, 3,   boost,   -0.54,  97045.00,  362.53,    0.52,    0.00, 21.5, 4.15, 4.17, 4.15,   9.77,  -0.34,  -0.09,  -0.14,  -0.03,   0.01,   0.12,   0.28,   0.25,   1.46, 4.14, 0.00, 0.00, 0.00, 0.00, 1, 1, 11,  37.1687075, -97.7339931,   384.0, 2019, 11, 10, 15, 54, 53,        0,        0,   0,   0,   1.5,   0.9,   1.1,  0,  0,  0,  0, 41,  0,  0,  0,  0, 22,  0,  0, 39,  0, 41, 29,  0,  0,  0, 33, 38,  0,  0,  0,  0, 31, 38,  0, 38,  0,  0,  0
6, 4357, 3,KB0G,    -0.28, 3,   boost,   -0.54,  97051.00,  362.01,    0.00,    0.00, 21.5, 4.15, 4.17, 4.15,   9.90,  -0.17,  -0.12,  -0.33,   0.09,   0.19,   0.14,   0.30,   0.24,   1.46, 4.14, 0.00, 0.00, 0.00, 0.00, 1, 1, 11,  37.1687075, -97.7339931,   384.0, 2019, 11, 10, 15, 54, 53,        0,        0,   0,   0,   1.5,   0.9,   1.1,  0,  0,  0,  0, 41,  0,  0,  0,  0, 22,  0,  0, 39,  0, 41, 29,  0,  0,  0, 33, 38,  0,  0,  0,  0, 31, 38,  0, 38,  0,  0,  0
6, 4357, 3,KB0G,    -0.27, 3,   boost,   -0.00,  97049.00,  362.18,    0.17,    0.00, 21.5, 4.15, 4.17, 4.15,   9.75,  -0.06,  -0.18,  -0.20,   0.03,   0.25,   0.11,   0.29,   0.25,   1.46, 4.14, 0.00, 0.00, 0.00, 0.00, 1, 1, 11,  37.1687075, -97.7339931,   384.0, 2019, 11, 10, 15, 54, 53,        0,        0,   0,   0,   1.5,   0.9,   1.1,  0,  0,  0,  0, 41,  0,  0,  0,  0, 22,  0,  0, 39,  0, 41, 29,  0,  0,  0, 33, 38,  0,  0,  0,  0, 31, 38,  0, 38,  0,  0,  0
6, 4357, 3,KB0G,    -0.26, 3,   boost,   -0.00,  97046.00,  362.44,    0.43,    0.00, 21.5, 4.15, 4.17, 4.15,   9.82,  -0.22,  -0.27,  -0.02,   0.03,   0.25,   0.13,   0.30,   0.25,   1.46, 4.14, 0.00, 0.00, 0.00, 0.00, 1, 1, 11,  37.1687075, -97.7339931,   384.0, 2019, 11, 10, 15, 54, 53,        0,        0,   0,   0,   1.5,   0.9,   1.1,  0,  0,  0,  0, 41,  0,  0,  0,  0, 22,  0,  0, 39,  0, 41, 29,  0,  0,  0, 33, 38,  0,  0,  0,  0, 31, 38,  0, 38,  0,  0,  0
6, 4357, 3,KB0G,    -0.25, 3,   boost,   -0.00,  97058.00,  361.41,   -0.60,    0.00, 21.5, 4.15, 4.17, 4.15,   9.79,  -0.02,  -0.22,  -0.20,  -0.03,   0.07,   0.13,   0.28,   0.25,   1.46, 4.14, 0.00, 0.00, 0.00, 0.00, 1, 1, 11,  37.1687075, -97.7339931,   384.0, 2019, 11, 10, 15, 54, 53,        0,        0,   0,   0,   1.5,   0.9,   1.1,  0,  0,  0,  0, 41,  0,  0,  0,  0, 22,  0,  0, 39,  0, 41, 29,  0,  0,  0, 33, 38,  0,  0,  0,  0, 31, 38,  0, 38,  0,  0,  0
6, 4357, 3,KB0G,    -0.24, 3,   boost,   -0.00,  97047.00,  362.36,    0.34,    0.00, 21.5, 4.15, 4.17, 4.15,   9.91,  -0.10,  -0.18,  -0.08,   0.09,  -0.05,   0.13,   0.29,   0.26,   1.46, 4.14, 0.00, 0.00, 0.00, 0.00, 1, 1, 11,  37.1687075, -97.7339931,   384.0, 2019, 11, 10, 15, 54, 53,        0,        0,   0,   0,   1.5,   0.9,   1.1,  0,  0,  0,  0, 41,  0,  0,  0,  0, 22,  0,  0, 39,  0, 41, 29,  0,  0,  0, 33, 38,  0,  0,  0,  0, 31, 38,  0, 38,  0,  0,  0
6, 4357, 3,KB0G,    -0.23, 3,   boost,   -0.00,  97058.00,  361.41,   -0.60,    0.00, 21.5, 4.15, 4.17, 4.15,   9.74,  -0.23,  -0.20,  -0.14,  -0.09,  -0.05,   0.11,   0.29,   0.24,   1.46, 4.14, 0.00, 0.00, 0.00, 0.00, 1, 1, 11,  37.1687075, -97.7339931,   384.0, 2019, 11, 10, 15, 54, 53,        0,        0,   0,   0,   1.5,   0.9,   1.1,  0,  0,  0,  0, 41,  0,  0,  0,  0, 22,  0,  0, 39,  0, 41, 29,  0,  0,  0, 33, 38,  0,  0,  0,  0, 31, 38,  0, 38,  0,  0,  0
6, 4357, 3,KB0G,    -0.22, 3,   boost,   -0.54,  97056.00,  361.58,   -0.43,    0.00, 21.5, 4.15, 4.17, 4.15,   9.75,  -0.20,  -0.15,  -0.14,   0.09,  -0.11,   0.12,   0.29,   0.25,   1.46, 4.14, 0.00, 0.00, 0.00, 0.00, 1, 1, 11,  37.1687075, -97.7339931,   384.0, 2019, 11, 10, 15, 54, 53,        0,        0,   0,   0,   1.5,   0.9,   1.1,  0,  0,  0,  0, 41,  0,  0,  0,  0, 22,  0,  0, 39,  0, 41, 29,  0,  0,  0, 33, 38,  0,  0,  0,  0, 31, 38,  0, 38,  0,  0,  0
6, 4357, 3,KB0G,    -0.21, 3,   boost,   -0.54,  97044.00,  362.62,    0.60,    0.00, 21.5, 4.15, 4.17, 4.15,   9.92,  -0.08,  -0.06,   0.04,  -0.03,  -0.11,   0.12,   0.29,   0.25,   1.46, 4.14, 0.00, 0.00, 0.00, 0.00, 1, 1, 11,  37.1687075, -97.7339931,   384.0, 2019, 11, 10, 15, 54, 53,        0,        0,   0,   0,   1.5,   0.9,   1.1,  0,  0,  0,  0, 41,  0,  0,  0,  0, 22,  0,  0, 39,  0, 41, 29,  0,  0,  0, 33, 38,  0,  0,  0,  0, 31, 38,  0, 38,  0,  0,  0
6, 4357, 3,KB0G,    -0.20, 3,   boost,   -0.54,  97053.00,  361.84,   -0.17,    0.00, 21.5, 4.15, 4.17, 4.15,   9.65,  -0.10,   0.06,   0.16,   0.09,   0.01,   0.12,   0.29,   0.25,   1.46, 4.14, 0.00, 0.00, 0.00, 0.00, 1, 1, 11,  37.1687075, -97.7339931,   384.0, 2019, 11, 10, 15, 54, 53,        0,        0,   0,   0,   1.5,   0.9,   1.1,  0,  0,  0,  0, 41,  0,  0,  0,  0, 22,  0,  0, 39,  0, 41, 29,  0,  0,  0, 33, 38,  0,  0,  0,  0, 31, 38,  0, 38,  0,  0,  0
6, 4357, 3,KB0G,    -0.19, 3,   boost,   -0.54,  97045.00,  362.53,    0.52,    0.00, 21.5, 4.15, 4.17, 4.15,  10.00,  -0.22,  -0.37,   0.28,   0.03,   0.01,   0.13,   0.29,   0.25,   1.46, 4.14, 0.00, 0.00, 0.00, 0.00, 1, 1, 11,  37.1687075, -97.7339931,   384.0, 2019, 11, 10, 15, 54, 53,        0,        0,   0,   0,   1.5,   0.9,   1.1,  0,  0,  0,  0, 41,  0,  0,  0,  0, 22,  0,  0, 39,  0, 41, 29,  0,  0,  0, 33, 38,  0,  0,  0,  0, 31, 38,  0, 38,  0,  0,  0
6, 4357, 3,KB0G,    -0.18, 3,   boost,   -0.54,  97047.00,  362.36,    0.34,    0.00, 21.5, 4.15, 4.17, 4.15,   9.83,  -0.34,   0.08,   0.10,   0.09,   0.07,   0.13,   0.29,   0.25,   1.46, 4.14, 0.00, 0.00, 0.00, 0.00, 1, 1, 11,  37.1687075, -97.7339931,   384.0, 2019, 11, 10, 15, 54, 53,        0,        0,   0,   0,   1.5,   0.9,   1.1,  0,  0,  0,  0, 41,  0,  0,  0,  0, 22,  0,  0, 39,  0, 41, 29,  0,  0,  0, 33, 38,  0,  0,  0,  0, 31, 38,  0, 38,  0,  0,  0
6, 4357, 3,KB0G,    -0.17, 3,   boost,   -0.54,  97059.00,  361.32,   -0.69,    0.00, 21.5, 4.15, 4.17, 4.15,   9.92,  -0.13,  -0.13,  -0.02,   0.03,   0.01,   0.12,   0.30,   0.25,   1.46, 4.14, 0.00, 0.00, 0.00, 0.00, 1, 1, 11,  37.1687075, -97.7339931,   384.0, 2019, 11, 10, 15, 54, 53,        0,        0,   0,   0,   1.5,   0.9,   1.1,  0,  0,  0,  0, 41,  0,  0,  0,  0, 22,  0,  0, 39,  0, 41, 29,  0,  0,  0, 33, 38,  0,  0,  0,  0, 31, 38,  0, 38,  0,  0,  0
6, 4357, 3,KB0G,    -0.16, 3,   boost,   -0.54,  97056.00,  361.58,   -0.43,    0.00, 21.5, 4.15, 4.17, 4.15,   9.81,   0.20,   0.11,   0.71,  -0.03,   0.01,   0.12,   0.30,   0.24,   1.46, 4.14, 0.00, 0.00, 0.00, 0.00, 1, 1, 11,  37.1687075, -97.7339931,   384.0, 2019, 11, 10, 15, 54, 53,        0,        0,   0,   0,   1.5,   0.9,   1.1,  0,  0,  0,  0, 41,  0,  0,  0,  0, 22,  0,  0, 39,  0, 41, 29,  0,  0,  0, 33, 38,  0,  0,  0,  0, 31, 38,  0, 38,  0,  0,  0
6, 4357, 3,KB0G,    -0.15, 3,   boost,   -0.54,  97045.00,  362.53,    0.52,    0.00, 21.5, 4.15, 4.17, 4.15,   9.85,  -0.02,  -0.46,   0.53,  -0.21,  -0.11,   0.13,   0.29,   0.24,   1.46, 4.14, 0.00, 0.00, 0.00, 0.00, 1, 1, 11,  37.1687075, -97.7339931,   384.0, 2019, 11, 10, 15, 54, 53,        0,        0,   0,   0,   1.5,   0.9,   1.1,  0,  0,  0,  0, 41,  0,  0,  0,  0, 22,  0,  0, 39,  0, 41, 29,  0,  0,  0, 33, 38,  0,  0,  0,  0, 31, 38,  0, 38,  0,  0,  0
6, 4357, 3,KB0G,    -0.14, 3,   boost,   -0.54,  97043.00,  362.70,    0.69,    0.00, 21.5, 4.15, 4.17, 4.15,   9.40,  -0.66,  -0.12,  -0.20,  -0.09,  -0.23,   0.13,   0.29,   0.25,   1.46, 4.14, 0.00, 0.00, 0.00, 0.00, 1, 1, 11,  37.1687075, -97.7339931,   384.0, 2019, 11, 10, 15, 54, 53,        0,        0,   0,   0,   1.5,   0.9,   1.1,  0,  0,  0,  0, 41,  0,  0,  0,  0, 22,  0,  0, 39,  0, 41, 29,  0,  0,  0, 33, 38,  0,  0,  0,  0, 31, 38,  0, 38,  0,  0,  0
6, 4357, 3,KB0G,    -0.13, 3,   boost,   -0.54,  97059.00,  361.32,   -0.69,    0.00, 21.5, 4.15, 4.17, 4.15,  10.10,  -0.48,  -0.00,  -0.14,   0.15,  -0.17,   0.13,   0.29,   0.25,   1.46, 4.14, 0.00, 0.00, 0.00, 0.00, 1, 1, 11,  37.1687075, -97.7339931,   384.0, 2019, 11, 10, 15, 54, 53,        0,        0,   0,   0,   1.5,   0.9,   1.1,  0,  0,  0,  0, 41,  0,  0,  0,  0, 22,  0,  0, 39,  0, 41, 29,  0,  0,  0, 33, 38,  0,  0,  0,  0, 31, 38,  0, 38,  0,  0,  0
6, 4357, 3,KB0G,    -0.12, 3,   boost,   -0.54,  97055.00,  361.67,   -0.34,    0.00, 21.5, 4.15, 4.17, 4.15,  10.28,  -0.04,   0.28,  -0.20,   0.03,  -0.11,   0.14,   0.28,   0.25,   1.46, 4.14, 0.00, 0.00, 0.00, 0.00, 1, 1, 11,  37.1687075, -97.7339931,   384.0, 2019, 11, 10, 15, 54, 53,        0,        0,   0,   0,   1.5,   0.9,   1.1,  0,  0,  0,  0, 41,  0,  0,  0,  0, 22,  0,  0, 39,  0, 41, 29,  0,  0,  0, 33, 38,  0,  0,  0,  0, 31, 38,  0, 38,  0,  0,  0
6, 4357, 3,KB0G,    -0.11, 3,   boost,   -0.00,  97054.00,  361.75,   -0.26,    0.00, 21.5, 4.15, 4.17, 4.15,   9.68,  -0.67,  -0.77,  -0.20,   0.03,   0.01,   0.13,   0.28,   0.25,   1.46, 4.14, 0.00, 0.00, 0.00, 0.00, 1, 1, 11,  37.1687075, -97.7339931,   384.0, 2019, 11, 10, 15, 54, 53,        0,        0,   0,   0,   1.5,   0.9,   1.1,  0,  0,  0,  0, 41,  0,  0,  0,  0, 22,  0,  0, 39,  0, 41, 29,  0,  0,  0, 33, 38,  0,  0,  0,  0, 31, 38,  0, 38,  0,  0,  0
6, 4357, 3,KB0G,    -0.10, 3,   boost,   -0.54,  97048.00,  362.27,    0.26,    0.00, 21.5, 4.15, 4.17, 4.15,   9.62,  -0.54,  -0.62,  -0.26,   0.03,   0.13,   0.13,   0.29,   0.26,   1.46, 4.14, 0.00, 0.00, 0.00, 0.00, 1, 1, 11,  37.1687075, -97.7339931,   384.0, 2019, 11, 10, 15, 54, 53,        0,        0,   0,   0,   1.5,   0.9,   1.1,  0,  0,  0,  0, 41,  0,  0,  0,  0, 22,  0,  0, 39,  0, 41, 29,  0,  0,  0, 33, 38,  0,  0,  0,  0, 31, 38,  0, 38,  0,  0,  0
6, 4357, 3,KB0G,    -0.09, 3,   boost,   -0.54,  97055.00,  361.67,   -0.34,    0.00, 21.5, 4.15, 4.17, 4.15,  10.17,  -0.43,  -0.32,   0.83,  -0.09,   0.32,   0.13,   0.29,   0.24,   1.46, 4.14, 0.00, 0.00, 0.00, 0.00, 1, 1, 11,  37.1687075, -97.7339931,   384.0, 2019, 11, 10, 15, 54, 53,        0,        0,   0,   0,   1.5,   0.9,   1.1,  0,  0,  0,  0, 41,  0,  0,  0,  0, 22,  0,  0, 39,  0, 41, 29,  0,  0,  0, 33, 38,  0,  0,  0,  0, 31, 38,  0, 38,  0,  0,  0
6, 4357, 3,KB0G,    -0.08, 3,   boost,   -0.54,  97050.00,  362.10,    0.09,    0.01, 21.5, 4.15, 4.17, 4.15,   9.48,  -0.46,   0.46,  -0.51,   0.15,   0.25,   0.12,   0.29,   0.26,   1.46, 4.14, 0.00, 0.00, 0.00, 0.00, 1, 1, 11,  37.1687075, -97.7339931,   384.0, 2019, 11, 10, 15, 54, 53,        0,        0,   0,   0,   1.5,   0.9,   1.1,  0,  0,  0,  0, 41,  0,  0,  0,  0, 22,  0,  0, 39,  0, 41, 29,  0,  0,  0, 33, 38,  0,  0,  0,  0, 31, 38,  0, 38,  0,  0,  0
6, 4357, 3,KB0G,    -0.07, 3,   boost,   -0.54,  97054.00,  361.75,   -0.26,    0.08, 21.5, 4.15, 4.17, 4.15,  10.47,  -0.82,  -0.83,  -0.45,   0.64,   0.13,   0.11,   0.29,   0.25,   1.46, 4.14, 0.00, 0.00, 0.00, 0.00, 1, 1, 11,  37.1687075, -97.7339931,   384.0, 2019, 11, 10, 15, 54, 53,        0,        0,   0,   0,   1.5,   0.9,   1.1,  0,  0,  0,  0, 41,  0,  0,  0,  0, 22,  0,  0, 39,  0, 41, 29,  0,  0,  0, 33, 38,  0,  0,  0,  0, 31, 38,  0, 38,  0,  0,  0
6, 4357, 3,KB0G,    -0.06, 3,   boost,    1.09,  97056.00,  361.58,   -0.43,    0.28, 21.5, 4.15, 4.17, 4.15,   9.28,  -0.54,  -2.06,   1.51,   0.64,   0.01,   0.13,   0.29,   0.24,   1.46, 4.14, 0.00, 0.00, 0.00, 0.00, 1, 1, 11,  37.1687075, -97.7339931,   384.0, 2019, 11, 10, 15, 54, 53,        0,        0,   0,   0,   1.5,   0.9,   1.1,  0,  0,  0,  0, 41,  0,  0,  0,  0, 22,  0,  0, 39,  0, 41, 29,  0,  0,  0, 33, 38,  0,  0,  0,  0, 31, 38,  0, 38,  0,  0,  0
6, 4357, 3,KB0G,    -0.05, 3,   boost,   20.16,  97057.00,  361.50,   -0.52,    0.68, 21.5, 4.15, 4.17, 4.15,  10.76,  -1.28,   0.05,   1.32,  -0.46,  -0.23,   0.13,   0.29,   0.25,   1.46, 4.14, 0.00, 0.00, 0.00, 0.00, 1, 1, 11,  37.1687075, -97.7339931,   384.0, 2019, 11, 10, 15, 54, 53,        0,        0,   0,   0,   1.5,   0.9,   1.1,  0,  0,  0,  0, 41,  0,  0,  0,  0, 22,  0,  0, 39,  0, 41, 29,  0,  0,  0, 33, 38,  0,  0,  0,  0, 31, 38,  0, 38,  0,  0,  0
6, 4357, 3,KB0G,    -0.04, 3,   boost,  104.06,  97072.00,  360.20,   -1.81,    1.38, 21.5, 4.15, 4.17, 4.15,  25.06,   1.09,  -0.43,   2.85,   0.22,  -0.23,   0.13,   0.29,   0.24,   1.46, 4.14, 0.00, 0.00, 0.00, 0.00, 1, 1, 11,  37.1687075, -97.7339931,   384.0, 2019, 11, 10, 15, 54, 53,        0,        0,   0,   0,   1.5,   0.9,   1.1,  0,  0,  0,  0, 41,  0,  0,  0,  0, 22,  0,  0, 39,  0, 41, 29,  0,  0,  0, 33, 38,  0,  0,  0,  0, 31, 38,  0, 38,  0,  0,  0
6, 4357, 3,KB0G,    -0.03, 3,   boost,  148.73,  97067.00,  360.63,   -1.38,    2.39, 21.5, 4.15, 4.17, 4.15, 102.18,  -1.89,   1.45,   0.59,  -0.27,   0.01,   0.12,   0.29,   0.25,   1.46, 4.14, 0.00, 0.00, 0.00, 0.00, 1, 1, 11,  37.1687075, -97.7339931,   384.0, 2019, 11, 10, 15, 54, 53,        0,        0,   0,   0,   1.5,   0.9,   1.1,  0,  0,  0,  0, 41,  0,  0,  0,  0, 22,  0,  0, 39,  0, 41, 29,  0,  0,  0, 33, 38,  0,  0,  0,  0, 31, 38,  0, 38,  0,  0,  0
6, 4357, 3,KB0G,    -0.02, 3,   boost,  155.82,  97070.00,  360.37,   -1.64,    3.69, 21.5, 4.15, 4.17, 4.15, 156.82,  -3.71,  -3.43,  -1.73,  -0.70,   0.32,   0.13,   0.29,   0.24,   1.46, 4.14, 0.00, 0.00, 0.00, 0.00, 1, 1, 11,  37.1687075, -97.7339931,   384.0, 2019, 11, 10, 15, 54, 53,        0,        0,   0,   0,   1.5,   0.9,   1.1,  0,  0,  0,  0, 41,  0,  0,  0,  0, 22,  0,  0, 39,  0, 41, 29,  0,  0,  0, 33, 38,  0,  0,  0,  0, 31, 38,  0, 38,  0,  0,  0
6, 4357, 3,KB0G,    -0.01, 3,   boost,  169.98,  97045.00,  362.53,    0.52,    5.20, 21.5, 4.15, 4.17, 4.15, 156.82,  26.08,  -8.32, -15.04,   0.46,   0.19,   0.14,   0.29,   0.24,   1.46, 4.14, 0.00, 0.00, 0.00, 0.00, 1, 1, 11,  37.1687075, -97.7339931,   384.0, 2019, 11, 10, 15, 54, 53,        0,        0,   0,   0,   1.5,   0.9,   1.1,  0,  0,  0,  0, 41,  0,  0,  0,  0, 22,  0,  0, 39,  0, 41, 29,  0,  0,  0, 33, 38,  0,  0,  0,  0, 31, 38,  0, 38,  0,  0,  0
6, 4357, 3,KB0G,     0.00, 3,   boost,  172.71,  97008.00,  365.72,    3.71,    6.84, 21.5, 4.15, 4.17, 4.15, 156.82,  -1.27,  10.68, -12.17,  -3.81,  -4.99,   0.13,   0.29,   0.25,   1.46, 4.14, 0.00, 0.00, 0.00, 0.00, 1, 1, 11,  37.1687075, -97.7339931,   384.0, 2019, 11, 10, 15, 54, 53,        0,        0,   0,   0,   1.5,   0.9,   1.1,  0,  0,  0,  0, 41,  0,  0,  0,  0, 22,  0,  0, 39,  0, 41, 29,  0,  0,  0, 33, 38,  0,  0,  0,  0, 31, 38,  0, 38,  0,  0,  0
6, 4357, 3,KB0G,     0.00, 3,   boost,  172.71,  97008.00,  365.72,    3.71,    6.84, 21.5, 4.15, 4.17, 4.15, 156.82,  -1.27,  10.68, -12.17,  -3.81,  -4.99,   0.13,   0.29,   0.25,   1.46, 4.14, 0.00, 0.00, 0.00, 0.00, 1, 1, 11,  37.1687075, -97.7339931,   384.0, 2019, 11, 10, 15, 54, 53,        0,        0,   0,   0,   1.5,   0.9,   1.1,  0,  0,  0,  0, 41,  0,  0,  0,  0, 22,  0,  0, 39,  0, 41, 29,  0,  0,  0, 33, 38,  0,  0,  0,  0, 31, 38,  0, 38,  0,  0,  0
6, 4357, 3,KB0G,     0.00, 3,   boost,  172.71,  97008.00,  365.72,    3.71,    6.84, 21.5, 4.15, 4.17, 4.15, 156.82,  -1.27,  10.68, -12.17,  -3.81,  -4.99,   0.13,   0.29,   0.25,   1.46, 4.14, 0.00, 0.00, 0.00, 0.00, 1, 1, 11,  37.1687075, -97.7339931,   384.0, 2019, 11, 10, 15, 54, 53,        0,        0,   0,   0,   1.5,   0.9,   1.1,  0,  0,  0,  0, 41,  0,  0,  0,  0, 22,  0,  0, 39,  0, 41, 29,  0,  0,  0, 33, 38,  0,  0,  0,  0, 31, 38,  0, 38,  0,  0,  0
6, 4357, 3,KB0G,     0.00, 3,   boost,  172.71,  97008.00,  365.72,    3.71,    6.84, 21.5, 4.15, 4.17, 4.15, 156.82,  -1.27,  10.68, -12.17,  -3.81,  -4.99,   0.13,   0.29,   0.25,   1.46, 4.14, 0.00, 0.00, 0.00, 0.00, 1, 1, 11,  37.1687075, -97.7339931,   384.0, 2019, 11, 10, 15, 54, 53,        0,        0,   0,   0,   1.5,   0.9,   1.1,  0,  0,  0,  0, 41,  0,  0,  0,  0, 22,  0,  0, 39,  0, 41, 29,  0,  0,  0, 33, 38,  0,  0,  0,  0, 31, 38,  0, 38,  0,  0,  0
6, 4357, 3,KB0G,     0.00, 3,   boost,  172.71,  97008.00,  365.72,    3.71,    6.84, 21.5, 4.15, 4.17, 4.15, 156.82,  -1.27,  10.68, -12.17,  -3.81,  -4.99,   0.13,   0.29,   0.25,   1.46, 4.14, 0.00, 0.00, 0.00, 0.00, 1, 1, 11,  37.1687075, -97.7339931,   384.0, 2019, 11, 10, 15, 54, 53,        0,        0,   0,   0,   1.5,   0.9,   1.1,  0,  0,  0,  0, 41,  0,  0,  0,  0, 22,  0,  0, 39,  0, 41, 29,  0,  0,  0, 33, 38,  0,  0,  0,  0, 31, 38,  0, 38,  0,  0,  0
6, 4357, 3,KB0G,     0.00, 3,   boost,  172.71,  97008.00,  365.72,    3.71,    6.84, 21.5, 4.15, 4.17, 4.15, 156.82,  -1.27,  10.68, -12.17,  -3.81,  -4.99,   0.13,   0.29,   0.25,   1.46, 4.14, 0.00, 0.00, 0.00, 0.00, 1, 1, 11,  37.1687075, -97.7339931,   384.0, 2019, 11, 10, 15, 54, 53,        0,        0,   0,   0,   1.5,   0.9,   1.1,  0,  0,  0,  0, 41,  0,  0,  0,  0, 22,  0,  0, 39,  0, 41, 29,  0,  0,  0, 33, 38,  0,  0,  0,  0, 31, 38,  0, 38,  0,  0,  0
6, 4357, 3,KB0G,     0.00, 3,   boost,  172.71,  97008.00,  365.72,    3.71,    6.84, 21.5, 4.15, 4.17, 4.15, 156.82,  -1.27,  10.68, -12.17,  -3.81,  -4.99,   0.13,   0.29,   0.25,   1.46, 4.14, 0.00, 0.00, 0.00, 0.00, 1, 1, 11,  37.1687075, -97.7339931,   384.0, 2019, 11, 10, 15, 54, 53,        0,        0,   0,   0,   1.5,   0.9,   1.1,  0,  0,  0,  0, 41,  0,  0,  0,  0, 22,  0,  0, 39,  0, 41, 29,  0,  0,  0, 33, 38,  0,  0,  0,  0, 31, 38,  0, 38,  0,  0,  0
6, 4357, 3,KB0G,     0.00, 3,   boost,  172.71,  97008.00,  365.72,    3.71,    6.84, 21.5, 4.15, 4.17, 4.15, 156.82,  -1.27,  10.68, -12.17,  -3.81,  -4.99,   0.13,   0.29,   0.25,   1.46, 4.14, 0.00, 0.00, 0.00, 0.00, 1, 1, 11,  37.1687075, -97.7339931,   384.0, 2019, 11, 10, 15, 54, 53,        0,        0,   0,   0,   1.5,   0.9,   1.1,  0,  0,  0,  0, 41,  0,  0,  0,  0, 22,  0,  0, 39,  0, 41, 29,  0,  0,  0, 33, 38,  0,  0,  0,  0, 31, 38,  0, 38,  0,  0,  0
6, 4357, 3,KB0G,     0.00, 3,   boost,  172.71,  97008.00,  365.72,    3.71,    6.84, 21.5, 4.15, 4.17, 4.15, 156.82,  -1.27,  10.68, -12.17,  -3.81,  -4.99,   0.13,   0.29,   0.25,   1.46, 4.14, 0.00, 0.00, 0.00, 0.00, 1, 1, 11,  37.1687075, -97.7339931,   384.0, 2019, 11, 10, 15, 54, 53,        0,        0,   0,   0,   1.5,   0.9,   1.1,  0,  0,  0,  0, 41,  0,  0,  0,  0, 22,  0,  0, 39,  0, 41, 29,  0,  0,  0, 33, 38,  0,  0,  0,  0, 31, 38,  0, 38,  0,  0,  0
6, 4357, 3,KB0G,     0.00, 3,   boost,  172.71,  97008.00,  365.72,    3.71,    6.84, 21.5, 4.15, 4.17, 4.15, 156.82,  -1.27,  10.68, -12.17,  -3.81,  -4.99,   0.13,   0.29,   0.25,   1.46, 4.14, 0.00, 0.00, 0.00, 0.00, 1, 1, 11,  37.1687075, -97.7339931,   384.0, 2019, 11, 10, 15, 54, 53,        0,        0,   0,   0,   1.5,   0.9,   1.1,  0,  0,  0,  0, 41,  0,  0,  0,  0, 22,  0,  0, 39,  0, 41, 29,  0,  0,  0, 33, 38,  0,  0,  0,  0, 31, 38,  0, 38,  0,  0,  0
6, 4357, 3,KB0G,     0.00, 3,   boost,  172.71,  97008.00,  365.72,    3.71,    6.84, 21.5, 4.15, 4.17, 4.15, 156.82,  -1.27,  10.68, -12.17,  -3.81,  -4.99,   0.13,   0.29,   0.25,   1.46, 4.14, 0.00, 0.00, 0.00, 0.00, 1, 1, 11,  37.1687075, -97.7339931,   384.0, 2019, 11, 10, 15, 54, 53,        0,        0,   0,   0,   1.5,   0.9,   1.1,  0,  0,  0,  0, 41,  0,  0,  0,  0, 22,  0,  0, 39,  0, 41, 29,  0,  0,  0, 33, 38,  0,  0,  0,  0, 31, 38,  0, 38,  0,  0,  0
6, 4357, 3,KB0G,     0.00, 3,   boost,  172.71,  97008.00,  365.72,    3.71,    6.84, 21.5, 4.15, 4.17, 4.15, 156.82,  -1.27,  10.68, -12.17,  -3.81,  -4.99,   0.13,   0.29,   0.25,   1.46, 4.14, 0.00, 0.00, 0.00, 0.00, 1, 1, 11,  37.1687075, -97.7339931,   384.0, 2019, 11, 10, 15, 54, 53,        0,        0,   0,   0,   1.5,   0.9,   1.1,  0,  0,  0,  0, 41,  0,  0,  0,  0, 22,  0,  0, 39,  0, 41, 29,  0,  0,  0, 33, 38,  0,  0,  0,  0, 31, 38,  0, 38,  0,  0,  0
6, 4357, 3,KB0G,     0.00, 3,   boost,  172.71,  97008.00,  365.72,    3.71,    6.84, 21.5, 4.15, 4.17, 4.15, 156.82,  -1.27,  10.68, -12.17,  -3.81,  -4.99,   0.13,   0.29,   0.25,   1.46, 4.14, 0.00, 0.00, 0.00, 0.00, 1, 1, 11,  37.1687075, -97.7339931,   384.0, 2019, 11, 10, 15, 54, 53,        0,        0,   0,   0,   1.5,   0.9,   1.1,  0,  0,  0,  0, 41,  0,  0,  0,  0, 22,  0,  0, 39,  0, 41, 29,  0,  0,  0, 33, 38,  0,  0,  0,  0, 31, 38,  0, 38,  0,  0,  0
6, 4357, 3,KB0G,     0.00, 3,   boost,  172.71,  97008.00,  365.72,    3.71,    6.84, 21.5, 4.15, 4.17, 4.15, 156.82,  -1.27,  10.68, -12.17,  -3.81,  -4.99,   0.13,   0.29,   0.25,   1.46, 4.14, 0.00, 0.00, 0.00, 0.00, 1, 1, 11,  37.1687075, -97.7339931,   384.0, 2019, 11, 10, 15, 54, 53,        0,        0,   0,   0,   1.5,   0.9,   1.1,  0,  0,  0,  0, 41,  0,  0,  0,  0, 22,  0,  0, 39,  0, 41, 29,  0,  0,  0, 33, 38,  0,  0,  0,  0, 31, 38,  0, 38,  0,  0,  0
6, 4357, 3,KB0G,     0.00, 3,   boost,  172.71,  97008.00,  365.72,    3.71,    6.84, 21.5, 4.15, 4.17, 4.15, 156.82,  -1.27,  10.68, -12.17,  -3.81,  -4.99,   0.13,   0.29,   0.25,   1.46, 4.14, 0.00, 0.00, 0.00, 0.00, 1, 1, 11,  37.1687075, -97.7339931,   384.0, 2019, 11, 10, 15, 54, 53,        0,        0,   0,   0,   1.5,   0.9,   1.1,  0,  0,  0,  0, 41,  0,  0,  0,  0, 22,  0,  0, 39,  0, 41, 29,  0,  0,  0, 33, 38,  0,  0,  0,  0, 31, 38,  0, 38,  0,  0,  0
6, 4357, 3,KB0G,     0.00, 3,   boost,  172.71,  97008.00,  365.72,    3.71,    6.84, 21.5, 4.15, 4.17, 4.15, 156.82,  -1.27,  10.68, -12.17,  -3.81,  -4.99,   0.13,   0.29,   0.25,   1.46, 4.14, 0.00, 0.00, 0.00, 0.00, 1, 1, 11,  37.1687075, -97.7339931,   384.0, 2019, 11, 10, 15, 54, 53,        0,        0,   0,   0,   1.5,   0.9,   1.1,  0,  0,  0,  0, 41,  0,  0,  0,  0, 22,  0,  0, 39,  0, 41, 29,  0,  0,  0, 33, 38,  0,  0,  0,  0, 31, 38,  0, 38,  0,  0,  0
6, 4357, 3,KB0G,     0.00, 3,   boost,  172.71,  97008.00,  365.72,    3.71,    6.84, 21.5, 4.15, 4.17, 4.15, 156.82,  -1.27,  10.68, -12.17,  -3.81,  -4.99,   0.13,   0.29,   0.25,   1.46, 4.14, 0.00, 0.00, 0.00, 0.00, 1, 1, 11,  37.1687075, -97.7339931,   384.0, 2019, 11, 10, 15, 54, 53,        0,        0,   0,   0,   1.5,   0.9,   1.1,  0,  0,  0,  0, 41,  0,  0,  0,  0, 22,  0,  0, 39,  0, 41, 29,  0,  0,  0, 33, 38,  0,  0,  0,  0, 31, 38,  0, 38,  0,  0,  0
6, 4357, 3,KB0G,     0.00, 3,   boost,  172.71,  97008.00,  365.72,    3.71,    6.84, 21.5, 4.15, 4.17, 4.15, 156.82,  -1.27,  10.68, -12.17,  -3.81,  -4.99,   0.13,   0.29,   0.25,   1.46, 4.14, 0.00, 0.00, 0.00, 0.00, 1, 1, 11,  37.1687075, -97.7339931,   384.0, 2019, 11, 10, 15, 54, 53,        0,        0,   0,   0,   1.5,   0.9,   1.1,  0,  0,  0,  0, 41,  0,  0,  0,  0, 22,  0,  0, 39,  0, 41, 29,  0,  0,  0, 33, 38,  0,  0,  0,  0, 31, 38,  0, 38,  0,  0,  0
6, 4357, 3,KB0G,     0.00, 3,   boost,  172.71,  97008.00,  365.72,    3.71,    6.84, 21.5, 4.15, 4.17, 4.15, 156.82,  -1.27,  10.68, -12.17,  -3.81,  -4.99,   0.13,   0.29,   0.25,   1.46, 4.14, 0.00, 0.00, 0.00, 0.00, 1, 1, 11,  37.1687075, -97.7339931,   384.0, 2019, 11, 10, 15, 54, 53,        0,        0,   0,   0,   1.5,   0.9,   1.1,  0,  0,  0,  0, 41,  0,  0,  0,  0, 22,  0,  0, 39,  0, 41, 29,  0,  0,  0, 33, 38,  0,  0,  0,  0, 31, 38,  0, 38,  0,  0,  0
6, 4357, 3,KB0G,     0.00, 3,   boost,  172.71,  97008.00,  365.72,    3.71,    6.84, 21.5, 4.15, 4.17, 4.15, 156.82,  -1.27,  10.68, -12.17,  -3.81,  -4.99,   0.13,   0.29,   0.25,   1.46, 4.14, 0.00, 0.00, 0.00, 0.00, 1, 1, 11,  37.1687075, -97.7339931,   384.0, 2019, 11, 10, 15, 54, 53,        0,        0,   0,   0,   1.5,   0.9,   1.1,  0,  0,  0,  0, 41,  0,  0,  0,  0, 22,  0,  0, 39,  0, 41, 29,  0,  0,  0, 33, 38,  0,  0,  0,  0, 31, 38,  0, 38,  0,  0,  0
6, 4357, 3,KB0G,     0.00, 3,   boost,  172.71,  97008.00,  365.72,    3.71,    6.84, 21.5, 4.15, 4.17, 4.15, 156.82,  -1.27,  10.68, -12.17,  -3.81,  -4.99,   0.13,   0.29,   0.25,   1.46, 4.14, 0.00, 0.00, 0.00, 0.00, 1, 1, 11,  37.1687075, -97.7339931,   384.0, 2019, 11, 10, 15, 54, 53,        0,        0,   0,   0,   1.5,   0.9,   1.1,  0,  0,  0,  0, 41,  0,  0,  0,  0, 22,  0,  0, 39,  0, 41, 29,  0,  0,  0, 33, 38,  0,  0,  0,  0, 31, 38,  0, 38,  0,  0,  0
6, 4357, 3,KB0G,     0.00, 3,   boost,  172.71,  97008.00,  365.72,    3.71,    6.84, 21.5, 4.15, 4.17, 4.15, 156.82,  -1.27,  10.68, -12.17,  -3.81,  -4.99,   0.13,   0.29,   0.25,   1.46, 4.14, 0.00, 0.00, 0.00, 0.00, 1, 1, 11,  37.1687075, -97.7339931,   384.0, 2019, 11, 10, 15, 54, 53,        0,        0,   0,   0,   1.5,   0.9,   1.1,  0,  0,  0,  0, 41,  0,  0,  0,  0, 22,  0,  0, 39,  0, 41, 29,  0,  0,  0, 33, 38,  0,  0,  0,  0, 31, 38,  0, 38,  0,  0,  0
6, 4357, 3,KB0G,     0.00, 3,   boost,  172.71,  97008.00,  365.72,    3.71,    6.84, 21.5, 4.15, 4.17, 4.15, 156.82,  -1.27,  10.68, -12.17,  -3.81,  -4.99,   0.13,   0.29,   0.25,   1.47, 4.14, 0.00, 0.00, 0.00, 0.00, 1, 1, 11,  37.1687075, -97.7339931,   384.0, 2019, 11, 10, 15, 54, 53,        0,        0,   0,   0,   1.5,   0.9,   1.1,  0,  0,  0,  0, 41,  0,  0,  0,  0, 22,  0,  0, 39,  0, 41, 29,  0,  0,  0, 33, 38,  0,  0,  0,  0, 31, 38,  0, 38,  0,  0,  0
6, 4357, 3,KB0G,     0.00, 3,   boost,  172.71,  97008.00,  365.72,    3.71,    6.84, 21.5, 4.15, 4.17, 4.15, 156.82,  -1.27,  10.68, -12.17,  -3.81,  -4.99,   0.13,   0.29,   0.25,   1.47, 4.14, 0.00, 0.00, 0.00, 0.00, 1, 1, 11,  37.1687075, -97.7339931,   384.0, 2019, 11, 10, 15, 54, 53,        0,        0,   0,   0,   1.5,   0.9,   1.1,  0,  0,  0,  0, 41,  0,  0,  0,  0, 22,  0,  0, 39,  0, 41, 29,  0,  0,  0, 33, 38,  0,  0,  0,  0, 31, 38,  0, 38,  0,  0,  0
6, 4357, 3,KB0G,     0.00, 3,   boost,  172.71,  97008.00,  365.72,    3.71,    6.84, 21.5, 4.15, 4.17, 4.15, 156.82,  -1.27,  10.68, -12.17,  -3.81,  -4.99,   0.13,   0.29,   0.25,   1.46, 4.14, 0.00, 0.00, 0.00, 0.00, 1, 1, 11,  37.1687075, -97.7339931,   384.0, 2019, 11, 10, 15, 54, 53,        0,        0,   0,   0,   1.5,   0.9,   1.1,  0,  0,  0,  0, 41,  0,  0,  0,  0, 22,  0,  0, 39,  0, 41, 29,  0,  0,  0, 33, 38,  0,  0,  0,  0, 31, 38,  0, 38,  0,  0,  0
6, 4357, 3,KB0G,     0.00, 3,   boost,  172.71,  97008.00,  365.72,    3.71,    6.84, 21.5, 4.15, 4.17, 4.15, 156.82,  -1.27,  10.68, -12.17,  -3.81,  -4.99,   0.13,   0.29,   0.25,   1.46, 4.14, 0.00, 0.00, 0.00, 0.00, 1, 1, 11,  37.1687075, -97.7339931,   384.0, 2019, 11, 10, 15, 54, 53,        0,        0,   0,   0,   1.5,   0.9,   1.1,  0,  0,  0,  0, 41,  0,  0,  0,  0, 22,  0,  0, 39,  0, 41, 29,  0,  0,  0, 33, 38,  0,  0,  0,  0, 31, 38,  0, 38,  0,  0,  0
6, 4357, 3,KB0G,     0.00, 3,   boost,  172.71,  97008.00,  365.72,    3.71,    6.84, 21.5, 4.15, 4.17, 4.15, 156.82,  -1.27,  10.68, -12.17,  -3.81,  -4.99,   0.13,   0.29,   0.25,   1.46, 4.14, 0.00, 0.00, 0.00, 0.00, 1, 1, 11,  37.1687075, -97.7339931,   384.0, 2019, 11, 10, 15, 54, 53,        0,        0,   0,   0,   1.5,   0.9,   1.1,  0,  0,  0,  0, 41,  0,  0,  0,  0, 22,  0,  0, 39,  0, 41, 29,  0,  0,  0, 33, 38,  0,  0,  0,  0, 31, 38,  0, 38,  0,  0,  0
6, 4357, 3,KB0G,     0.00, 3,   boost,  172.71,  97008.00,  365.72,    3.71,    6.84, 21.5, 4.15, 4.17, 4.15, 156.82,  -1.27,  10.68, -12.17,  -3.81,  -4.99,   0.13,   0.29,   0.25,   1.46, 4.14, 0.00, 0.00, 0.00, 0.00, 1, 1, 11,  37.1687075, -97.7339931,   384.0, 2019, 11, 10, 15, 54, 53,        0,        0,   0,   0,   1.5,   0.9,   1.1,  0,  0,  0,  0, 41,  0,  0,  0,  0, 22,  0,  0, 39,  0, 41, 29,  0,  0,  0, 33, 38,  0,  0,  0,  0, 31, 38,  0, 38,  0,  0,  0
6, 4357, 3,KB0G,     0.00, 3,   boost,  172.71,  97008.00,  365.72,    3.71,    6.84, 21.5, 4.15, 4.17, 4.15, 156.82,  -1.27,  10.68, -12.17,  -3.81,  -4.99,   0.13,   0.29,   0.25,   1.47, 4.14, 0.00, 0.00, 0.00, 0.00, 1, 1, 11,  37.1687075, -97.7339931,   384.0, 2019, 11, 10, 15, 54, 53,        0,        0,   0,   0,   1.5,   0.9,   1.1,  0,  0,  0,  0, 41,  0,  0,  0,  0, 22,  0,  0, 39,  0, 41, 29,  0,  0,  0, 33, 38,  0,  0,  0,  0, 31, 38,  0, 38,  0,  0,  0
6, 4357, 3,KB0G,     0.00, 3,   boost,  172.71,  97008.00,  365.72,    3.71,    6.84, 21.5, 4.15, 4.17, 4.15, 156.82,  -1.27,  10.68, -12.17,  -3.81,  -4.99,   0.13,   0.29,   0.25,   1.47, 4.14, 0.00, 0.00, 0.00, 0.00, 1, 1, 11,  37.1687075, -97.7339931,   384.0, 2019, 11, 10, 15, 54, 53,        0,        0,   0,   0,   1.5,   0.9,   1.1,  0,  0,  0,  0, 41,  0,  0,  0,  0, 22,  0,  0, 39,  0, 41, 29,  0,  0,  0, 33, 38,  0,  0,  0,  0, 31, 38,  0, 38,  0,  0,  0
6, 4357, 3,KB0G,     0.00, 3,   boost,  172.71,  97008.00,  365.72,    3.71,    6.84, 21.5, 4.15, 4.17, 4.15, 156.82,  -1.27,  10.68, -12.17,  -3.81,  -4.99,   0.13,   0.29,   0.25,   1.47, 4.14, 0.00, 0.00, 0.00, 0.00, 1, 1, 11,  37.1687075, -97.7339931,   384.0, 2019, 11, 10, 15, 54, 53,        0,        0,   0,   0,   1.5,   0.9,   1.1,  0,  0,  0,  0, 41,  0,  0,  0,  0, 22,  0,  0, 39,  0, 41, 29,  0,  0,  0, 33, 38,  0,  0,  0,  0, 31, 38,  0, 38,  0,  0,  0
6, 4357, 3,KB0G,     0.00, 3,   boost,  172.71,  97008.00,  365.72,    3.71,    6.84, 21.5, 4.15, 4.17, 4.15, 156.82,  -1.27,  10.68, -12.17,  -3.81,  -4.99,   0.13,   0.29,   0.25,   1.47, 4.14, 0.00, 0.00, 0.00, 0.00, 1, 1, 11,  37.1687075, -97.7339931,   384.0, 2019, 11, 10, 15, 54, 53,        0,        0,   0,   0,   1.5,   0.9,   1.1,  0,  0,  0,  0, 41,  0,  0,  0,  0, 22,  0,  0, 39,  0, 41, 29,  0,  0,  0, 33, 38,  0,  0,  0,  0, 31, 38,  0, 38,  0,  0,  0
6, 4357, 3,KB0G,     0.00, 3,   boost,  172.71,  97008.00,  365.72,    3.71,    6.84, 21.5, 4.15, 4.17, 4.15, 156.82,  -1.27,  10.68, -12.17,  -3.81,  -4.99,   0.13,   0.29,   0.25,   1.46, 4.14, 0.00, 0.00, 0.00, 0.00, 1, 1, 11,  37.1687075, -97.7339931,   384.0, 2019, 11, 10, 15, 54, 53,        0,        0,   0,   0,   1.5,   0.9,   1.1,  0,  0,  0,  0, 41,  0,  0,  0,  0, 22,  0,  0, 39,  0, 41, 29,  0,  0,  0, 33, 38,  0,  0,  0,  0, 31, 38,  0, 38,  0,  0,  0
6, 4357, 3,KB0G,     0.00, 3,   boost,  172.71,  97008.00,  365.72,    3.71,    6.84, 21.5, 4.15, 4.17, 4.15, 156.82,  -1.27,  10.68, -12.17,  -3.81,  -4.99,   0.13,   0.29,   0.25,   1.46, 4.14, 0.00, 0.00, 0.00, 0.00, 1, 1, 11,  37.1687075, -97.7339931,   384.0, 2019, 11, 10, 15, 54, 53,        0,        0,   0,   0,   1.5,   0.9,   1.1,  0,  0,  0,  0, 41,  0,  0,  0,  0, 22,  0,  0, 39,  0, 41, 29,  0,  0,  0, 33, 38,  0,  0,  0,  0, 31, 38,  0, 38,  0,  0,  0
6, 4357, 3,KB0G,     0.00, 3,   boost,  172.71,  97008.00,  365.72,    3.71,    6.84, 21.5, 4.15, 4.17, 4.15, 156.82,  -1.27,  10.68, -12.17,  -3.81,  -4.99,   0.13,   0.29,   0.25,   1.47, 4.14, 0.00, 0.00, 0.00, 0.00, 1, 1, 11,  37.1687075, -97.7339931,   384.0, 2019, 11, 10, 15, 54, 53,        0,        0,   0,   0,   1.5,   0.9,   1.1,  0,  0,  0,  0, 41,  0,  0,  0,  0, 22,  0,  0, 39,  0, 41, 29,  0,  0,  0, 33, 38,  0,  0,  0,  0, 31, 38,  0, 38,  0,  0,  0
6, 4357, 3,KB0G,     0.01, 3,   boost,  172.71,  97018.00,  364.86,    2.84,    8.57, 21.5, 4.15, 4.17, 4.15, 156.82,   4.26, -18.35,  -9.24,   3.33,   2.70,   0.15,   0.27,   0.25,   1.48, 4.14, 0.00, 0.00, 0.00, 0.00, 1, 1, 11,  37.1687075, -97.7339931,   384.0, 2019, 11, 10, 15, 54, 53,        0,        0,   0,   0,   1.5,   0.9,   1.1,  0,  0,  0,  0, 41,  0,  0,  0,  0, 22,  0,  0, 39,  0, 41, 29,  0,  0,  0, 33, 38,  0,  0,  0,  0, 31, 38,  0, 38,  0,  0,  0
6, 4357, 3,KB0G,     0.01, 3,   boost,  172.71,  97018.00,  364.86,    2.84,    8.57, 21.5, 4.15, 4.17, 4.15, 156.82,   4.26, -18.35,  -9.24,   3.33,   2.70,   0.15,   0.27,   0.25,   1.48, 4.14, 0.00, 0.00, 0.00, 0.00, 1, 1, 11,  37.1687075, -97.7339931,   384.0, 2019, 11, 10, 15, 54, 53,        0,        0,   0,   0,   1.5,   0.9,   1.1,  0,  0,  0,  0, 41,  0,  0,  0,  0, 22,  0,  0, 39,  0, 41, 29,  0,  0,  0, 33, 38,  0,  0,  0,  0, 31, 38,  0, 38,  0,  0,  0
6, 4357, 3,KB0G,     0.02, 3,   boost,  186.33,  97039.00,  363.05,    1.03,   10.35, 21.5, 4.15, 4.23, 4.14, 156.82,   2.40,  -8.55,  -1.91,   0.34,  -0.72,   0.15,   0.27,   0.26,   1.48, 4.14, 0.00, 0.00, 0.00, 0.01, 1, 1, 11,  37.1687075, -97.7339931,   384.0, 2019, 11, 10, 15, 54, 53,        0,        0,   0,   0,   1.5,   0.9,   1.1,  0,  0,  0,  0, 41,  0,  0,  0,  0, 22,  0,  0, 39,  0, 41, 29,  0,  0,  0, 33, 38,  0,  0,  0,  0, 31, 38,  0, 38,  0,  0,  0
6, 4357, 3,KB0G,     0.02, 3,   boost,  186.33,  97039.00,  363.05,    1.03,   10.35, 21.5, 4.15, 4.23, 4.14, 156.82,   2.40,  -8.55,  -1.91,   0.34,  -0.72,   0.15,   0.27,   0.26,   1.48, 4.14, 0.00, 0.00, 0.00, 0.01, 1, 1, 11,  37.1687075, -97.7339931,   384.0, 2019, 11, 10, 15, 54, 53,        0,        0,   0,   0,   1.5,   0.9,   1.1,  0,  0,  0,  0, 41,  0,  0,  0,  0, 22,  0,  0, 39,  0, 41, 29,  0,  0,  0, 33, 38,  0,  0,  0,  0, 31, 38,  0, 38,  0,  0,  0
6, 4357, 3,KB0G,     0.03, 3,   boost,  186.33,  96994.00,  366.93,    4.91,   12.17, 21.5, 4.15, 4.23, 4.14, 156.82,  -9.28,   4.52,   1.57,   0.40,  -1.09,   0.16,   0.26,   0.26,   1.49, 4.14, 0.00, 0.00, 0.00, 0.01, 1, 1, 11,  37.1687075, -97.7339931,   384.0, 2019, 11, 10, 15, 54, 53,        0,        0,   0,   0,   1.5,   0.9,   1.1,  0,  0,  0,  0, 41,  0,  0,  0,  0, 22,  0,  0, 39,  0, 41, 29,  0,  0,  0, 33, 38,  0,  0,  0,  0, 31, 38,  0, 38,  0,  0,  0
6, 4357, 3,KB0G,     0.04, 3,   boost,  184.69,  97029.00,  363.91,    1.90,   14.00, 21.5, 4.15, 4.23, 4.14, 156.82,  -1.21,   3.48,   0.96,  -0.70,  -0.23,   0.16,   0.24,   0.25,   1.49, 4.14, 0.00, 0.00, 0.00, 0.01, 1, 1, 11,  37.1687075, -97.7339931,   384.0, 2019, 11, 10, 15, 54, 53,        0,        0,   0,   0,   1.5,   0.9,   1.1,  0,  0,  0,  0, 41,  0,  0,  0,  0, 22,  0,  0, 39,  0, 41, 29,  0,  0,  0, 33, 38,  0,  0,  0,  0, 31, 38,  0, 38,  0,  0,  0
6, 4357, 3,KB0G,     0.05, 3,   boost,  184.69,  97022.00,  364.51,    2.50,   15.85, 21.5, 4.15, 4.23, 4.14, 156.82,  -0.39,  -8.37,   1.20,  -0.82,   0.25,   0.19,   0.19,   0.27,   1.48, 4.14, 0.00, 0.00, 0.00, 0.01, 1, 1, 11,  37.1687075, -97.7339931,   384.0, 2019, 11, 10, 15, 54, 53,        0,        0,   0,   0,   1.5,   0.9,   1.1,  0,  0,  0,  0, 41,  0,  0,  0,  0, 22,  0,  0, 39,  0, 41, 29,  0,  0,  0, 33, 38,  0,  0,  0,  0, 31, 38,  0, 38,  0,  0,  0
6, 4357, 3,KB0G,     0.06, 3,   boost,  185.78,  97003.00,  366.15,    4.14,   17.70, 21.5, 4.15, 4.23, 4.14, 156.82,   1.55,   2.27,  -5.57,  -0.27,   1.48,   0.10,   0.14,   0.28,   1.47, 4.14, 0.00, 0.00, 0.00, 0.01, 1, 1, 11,  37.1687075, -97.7339931,   384.0, 2019, 11, 10, 15, 54, 53,        0,        0,   0,   0,   1.5,   0.9,   1.1,  0,  0,  0,  0, 41,  0,  0,  0,  0, 22,  0,  0, 39,  0, 41, 29,  0,  0,  0, 33, 38,  0,  0,  0,  0, 31, 38,  0, 38,  0,  0,  0
6, 4357, 3,KB0G,     0.07, 3,   boost,  185.24,  97022.00,  364.51,    2.50,   19.56, 21.5, 4.15, 4.23, 4.14, 156.82,  -6.56,   6.46,  -8.44,  -1.80,   1.90,  -0.08,   0.17,   0.21,   1.45, 4.14, 0.00, 0.00, 0.00, 0.01, 1, 1, 11,  37.1687075, -97.7339931,   384.0, 2019, 11, 10, 15, 54, 53,        0,        0,   0,   0,   1.5,   0.9,   1.1,  0,  0,  0,  0, 41,  0,  0,  0,  0, 22,  0,  0, 39,  0, 41, 29,  0,  0,  0, 33, 38,  0,  0,  0,  0, 31, 38,  0, 38,  0,  0,  0
6, 4357, 3,KB0G,     0.08, 3,   boost,  186.87,  97011.00,  365.46,    3.45,   21.42, 21.5, 4.15, 4.23, 4.14, 156.82,  -0.93, -12.14,  -0.33,   2.17,  -0.29,  -0.12,   0.22,   0.19,   1.46, 4.14, 0.00, 0.00, 0.00, 0.01, 1, 1, 11,  37.1687075, -97.7339931,   384.0, 2019, 11, 10, 15, 54, 53,        0,        0,   0,   0,   1.5,   0.9,   1.1,  0,  0,  0,  0, 41,  0,  0,  0,  0, 22,  0,  0, 39,  0, 41, 29,  0,  0,  0, 33, 38,  0,  0,  0,  0, 31, 38,  0, 38,  0,  0,  0
6, 4357, 3,KB0G,     0.09, 3,   boost,  186.87,  97009.00,  365.63,    3.62,   23.29, 21.5, 4.15, 4.23, 4.14, 156.82,  -4.22,   2.77,  -1.67,   1.25,  -2.31,  -0.12,   0.24,   0.19,   1.49, 4.14, 0.00, 0.00, 0.00, 0.01, 1, 1, 11,  37.1687075, -97.7339931,   384.0, 2019, 11, 10, 15, 54, 53,        0,        0,   0,   0,   1.5,   0.9,   1.1,  0,  0,  0,  0, 41,  0,  0,  0,  0, 22,  0,  0, 39,  0, 41, 29,  0,  0,  0, 33, 38,  0,  0,  0,  0, 31, 38,  0, 38,  0,  0,  0
6, 4357, 3,KB0G,     0.10, 3,   boost,  187.42,  96997.00,  366.67,    4.66,   25.16, 21.5, 4.15, 4.23, 4.14, 156.82,   3.25,   8.67, -10.21,   4.98,  -1.76,  -0.14,   0.25,   0.18,   1.53, 4.14, 0.00, 0.00, 0.00, 0.01, 1, 1, 11,  37.1687075, -97.7339931,   384.0, 2019, 11, 10, 15, 54, 53,        0,        0,   0,   0,   1.5,   0.9,   1.1,  0,  0,  0,  0, 41,  0,  0,  0,  0, 22,  0,  0, 39,  0, 41, 29,  0,  0,  0, 33, 38,  0,  0,  0,  0, 31, 38,  0, 38,  0,  0,  0
6, 4357, 3,KB0G,     0.11, 3,   boost,  187.42,  96982.00,  367.96,    5.95,   27.03, 21.5, 4.15, 4.23, 4.14, 156.82,  -0.39, -10.41, -29.50,  -2.35,  -1.64,  -0.13,   0.26,   0.18,   1.53, 4.14, 0.00, 0.00, 0.00, 0.01, 1, 1, 11,  37.1687075, -97.7339931,   384.0, 2019, 11, 10, 15, 54, 53,        0,        0,   0,   0,   1.5,   0.9,   1.1,  0,  0,  0,  0, 41,  0,  0,  0,  0, 22,  0,  0, 39,  0, 41, 29,  0,  0,  0, 33, 38,  0,  0,  0,  0, 31, 38,  0, 38,  0,  0,  0
6, 4357, 3,KB0G,     0.12, 3,   boost,  187.42,  97004.00,  366.06,    4.05,   28.91, 21.5, 4.15, 4.23, 4.14, 156.82,  -1.58,  -0.60, -24.74,  -2.35,  -2.43,  -0.14,   0.26,   0.18,   1.53, 4.14, 0.00, 0.00, 0.00, 0.01, 1, 1, 11,  37.1687075, -97.7339931,   384.0, 2019, 11, 10, 15, 54, 53,        0,        0,   0,   0,   1.5,   0.9,   1.1,  0,  0,  0,  0, 41,  0,  0,  0,  0, 22,  0,  0, 39,  0, 41, 29,  0,  0,  0, 33, 38,  0,  0,  0,  0, 31, 38,  0, 38,  0,  0,  0
6, 4357, 3,KB0G,     0.13, 3,   boost,  188.51,  96981.00,  368.05,    6.04,   30.79, 21.5, 4.15, 4.23, 4.14, 156.82,   1.29,   5.09, -36.22,   7.60,   0.80,  -0.14,   0.26,   0.19,   1.58, 4.14, 0.00, 0.00, 0.00, 0.01, 1, 1, 11,  37.1687075, -97.7339931,   384.0, 2019, 11, 10, 15, 54, 53,        0,        0,   0,   0,   1.5,   0.9,   1.1,  0,  0,  0,  0, 41,  0,  0,  0,  0, 22,  0,  0, 39,  0, 41, 29,  0,  0,  0, 33, 38,  0,  0,  0,  0, 31, 38,  0, 38,  0,  0,  0
6, 4357, 3,KB0G,     0.14, 3,   boost,  188.51,  96986.00,  367.62,    5.60,   32.67, 21.5, 4.15, 4.23, 4.14, 156.82,   3.74,   1.93, -41.40,  -2.53,   1.11,  -0.16,   0.27,   0.18,   1.55, 4.14, 0.00, 0.00, 0.00, 0.01, 1, 1, 11,  37.1687075, -97.7339931,   384.0, 2019, 11, 10, 15, 54, 53,        0,        0,   0,   0,   1.5,   0.9,   1.1,  0,  0,  0,  0, 41,  0,  0,  0,  0, 22,  0,  0, 39,  0, 41, 29,  0,  0,  0, 33, 38,  0,  0,  0,  0, 31, 38,  0, 38,  0,  0,  0
6, 4357, 3,KB0G,     0.15, 3,   boost,  188.51,  97005.00,  365.98,    3.97,   34.56, 21.5, 4.15, 4.23, 4.14, 156.82,  -5.75, -20.62, -16.93,  -0.09,  -0.29,  -0.16,   0.27,   0.18,   1.55, 4.14, 0.00, 0.00, 0.00, 0.01, 1, 1, 11,  37.1687075, -97.7339931,   384.0, 2019, 11, 10, 15, 54, 53,        0,        0,   0,   0,   1.5,   0.9,   1.1,  0,  0,  0,  0, 41,  0,  0,  0,  0, 22,  0,  0, 39,  0, 41, 29,  0,  0,  0, 33, 38,  0,  0,  0,  0, 31, 38,  0, 38,  0,  0,  0
6, 4357, 3,KB0G,     0.16, 3,   boost,  191.77,  96985.00,  367.70,    5.69,   36.46, 21.5, 4.15, 4.23, 4.14, 156.82,   7.49,  11.69, -23.95,   6.50,  -1.15,  -0.16,   0.27,   0.18,   1.61, 4.14, 0.00, 0.00, 0.00, 0.01, 1, 1, 11,  37.1687075, -97.7339931,   384.0, 2019, 11, 10, 15, 54, 53,        0,        0,   0,   0,   1.5,   0.9,   1.1,  0,  0,  0,  0, 41,  0,  0,  0,  0, 22,  0,  0, 39,  0, 41, 29,  0,  0,  0, 33, 38,  0,  0,  0,  0, 31, 38,  0, 38,  0,  0,  0
6, 4357, 3,KB0G,     0.17, 3,   boost,  190.68,  96969.00,  369.08,    7.07,   38.37, 21.5, 4.15, 4.23, 4.14, 156.82, -10.52,   8.33, -56.17,  -8.15,  -3.71,  -0.13,   0.27,   0.17,   1.58, 4.14, 0.00, 0.00, 0.00, 0.01, 1, 1, 11,  37.1687075, -97.7339931,   384.0, 2019, 11, 10, 15, 54, 53,        0,        0,   0,   0,   1.5,   0.9,   1.1,  0,  0,  0,  0, 41,  0,  0,  0,  0, 22,  0,  0, 39,  0, 41, 29,  0,  0,  0, 33, 38,  0,  0,  0,  0, 31, 38,  0, 38,  0,  0,  0
6, 4357, 3,KB0G,     0.18, 3,   boost,  191.77,  96951.00,  370.64,    8.62,   40.28, 21.5, 4.15, 4.23, 4.14, 156.82,  10.51, -11.62, -55.56,  -3.20,  -3.59,  -0.13,   0.27,   0.18,   1.59, 4.14, 0.00, 0.00, 0.00, 0.01, 1, 1, 11,  37.1687075, -97.7339931,   384.0, 2019, 11, 10, 15, 54, 53,        0,        0,   0,   0,   1.5,   0.9,   1.1,  0,  0,  0,  0, 41,  0,  0,  0,  0, 22,  0,  0, 39,  0, 41, 29,  0,  0,  0, 33, 38,  0,  0,  0,  0, 31, 38,  0, 38,  0,  0,  0
6, 4357, 3,KB0G,     0.19, 3,   boost,  192.32,  96967.00,  369.26,    7.24,   42.20, 21.5, 4.15, 4.23, 4.14, 156.82,  -4.99,  -5.13, -60.14,   7.54,   2.82,  -0.13,   0.26,   0.17,   1.61, 4.14, 0.00, 0.00, 0.00, 0.01, 1, 1, 11,  37.1687075, -97.7339931,   384.0, 2019, 11, 10, 15, 54, 53,        0,        0,   0,   0,   1.5,   0.9,   1.1,  0,  0,  0,  0, 41,  0,  0,  0,  0, 22,  0,  0, 39,  0, 41, 29,  0,  0,  0, 33, 38,  0,  0,  0,  0, 31, 38,  0, 38,  0,  0,  0
6, 4357, 3,KB0G,     0.20, 3,   boost,  192.86,  96954.00,  370.38,    8.36,   44.12, 21.5, 4.15, 4.23, 4.14, 156.82,  -5.82,   7.76, -56.85,  -5.16,   2.09,  -0.12,   0.26,   0.19,   1.57, 4.14, 0.00, 0.00, 0.00, 0.01, 1, 1, 11,  37.1687075, -97.7339931,   384.0, 2019, 11, 10, 15, 54, 53,        0,        0,   0,   0,   1.5,   0.9,   1.1,  0,  0,  0,  0, 41,  0,  0,  0,  0, 22,  0,  0, 39,  0, 41, 29,  0,  0,  0, 33, 38,  0,  0,  0,  0, 31, 38,  0, 38,  0,  0,  0
6, 4357, 3,KB0G,     0.21, 3,   boost,  193.41,  96946.00,  371.07,    9.05,   46.05, 21.5, 4.15, 4.23, 4.14, 156.82,   2.90,  -7.77, -47.93,   1.62,  -0.60,  -0.13,   0.29,   0.18,   1.58, 4.14, 0.00, 0.00, 0.00, 0.01, 1, 1, 11,  37.1687075, -97.7339931,   384.0, 2019, 11, 10, 15, 54, 53,        0,        0,   0,   0,   1.5,   0.9,   1.1,  0,  0,  0,  0, 41,  0,  0,  0,  0, 22,  0,  0, 39,  0, 41, 29,  0,  0,  0, 33, 38,  0,  0,  0,  0, 31, 38,  0, 38,  0,  0,  0
6, 4357, 3,KB0G,     0.22, 3,   boost,  193.41,  96944.00,  371.24,    9.23,   47.99, 21.5, 4.15, 4.23, 4.14, 156.82,  -0.48,  -0.49, -55.87,   6.99,   4.16,  -0.14,   0.27,   0.18,   1.59, 4.14, 0.00, 0.00, 0.00, 0.01, 1, 1, 11,  37.1687075, -97.7339931,   384.0, 2019, 11, 10, 15, 54, 53,        0,        0,   0,   0,   1.5,   0.9,   1.1,  0,  0,  0,  0, 41,  0,  0,  0,  0, 22,  0,  0, 39,  0, 41, 29,  0,  0,  0, 33, 38,  0,  0,  0,  0, 31, 38,  0, 38,  0,  0,  0
6, 4357, 3,KB0G,     0.23, 3,   boost,  194.50,  96931.00,  372.36,   10.35,   49.93, 21.5, 4.15, 4.23, 4.14, 156.82,  -5.86,   3.22, -55.69,  -6.13,   2.94,  -0.15,   0.26,   0.18,   1.53, 4.14, 0.00, 0.00, 0.00, 0.01, 1, 1, 11,  37.1687075, -97.7339931,   384.0, 2019, 11, 10, 15, 54, 53,        0,        0,   0,   0,   1.5,   0.9,   1.1,  0,  0,  0,  0, 41,  0,  0,  0,  0, 22,  0,  0, 39,  0, 41, 29,  0,  0,  0, 33, 38,  0,  0,  0,  0, 31, 38,  0, 38,  0,  0,  0
6, 4357, 3,KB0G,     0.24, 3,   boost,  195.04,  96948.00,  370.89,    8.88,   51.87, 21.5, 4.15, 4.23, 4.14, 156.82,   1.06,  -2.70, -52.51,   5.16,   1.23,  -0.14,   0.26,   0.17,   1.55, 4.14, 0.00, 0.00, 0.00, 0.01, 1, 1, 11,  37.1687075, -97.7339931,   384.0, 2019, 11, 10, 15, 54, 53,        0,        0,   0,   0,   1.5,   0.9,   1.1,  0,  0,  0,  0, 41,  0,  0,  0,  0, 22,  0,  0, 39,  0, 41, 29,  0,  0,  0, 33, 38,  0,  0,  0,  0, 31, 38,  0, 38,  0,  0,  0
6, 4357, 3,KB0G,     0.25, 3,   boost,  195.04,  96949.00,  370.81,    8.80,   53.82, 21.5, 4.15, 4.23, 4.14, 156.82,  -1.84,  -3.00, -59.10,   8.09,   5.26,  -0.15,   0.27,   0.18,   1.57, 4.14, 0.00, 0.00, 0.00, 0.01, 1, 1, 11,  37.1687075, -97.7339931,   384.0, 2019, 11, 10, 15, 54, 53,        0,        0,   0,   0,   1.5,   0.9,   1.1,  0,  0,  0,  0, 41,  0,  0,  0,  0, 22,  0,  0, 39,  0, 41, 29,  0,  0,  0, 33, 38,  0,  0,  0,  0, 31, 38,  0, 38,  0,  0,  0
6, 4357, 3,KB0G,     0.26, 3,   boost,  196.13,  96927.00,  372.71,   10.69,   55.78, 21.5, 4.15, 4.23, 4.14, 156.82,  -4.95,  -0.67, -58.62,  -3.39,   3.55,  -0.13,   0.27,   0.17,   1.52, 4.14, 0.00, 0.00, 0.00, 0.01, 1, 1, 11,  37.1687075, -97.7339931,   384.0, 2019, 11, 10, 15, 54, 53,        0,        0,   0,   0,   1.5,   0.9,   1.1,  0,  0,  0,  0, 41,  0,  0,  0,  0, 22,  0,  0, 39,  0, 41, 29,  0,  0,  0, 33, 38,  0,  0,  0,  0, 31, 38,  0, 38,  0,  0,  0
6, 4357, 3,KB0G,     0.27, 3,   boost,  196.13,  96925.00,  372.88,   10.87,   57.74, 21.5, 4.15, 4.23, 4.14, 156.82,   0.48,  -2.35, -53.24,   8.03,   3.18,  -0.14,   0.27,   0.17,   1.55, 4.14, 0.00, 0.00, 0.00, 0.01, 1, 1, 11,  37.1687075, -97.7339931,   384.0, 2019, 11, 10, 15, 54, 53,        0,        0,   0,   0,   1.5,   0.9,   1.1,  0,  0,  0,  0, 41,  0,  0,  0,  0, 22,  0,  0, 39,  0, 41, 29,  0,  0,  0, 33, 38,  0,  0,  0,  0, 31, 38,  0, 38,  0,  0,  0
6, 4357, 3,KB0G,     0.28, 3,   boost,  196.13,  96924.00,  372.97,   10.95,   59.70, 21.5, 4.15, 4.23, 4.14, 156.82,  -3.68,  -0.68, -61.48,   8.33,   6.18,  -0.14,   0.27,   0.17,   1.56, 4.14, 0.00, 0.00, 0.00, 0.01, 1, 1, 11,  37.1687075, -97.7339931,   384.0, 2019, 11, 10, 15, 54, 53,        0,        0,   0,   0,   1.5,   0.9,   1.1,  0,  0,  0,  0, 41,  0,  0,  0,  0, 22,  0,  0, 39,  0, 41, 29,  0,  0,  0, 33, 38,  0,  0,  0,  0, 31, 38,  0, 38,  0,  0,  0
6, 4357, 3,KB0G,     0.29, 3,   boost,  197.22,  96933.00,  372.19,   10.18,   61.66, 21.5, 4.15, 4.23, 4.14, 156.82,  -3.61,  -1.60, -58.01,  -1.92,   3.37,  -0.13,   0.27,   0.18,   1.53, 4.14, 0.00, 0.00, 0.00, 0.01, 1, 1, 11,  37.1687075, -97.7339931,   384.0, 2019, 11, 10, 15, 54, 53,        0,        0,   0,   0,   1.5,   0.9,   1.1,  0,  0,  0,  0, 41,  0,  0,  0,  0, 22,  0,  0, 39,  0, 41, 29,  0,  0,  0, 33, 38,  0,  0,  0,  0, 31, 38,  0, 38,  0,  0,  0
6, 4357, 3,KB0G,     0.30, 3,   boost,  197.22,  96918.00,  373.48,   11.47,   63.63, 21.5, 4.15, 4.23, 4.14, 156.82,  -0.29,  -4.54, -54.83,  12.18,   3.98,  -0.14,   0.28,   0.17,   1.59, 4.14, 0.00, 0.00, 0.00, 0.01, 1, 1, 11,  37.1687075, -97.7339931,   384.0, 2019, 11, 10, 15, 54, 53,        0,        0,   0,   0,   1.5,   0.9,   1.1,  0,  0,  0,  0, 41,  0,  0,  0,  0, 22,  0,  0, 39,  0, 41, 29,  0,  0,  0, 33, 38,  0,  0,  0,  0, 31, 38,  0, 38,  0,  0,  0
6, 4357, 3,KB0G,     0.31, 3,   boost,  197.77,  96892.00,  375.73,   13.71,   65.61, 21.5, 4.15, 4.23, 4.14, 156.82,  -2.75,  -0.10, -58.68,   5.34,   5.32,  -0.15,   0.28,   0.17,   1.60, 4.14, 0.00, 0.00, 0.00, 0.01, 1, 1, 11,  37.1687075, -97.7339931,   384.0, 2019, 11, 10, 15, 54, 53,        0,        0,   0,   0,   1.5,   0.9,   1.1,  0,  0,  0,  0, 41,  0,  0,  0,  0, 22,  0,  0, 39,  0, 41, 29,  0,  0,  0, 33, 38,  0,  0,  0,  0, 31, 38,  0, 38,  0,  0,  0
6, 4357, 3,KB0G,     0.32, 3,   boost,  197.77,  96897.00,  375.30,   13.28,   67.58, 21.5, 4.15, 4.23, 4.14, 156.82,  -2.87,  -1.73, -57.46,   7.30,   4.65,  -0.14,   0.27,   0.16,   1.63, 4.14, 0.00, 0.00, 0.00, 0.01, 1, 1, 11,  37.1687075, -97.7339931,   384.0, 2019, 11, 10, 15, 54, 53,        0,        0,   0,   0,   1.5,   0.9,   1.1,  0,  0,  0,  0, 41,  0,  0,  0,  0, 22,  0,  0, 39,  0, 41, 29,  0,  0,  0, 33, 38,  0,  0,  0,  0, 31, 38,  0, 38,  0,  0,  0
6, 4357, 3,KB0G,     0.33, 3,   boost,  197.77,  96893.00,  375.64,   13.63,   69.56, 21.5, 4.15, 4.23, 4.14, 156.82,  -1.31,  -2.36, -58.55,   8.46,   4.65,  -0.16,   0.27,   0.17,   1.68, 4.14, 0.00, 0.00, 0.00, 0.01, 1, 1, 11,  37.1687075, -97.7339931,   384.0, 2019, 11, 10, 15, 54, 53,        0,        0,   0,   0,   1.5,   0.9,   1.1,  0,  0,  0,  0, 41,  0,  0,  0,  0, 22,  0,  0, 39,  0, 41, 29,  0,  0,  0, 33, 38,  0,  0,  0,  0, 31, 38,  0, 38,  0,  0,  0
6, 4357, 3,KB0G,     0.34, 3,   boost,  198.31,  96890.00,  375.90,   13.89,   71.54, 21.5, 4.15, 4.14, 4.14, 156.82,  -5.07,  -2.59, -57.76,   9.25,   5.26,  -0.16,   0.27,   0.16,   1.73, 4.14, 0.00, 0.00, 0.00, 0.00, 1, 1, 11,  37.1687075, -97.7339931,   384.0, 2019, 11, 10, 15, 54, 53,        0,        0,   0,   0,   1.5,   0.9,   1.1,  0,  0,  0,  0, 41,  0,  0,  0,  0, 22,  0,  0, 39,  0, 41, 29,  0,  0,  0, 33, 38,  0,  0,  0,  0, 31, 38,  0, 38,  0,  0,  0
6, 4357, 3,KB0G,     0.34, 3,   boost,  198.31,  96890.00,  375.90,   13.89,   71.54, 21.5, 4.15, 4.14, 4.14, 156.82,  -5.07,  -2.59, -57.76,   9.25,   5.26,  -0.16,   0.27,   0.16,   1.73, 4.14, 0.00, 0.00, 0.00, 0.00, 1, 1, 11,  37.1687075, -97.7339931,   384.0, 2019, 11, 10, 15, 54, 53,        0,        0,   0,   0,   1.5,   0.9,   1.1,  0,  0,  0,  0, 41,  0,  0,  0,  0, 22,  0,  0, 39,  0, 41, 29,  0,  0,  0, 33, 38,  0,  0,  0,  0, 31, 38,  0, 38,  0,  0,  0
6, 4357, 3,KB0G,     0.35, 3,   boost,  198.86,  96879.00,  376.85,   14.84,   73.53, 21.5, 4.15, 4.14, 4.14, 156.82,  -2.18,  -1.71, -57.94,   9.80,   4.22,  -0.15,   0.25,   0.16,   1.80, 4.14, 0.00, 0.00, 0.00, 0.00, 1, 1, 11,  37.1687075, -97.7339931,   384.0, 2019, 11, 10, 15, 54, 53,        0,        0,   0,   0,   1.5,   0.9,   1.1,  0,  0,  0,  0, 41,  0,  0,  0,  0, 22,  0,  0, 39,  0, 41, 29,  0,  0,  0, 33, 38,  0,  0,  0,  0, 31, 38,  0, 38,  0,  0,  0
6, 4357, 3,KB0G,     0.36, 3,   boost,  198.86,  96876.00,  377.11,   15.10,   75.51, 21.5, 4.15, 4.14, 4.14, 156.82,  -1.85,  -1.83, -58.19,  10.41,   4.71,  -0.17,   0.27,   0.15,   1.87, 4.14, 0.00, 0.00, 0.00, 0.00, 1, 1, 11,  37.1687075, -97.7339931,   384.0, 2019, 11, 10, 15, 54, 53,        0,        0,   0,   0,   1.5,   0.9,   1.1,  0,  0,  0,  0, 41,  0,  0,  0,  0, 22,  0,  0, 39,  0, 41, 29,  0,  0,  0, 33, 38,  0,  0,  0,  0, 31, 38,  0, 38,  0,  0,  0
6, 4357, 3,KB0G,     0.37, 3,   boost,  199.40,  96868.00,  377.80,   15.79,   77.50, 21.5, 4.15, 4.14, 4.14, 156.82,  -3.47,  -0.48, -58.68,  10.78,   4.89,  -0.16,   0.27,   0.14,   1.95, 4.14, 0.00, 0.00, 0.00, 0.00, 1, 1, 11,  37.1687075, -97.7339931,   384.0, 2019, 11, 10, 15, 54, 53,        0,        0,   0,   0,   1.5,   0.9,   1.1,  0,  0,  0,  0, 41,  0,  0,  0,  0, 22,  0,  0, 39,  0, 41, 29,  0,  0,  0, 33, 38,  0,  0,  0,  0, 31, 38,  0, 38,  0,  0,  0
6, 4357, 3,KB0G,     0.38, 3,   boost,  199.40,  96861.00,  378.40,   16.39,   79.49, 21.5, 4.15, 4.14, 4.14, 156.82,  -1.62,  -1.57, -60.45,  12.67,   4.47,  -0.15,   0.27,   0.16,   2.05, 4.14, 0.00, 0.00, 0.00, 0.00, 1, 1, 11,  37.1687075, -97.7339931,   384.0, 2019, 11, 10, 15, 54, 53,        0,        0,   0,   0,   1.5,   0.9,   1.1,  0,  0,  0,  0, 41,  0,  0,  0,  0, 22,  0,  0, 39,  0, 41, 29,  0,  0,  0, 33, 38,  0,  0,  0,  0, 31, 38,  0, 38,  0,  0,  0
6, 4357, 3,KB0G,     0.39, 3,   boost,  199.40,  96848.00,  379.53,   17.51,   81.49, 21.5, 4.15, 4.14, 4.14, 156.82,  -3.45,  -2.88, -56.48,   6.14,   3.31,  -0.17,   0.27,   0.15,   2.09, 4.14, 0.00, 0.00, 0.00, 0.00, 1, 1, 11,  37.1687075, -97.7339931,   384.0, 2019, 11, 10, 15, 54, 53,        0,        0,   0,   0,   1.5,   0.9,   1.1,  0,  0,  0,  0, 41,  0,  0,  0,  0, 22,  0,  0, 39,  0, 41, 29,  0,  0,  0, 33, 38,  0,  0,  0,  0, 31, 38,  0, 38,  0,  0,  0
6, 4357, 3,KB0G,     0.40, 3,   boost,  199.95,  96848.00,  379.53,   17.51,   83.48, 21.5, 4.15, 4.14, 4.14, 156.82,  -3.59,  -0.53, -53.73,  19.44,   4.16,  -0.15,   0.26,   0.15,   2.26, 4.14, 0.00, 0.00, 0.00, 0.00, 1, 1, 11,  37.1687075, -97.7339931,   384.0, 2019, 11, 10, 15, 54, 53,        0,        0,   0,   0,   1.5,   0.9,   1.1,  0,  0,  0,  0, 41,  0,  0,  0,  0, 22,  0,  0, 39,  0, 41, 29,  0,  0,  0, 33, 38,  0,  0,  0,  0, 31, 38,  0, 38,  0,  0,  0
6, 4357, 3,KB0G,     0.41, 3,   boost,  199.95,  96842.00,  380.04,   18.03,   85.48, 21.5, 4.15, 4.14, 4.14, 156.82,  -1.46,  -3.07, -59.71,  11.02,   3.25,  -0.15,   0.26,   0.15,   2.35, 4.14, 0.00, 0.00, 0.00, 0.00, 1, 1, 11,  37.1687075, -97.7339931,   384.0, 2019, 11, 10, 15, 54, 53,        0,        0,   0,   0,   1.5,   0.9,   1.1,  0,  0,  0,  0, 41,  0,  0,  0,  0, 22,  0,  0, 39,  0, 41, 29,  0,  0,  0, 33, 38,  0,  0,  0,  0, 31, 38,  0, 38,  0,  0,  0
6, 4357, 3,KB0G,     0.42, 3,   boost,  199.95,  96826.00,  381.43,   19.41,   87.47, 21.5, 4.15, 4.14, 4.14, 156.82,  -4.27,  -0.67, -52.45,   8.21,   2.03,  -0.17,   0.27,   0.15,   2.43, 4.14, 0.00, 0.00, 0.00, 0.00, 1, 1, 11,  37.1687075, -97.7339931,   384.0, 2019, 11, 10, 15, 54, 53,        0,        0,   0,   0,   1.5,   0.9,   1.1,  0,  0,  0,  0, 41,  0,  0,  0,  0, 22,  0,  0, 39,  0, 41, 29,  0,  0,  0, 33, 38,  0,  0,  0,  0, 31, 38,  0, 38,  0,  0,  0
6, 4357, 3,KB0G,     0.43, 3,   boost,  199.95,  96824.00,  381.60,   19.59,   89.47, 21.5, 4.15, 4.14, 4.14, 156.82,  -2.84,  -0.47, -50.62,  20.24,   2.82,  -0.17,   0.26,   0.13,   2.61, 4.14, 0.00, 0.00, 0.00, 0.00, 1, 1, 11,  37.1687075, -97.7339931,   384.0, 2019, 11, 10, 15, 54, 53,        0,        0,   0,   0,   1.5,   0.9,   1.1,  0,  0,  0,  0, 41,  0,  0,  0,  0, 22,  0,  0, 39,  0, 41, 29,  0,  0,  0, 33, 38,  0,  0,  0,  0, 31, 38,  0, 38,  0,  0,  0
6, 4357, 3,KB0G,     0.44, 3,   boost,  199.95,  96833.00,  380.82,   18.81,   91.47, 21.5, 4.15, 4.14, 4.14, 156.82,  -1.51,   0.04, -55.14,  10.17,   2.03,  -0.16,   0.27,   0.14,   2.71, 4.14, 0.00, 0.00, 0.00, 0.00, 1, 1, 11,  37.1687075, -97.7339931,   384.0, 2019, 11, 10, 15, 54, 53,        0,        0,   0,   0,   1.5,   0.9,   1.1,  0,  0,  0,  0, 41,  0,  0,  0,  0, 22,  0,  0, 39,  0, 41, 29,  0,  0,  0, 33, 38,  0,  0,  0,  0, 31, 38,  0, 38,  0,  0,  0
6, 4357, 3,KB0G,     0.45, 3,   boost,  199.95,  96815.00,  382.38,   20.36,   93.47, 21.5, 4.15, 4.14, 4.14, 156.82,  -3.04,  -0.98, -46.77,  14.13,   1.90,  -0.16,   0.27,   0.14,   2.84, 4.14, 0.00, 0.00, 0.00, 0.00, 1, 1, 11,  37.1687075, -97.7339931,   384.0, 2019, 11, 10, 15, 54, 53,        0,        0,   0,   0,   1.5,   0.9,   1.1,  0,  0,  0,  0, 41,  0,  0,  0,  0, 22,  0,  0, 39,  0, 41, 29,  0,  0,  0, 33, 38,  0,  0,  0,  0, 31, 38,  0, 38,  0,  0,  0
6, 4357, 3,KB0G,     0.46, 3,   boost,  200.49,  96796.00,  384.02,   22.00,   95.47, 21.5, 4.15, 4.14, 4.14, 156.82,  -4.01,  -2.36, -45.80,  12.73,   0.74,  -0.17,   0.26,   0.15,   2.96, 4.14, 0.00, 0.00, 0.00, 0.00, 1, 1, 11,  37.1687075, -97.7339931,   384.0, 2019, 11, 10, 15, 54, 53,        0,        0,   0,   0,   1.5,   0.9,   1.1,  0,  0,  0,  0, 41,  0,  0,  0,  0, 22,  0,  0, 39,  0, 41, 29,  0,  0,  0, 33, 38,  0,  0,  0,  0, 31, 38,  0, 38,  0,  0,  0
6, 4357, 3,KB0G,     0.47, 3,   boost,  200.49,  96787.00,  384.79,   22.78,   97.47, 21.5, 4.15, 4.14, 4.14, 156.82,  -3.69,  -1.39, -43.05,  12.91,   0.93,  -0.17,   0.27,   0.13,   3.08, 4.14, 0.00, 0.00, 0.00, 0.00, 1, 1, 11,  37.1687075, -97.7339931,   384.0, 2019, 11, 10, 15, 54, 53,        0,        0,   0,   0,   1.5,   0.9,   1.1,  0,  0,  0,  0, 41,  0,  0,  0,  0, 22,  0,  0, 39,  0, 41, 29,  0,  0,  0, 33, 38,  0,  0,  0,  0, 31, 38,  0, 38,  0,  0,  0
6, 4357, 3,KB0G,     0.48, 3,   boost,  200.49,  96784.00,  385.05,   23.04,   99.47, 21.5, 4.15, 4.14, 4.14, 156.82,  -2.78,  -0.20, -41.28,  12.24,   0.38,  -0.15,   0.26,   0.12,   3.20, 4.14, 0.00, 0.00, 0.00, 0.00, 1, 1, 11,  37.1687075, -97.7339931,   384.0, 2019, 11, 10, 15, 54, 53,        0,        0,   0,   0,   1.5,   0.9,   1.1,  0,  0,  0,  0, 41,  0,  0,  0,  0, 22,  0,  0, 39,  0, 41, 29,  0,  0,  0, 33, 38,  0,  0,  0,  0, 31, 38,  0, 38,  0,  0,  0
6, 4357, 3,KB0G,     0.49, 3,   boost,  200.49,  96763.00,  386.87,   24.86,  101.47, 21.5, 4.15, 4.14, 4.14, 156.82,  -4.03,   0.01, -37.68,  11.94,  -0.66,  -0.17,   0.26,   0.13,   3.32, 4.14, 0.00, 0.00, 0.00, 0.00, 1, 1, 11,  37.1687075, -97.7339931,   384.0, 2019, 11, 10, 15, 54, 53,        0,        0,   0,   0,   1.5,   0.9,   1.1,  0,  0,  0,  0, 41,  0,  0,  0,  0, 22,  0,  0, 39,  0, 41, 29,  0,  0,  0, 33, 38,  0,  0,  0,  0, 31, 38,  0, 38,  0,  0,  0
6, 4357, 3,KB0G,     0.50, 3,   boost,  200.49,  96763.00,  386.87,   24.86,  103.47, 21.5, 4.15, 4.14, 4.14, 156.82,  -4.78,  -0.24, -35.60,  11.69,  -0.66,  -0.17,   0.27,   0.13,   3.43, 4.14, 0.00, 0.00, 0.00, 0.00, 1, 1, 11,  37.1687075, -97.7339931,   384.0, 2019, 11, 10, 15, 54, 53,        0,        0,   0,   0,   1.5,   0.9,   1.1,  0,  0,  0,  0, 41,  0,  0,  0,  0, 22,  0,  0, 39,  0, 41, 29,  0,  0,  0, 33, 38,  0,  0,  0,  0, 31, 38,  0, 38,  0,  0,  0
6, 4357, 3,KB0G,     0.51, 3,   boost,  201.04,  96752.00,  387.82,   25.81,  105.48, 21.5, 4.15, 4.14, 4.14, 156.82,  -3.15,   0.38, -33.77,  11.45,  -2.06,  -0.16,   0.26,   0.13,   3.55, 4.14, 0.00, 0.00, 0.00, 0.00, 1, 1, 11,  37.1687075, -97.7339931,   384.0, 2019, 11, 10, 15, 54, 53,        0,        0,   0,   0,   1.5,   0.9,   1.1,  0,  0,  0,  0, 41,  0,  0,  0,  0, 22,  0,  0, 39,  0, 41, 29,  0,  0,  0, 33, 38,  0,  0,  0,  0, 31, 38,  0, 38,  0,  0,  0
6, 4357, 3,KB0G,     0.52, 3,   boost,  201.04,  96731.00,  389.63,   27.62,  107.49, 21.5, 4.15, 4.14, 4.14, 156.82,  -2.11,  -1.60, -33.22,   5.28,  -3.47,  -0.15,   0.26,   0.14,   3.61, 4.14, 0.00, 0.00, 0.00, 0.00, 1, 1, 11,  37.1687075, -97.7339931,   384.0, 2019, 11, 10, 15, 54, 53,        0,        0,   0,   0,   1.5,   0.9,   1.1,  0,  0,  0,  0, 41,  0,  0,  0,  0, 22,  0,  0, 39,  0, 41, 29,  0,  0,  0, 33, 38,  0,  0,  0,  0, 31, 38,  0, 38,  0,  0,  0
6, 4357, 3,KB0G,     0.53, 3,   boost,  201.58,  96730.00,  389.72,   27.71,  109.49, 21.5, 4.15, 4.14, 4.14, 156.82,  -1.78,  -1.35, -27.61,  17.73,  -2.19,  -0.18,   0.26,   0.11,   3.79, 4.14, 0.00, 0.00, 0.00, 0.00, 1, 1, 11,  37.1687075, -97.7339931,   384.0, 2019, 11, 10, 15, 54, 53,        0,        0,   0,   0,   1.5,   0.9,   1.1,  0,  0,  0,  0, 41,  0,  0,  0,  0, 22,  0,  0, 39,  0, 41, 29,  0,  0,  0, 33, 38,  0,  0,  0,  0, 31, 38,  0, 38,  0,  0,  0
6, 4357, 3,KB0G,     0.54, 3,   boost,  201.58,  96728.00,  389.89,   27.88,  111.50, 21.5, 4.15, 4.14, 4.14, 156.82,  -3.07,  -1.46, -32.74,   6.26,  -3.65,  -0.16,   0.25,   0.12,   3.86, 4.14, 0.00, 0.00, 0.00, 0.00, 1, 1, 11,  37.1687075, -97.7339931,   384.0, 2019, 11, 10, 15, 54, 53,        0,        0,   0,   0,   1.5,   0.9,   1.1,  0,  0,  0,  0, 41,  0,  0,  0,  0, 22,  0,  0, 39,  0, 41, 29,  0,  0,  0, 33, 38,  0,  0,  0,  0, 31, 38,  0, 38,  0,  0,  0
6, 4357, 3,KB0G,     0.55, 3,   boost,  201.58,  96711.00,  391.36,   29.35,  113.51, 21.5, 4.15, 4.14, 4.14, 156.82,  -3.28,   0.62, -24.92,   4.92,  -5.24,  -0.16,   0.26,   0.12,   3.92, 4.14, 0.00, 0.00, 0.00, 0.00, 1, 1, 11,  37.1687075, -97.7339931,   384.0, 2019, 11, 10, 15, 54, 53,        0,        0,   0,   0,   1.5,   0.9,   1.1,  0,  0,  0,  0, 41,  0,  0,  0,  0, 22,  0,  0, 39,  0, 41, 29,  0,  0,  0, 33, 38,  0,  0,  0,  0, 31, 38,  0, 38,  0,  0,  0
6, 4357, 3,KB0G,     0.56, 3,   boost,  201.58,  96704.00,  391.97,   29.95,  115.53, 21.5, 4.15, 4.14, 4.14, 156.82,  -3.93,  -0.09, -23.82,  15.84,  -4.08,  -0.16,   0.26,   0.12,   4.08, 4.14, 0.00, 0.00, 0.00, 0.00, 1, 1, 11,  37.1687075, -97.7339931,   384.0, 2019, 11, 10, 15, 54, 53,        0,        0,   0,   0,   1.5,   0.9,   1.1,  0,  0,  0,  0, 41,  0,  0,  0,  0, 22,  0,  0, 39,  0, 41, 29,  0,  0,  0, 33, 38,  0,  0,  0,  0, 31, 38,  0, 38,  0,  0,  0
6, 4357, 3,KB0G,     0.57, 3,   boost,  202.13,  96686.00,  393.52,   31.51,  117.54, 21.5, 4.15, 4.14, 4.14, 156.82,  -2.70,  -1.07, -29.26,   3.45,  -5.18,  -0.17,   0.27,   0.12,   4.13, 4.14, 0.00, 0.00, 0.00, 0.00, 1, 1, 11,  37.1687075, -97.7339931,   384.0, 2019, 11, 10, 15, 54, 53,        0,        0,   0,   0,   1.5,   0.9,   1.1,  0,  0,  0,  0, 41,  0,  0,  0,  0, 22,  0,  0, 39,  0, 41, 29,  0,  0,  0, 33, 38,  0,  0,  0,  0, 31, 38,  0, 38,  0,  0,  0
6, 4357, 3,KB0G,     0.58, 3,   boost,  202.13,  96685.00,  393.61,   31.60,  119.55, 21.5, 4.15, 4.14, 4.14, 156.82,  -3.19,   0.59, -19.55,   4.24,  -6.58,  -0.16,   0.26,   0.11,   4.19, 4.14, 0.00, 0.00, 0.00, 0.00, 1, 1, 11,  37.1687075, -97.7339931,   384.0, 2019, 11, 10, 15, 54, 53,        0,        0,   0,   0,   1.5,   0.9,   1.1,  0,  0,  0,  0, 41,  0,  0,  0,  0, 22,  0,  0, 39,  0, 41, 29,  0,  0,  0, 33, 38,  0,  0,  0,  0, 31, 38,  0, 38,  0,  0,  0
