#version,serial,flight,call,time,state,state_name,acceleration,pressure,altitude,height,speed,temperature,drogue_voltage,main_voltage,battery_voltage,accel_x,accel_y,accel_z,gyro_roll,gyro_pitch,gyro_yaw,mag_x,mag_y,mag_z,tilt,pyro,igniter_a,igniter_b,igniter_c,igniter_d,connected,locked,nsat,latitude,longitude,altitude,year,month,day,hour,minute,second,pad_dist,pad_range,pad_az,pad_el,pdop,hdop,vdop,sat01,sat02,sat03,sat04,sat05,sat06,sat07,sat08,sat09,sat10,sat11,sat12,sat13,sat14,sat15,sat16,sat17,sat18,sat19,sat20,sat21,sat22,sat23,sat24,sat25,sat26,sat27,sat28,sat29,sat30,sat31,sat32
6, 1257, 18,KB0G,    -0.30, 3,   boost,   -0.00,  73957.00, 2577.62,   -0.97,    0.00, 27.0, 4.21, 4.16, 4.17,   9.89,   0.49,   0.07,   0.23,   0.01,   0.31,  -0.08,  -0.22,  -0.20,   3.17, 4.36, 0.00, 0.00, 0.00, 0.00, 1, 1, 12,  39.0159236,-105.7107031,  2682.0, 2019,  5, 26, 16, 33, 11,        0,        0,   0,   0,   1.6,   0.8,   1.4, 38,  0,  0,  0,  0,  0, 44, 44, 40,  0, 42,  0, 35,  0,  0,  0, 38, 43,  0,  0,  0,  0,  0,  0,  0,  0,  0,  0,  0,  0,  0,  0
6, 1257, 18,KB0G,    -0.29, 3,   boost,   -0.00,  73958.00, 2577.52,   -1.07,    0.00, 27.0, 4.21, 4.16, 4.17,   9.87,   0.43,   0.04,  -0.26,   0.07,   0.31,  -0.08,  -0.22,  -0.20,   3.17, 4.36, 0.00, 0.00, 0.00, 0.00, 1, 1, 12,  39.0159236,-105.7107031,  2682.0, 2019,  5, 26, 16, 33, 11,        0,        0,   0,   0,   1.6,   0.8,   1.4, 38,  0,  0,  0,  0,  0, 44, 44, 40,  0, 42,  0, 35,  0,  0,  0, 38, 43,  0,  0,  0,  0,  0,  0,  0,  0,  0,  0,  0,  0,  0,  0
6, 1257, 18,KB0G,    -0.28, 3,   boost,   -0.00,  73953.00, 2578.05,   -0.54,    0.00, 27.0, 4.21, 4.16, 4.17,   9.91,   0.42,   0.11,  -0.75,   0.25,   0.19,  -0.08,  -0.22,  -0.20,   3.17, 4.36, 0.00, 0.00, 0.00, 0.00, 1, 1, 12,  39.0159236,-105.7107031,  2682.0, 2019,  5, 26, 16, 33, 11,        0,        0,   0,   0,   1.6,   0.8,   1.4, 38,  0,  0,  0,  0,  0, 44, 44, 40,  0, 42,  0, 35,  0,  0,  0, 38, 43,  0,  0,  0,  0,  0,  0,  0,  0,  0,  0,  0,  0,  0,  0
6, 1257, 18,KB0G,    -0.27, 3,   boost,   -0.00,  73938.00, 2579.67,    1.07,    0.00, 27.0, 4.21, 4.16, 4.17,   9.86,   0.43,   0.05,  -0.26,  -0.06,   0.19,  -0.09,  -0.22,  -0.20,   3.17, 4.36, 0.00, 0.00, 0.00, 0.00, 1, 1, 12,  39.0159236,-105.7107031,  2682.0, 2019,  5, 26, 16, 33, 11,        0,        0,   0,   0,   1.6,   0.8,   1.4, 38,  0,  0,  0,  0,  0, 44, 44, 40,  0, 42,  0, 35,  0,  0,  0, 38, 43,  0,  0,  0,  0,  0,  0,  0,  0,  0,  0,  0,  0,  0,  0
6, 1257, 18,KB0G,    -0.26, 3,   boost,   -0.00,  73968.00, 2576.44,   -2.15,    0.00, 27.0, 4.21, 4.16, 4.17,   9.94,   0.38,  -0.11,  -0.38,  -0.18,   0.31,  -0.08,  -0.22,  -0.20,   3.17, 4.36, 0.00, 0.00, 0.00, 0.00, 1, 1, 12,  39.0159236,-105.7107031,  2682.0, 2019,  5, 26, 16, 33, 11,        0,        0,   0,   0,   1.6,   0.8,   1.4, 38,  0,  0,  0,  0,  0, 44, 44, 40,  0, 42,  0, 35,  0,  0,  0, 38, 43,  0,  0,  0,  0,  0,  0,  0,  0,  0,  0,  0,  0,  0,  0
6, 1257, 18,KB0G,    -0.25, 3,   boost,   -0.00,  73952.00, 2578.16,   -0.43,    0.00, 27.0, 4.21, 4.16, 4.17,   9.85,   0.37,  -0.03,  -0.63,  -0.06,   0.50,  -0.08,  -0.23,  -0.20,   3.17, 4.36, 0.00, 0.00, 0.00, 0.00, 1, 1, 12,  39.0159236,-105.7107031,  2682.0, 2019,  5, 26, 16, 33, 11,        0,        0,   0,   0,   1.6,   0.8,   1.4, 38,  0,  0,  0,  0,  0, 44, 44, 40,  0, 42,  0, 35,  0,  0,  0, 38, 43,  0,  0,  0,  0,  0,  0,  0,  0,  0,  0,  0,  0,  0,  0
6, 1257, 18,KB0G,    -0.24, 3,   boost,   -0.00,  73946.00, 2578.81,    0.21,    0.00, 27.0, 4.21, 4.16, 4.17,   9.84,   0.39,  -0.03,  -0.69,   0.07,   0.13,  -0.08,  -0.22,  -0.20,   3.17, 4.36, 0.00, 0.00, 0.00, 0.00, 1, 1, 12,  39.0159236,-105.7107031,  2682.0, 2019,  5, 26, 16, 33, 11,        0,        0,   0,   0,   1.6,   0.8,   1.4, 38,  0,  0,  0,  0,  0, 44, 44, 40,  0, 42,  0, 35,  0,  0,  0, 38, 43,  0,  0,  0,  0,  0,  0,  0,  0,  0,  0,  0,  0,  0,  0
6, 1257, 18,KB0G,    -0.23, 3,   boost,   -0.00,  73952.00, 2578.16,   -0.43,    0.00, 27.0, 4.21, 4.16, 4.17,   9.92,   0.41,   0.04,   0.35,  -0.06,   0.62,  -0.08,  -0.22,  -0.19,   3.17, 4.36, 0.00, 0.00, 0.00, 0.00, 1, 1, 12,  39.0159236,-105.7107031,  2682.0, 2019,  5, 26, 16, 33, 11,        0,        0,   0,   0,   1.6,   0.8,   1.4, 38,  0,  0,  0,  0,  0, 44, 44, 40,  0, 42,  0, 35,  0,  0,  0, 38, 43,  0,  0,  0,  0,  0,  0,  0,  0,  0,  0,  0,  0,  0,  0
6, 1257, 18,KB0G,    -0.22, 3,   boost,   -0.00,  73966.00, 2576.66,   -1.93,    0.00, 27.0, 4.21, 4.16, 4.17,   9.89,   0.45,  -0.03,   0.23,   0.01,   0.68,  -0.08,  -0.23,  -0.20,   3.17, 4.36, 0.00, 0.00, 0.00, 0.00, 1, 1, 12,  39.0159236,-105.7107031,  2682.0, 2019,  5, 26, 16, 33, 11,        0,        0,   0,   0,   1.6,   0.8,   1.4, 38,  0,  0,  0,  0,  0, 44, 44, 40,  0, 42,  0, 35,  0,  0,  0, 38, 43,  0,  0,  0,  0,  0,  0,  0,  0,  0,  0,  0,  0,  0,  0
6, 1257, 18,KB0G,    -0.21, 3,   boost,   -0.00,  73951.00, 2578.27,   -0.32,    0.00, 27.0, 4.21, 4.16, 4.17,   9.86,   0.52,  -0.04,  -0.32,  -0.24,   0.74,  -0.08,  -0.22,  -0.19,   3.17, 4.36, 0.00, 0.00, 0.00, 0.00, 1, 1, 12,  39.0159236,-105.7107031,  2682.0, 2019,  5, 26, 16, 33, 11,        0,        0,   0,   0,   1.6,   0.8,   1.4, 38,  0,  0,  0,  0,  0, 44, 44, 40,  0, 42,  0, 35,  0,  0,  0, 38, 43,  0,  0,  0,  0,  0,  0,  0,  0,  0,  0,  0,  0,  0,  0
6, 1257, 18,KB0G,    -0.20, 3,   boost,   -0.00,  73951.00, 2578.27,   -0.32,    0.00, 27.0, 4.21, 4.16, 4.17,   9.84,   0.56,  -0.00,  -0.14,  -0.06,   0.86,  -0.08,  -0.22,  -0.20,   3.17, 4.36, 0.00, 0.00, 0.00, 0.00, 1, 1, 12,  39.0159236,-105.7107031,  2682.0, 2019,  5, 26, 16, 33, 11,        0,        0,   0,   0,   1.6,   0.8,   1.4, 38,  0,  0,  0,  0,  0, 44, 44, 40,  0, 42,  0, 35,  0,  0,  0, 38, 43,  0,  0,  0,  0,  0,  0,  0,  0,  0,  0,  0,  0,  0,  0
6, 1257, 18,KB0G,    -0.19, 3,   boost,   -0.00,  73949.00, 2578.48,   -0.11,    0.00, 27.0, 4.21, 4.16, 4.17,   9.87,   0.69,   0.02,   1.08,  -0.18,   0.56,  -0.08,  -0.23,  -0.20,   3.17, 4.36, 0.00, 0.00, 0.00, 0.00, 1, 1, 12,  39.0159236,-105.7107031,  2682.0, 2019,  5, 26, 16, 33, 11,        0,        0,   0,   0,   1.6,   0.8,   1.4, 38,  0,  0,  0,  0,  0, 44, 44, 40,  0, 42,  0, 35,  0,  0,  0, 38, 43,  0,  0,  0,  0,  0,  0,  0,  0,  0,  0,  0,  0,  0,  0
6, 1257, 18,KB0G,    -0.18, 3,   boost,   -0.00,  73945.00, 2578.91,    0.32,    0.00, 27.0, 4.21, 4.16, 4.17,   9.87,   0.82,   0.11,   2.00,  -0.06,   0.62,  -0.09,  -0.23,  -0.19,   3.17, 4.36, 0.00, 0.00, 0.00, 0.00, 1, 1, 12,  39.0159236,-105.7107031,  2682.0, 2019,  5, 26, 16, 33, 11,        0,        0,   0,   0,   1.6,   0.8,   1.4, 38,  0,  0,  0,  0,  0, 44, 44, 40,  0, 42,  0, 35,  0,  0,  0, 38, 43,  0,  0,  0,  0,  0,  0,  0,  0,  0,  0,  0,  0,  0,  0
6, 1257, 18,KB0G,    -0.17, 3,   boost,   -0.00,  73937.00, 2579.77,    1.18,    0.00, 27.0, 4.21, 4.16, 4.17,   9.81,   0.81,   0.01,   0.72,   0.07,   0.62,  -0.08,  -0.23,  -0.21,   3.17, 4.36, 0.00, 0.00, 0.00, 0.00, 1, 1, 12,  39.0159236,-105.7107031,  2682.0, 2019,  5, 26, 16, 33, 11,        0,        0,   0,   0,   1.6,   0.8,   1.4, 38,  0,  0,  0,  0,  0, 44, 44, 40,  0, 42,  0, 35,  0,  0,  0, 38, 43,  0,  0,  0,  0,  0,  0,  0,  0,  0,  0,  0,  0,  0,  0
6, 1257, 18,KB0G,    -0.16, 3,   boost,   -0.00,  73963.00, 2576.98,   -1.61,    0.00, 27.0, 4.21, 4.16, 4.17,   9.82,   0.75,   0.16,  -0.99,   0.01,   0.37,  -0.08,  -0.22,  -0.20,   3.17, 4.36, 0.00, 0.00, 0.00, 0.00, 1, 1, 12,  39.0159236,-105.7107031,  2682.0, 2019,  5, 26, 16, 33, 11,        0,        0,   0,   0,   1.6,   0.8,   1.4, 38,  0,  0,  0,  0,  0, 44, 44, 40,  0, 42,  0, 35,  0,  0,  0, 38, 43,  0,  0,  0,  0,  0,  0,  0,  0,  0,  0,  0,  0,  0,  0
6, 1257, 18,KB0G,    -0.15, 3,   boost,   -0.00,  73957.00, 2577.62,   -0.97,    0.00, 27.0, 4.21, 4.16, 4.17,   9.91,   0.73,   0.01,  -0.69,  -0.06,   0.25,  -0.08,  -0.22,  -0.19,   3.17, 4.36, 0.00, 0.00, 0.00, 0.00, 1, 1, 12,  39.0159236,-105.7107031,  2682.0, 2019,  5, 26, 16, 33, 11,        0,        0,   0,   0,   1.6,   0.8,   1.4, 38,  0,  0,  0,  0,  0, 44, 44, 40,  0, 42,  0, 35,  0,  0,  0, 38, 43,  0,  0,  0,  0,  0,  0,  0,  0,  0,  0,  0,  0,  0,  0
6, 1257, 18,KB0G,    -0.14, 3,   boost,   -0.00,  73935.00, 2579.99,    1.40,    0.00, 27.0, 4.21, 4.16, 4.17,   9.91,   0.70,   0.04,   0.23,   0.01,  -0.05,  -0.08,  -0.22,  -0.21,   3.17, 4.36, 0.00, 0.00, 0.00, 0.00, 1, 1, 12,  39.0159236,-105.7107031,  2682.0, 2019,  5, 26, 16, 33, 11,        0,        0,   0,   0,   1.6,   0.8,   1.4, 38,  0,  0,  0,  0,  0, 44, 44, 40,  0, 42,  0, 35,  0,  0,  0, 38, 43,  0,  0,  0,  0,  0,  0,  0,  0,  0,  0,  0,  0,  0,  0
6, 1257, 18,KB0G,    -0.13, 3,   boost,   -0.00,  73942.00, 2579.24,    0.64,    0.00, 27.0, 4.21, 4.16, 4.17,   9.83,   0.79,   0.02,  -0.08,   0.01,  -0.11,  -0.08,  -0.22,  -0.21,   3.17, 4.36, 0.00, 0.00, 0.00, 0.00, 1, 1, 12,  39.0159236,-105.7107031,  2682.0, 2019,  5, 26, 16, 33, 11,        0,        0,   0,   0,   1.6,   0.8,   1.4, 38,  0,  0,  0,  0,  0, 44, 44, 40,  0, 42,  0, 35,  0,  0,  0, 38, 43,  0,  0,  0,  0,  0,  0,  0,  0,  0,  0,  0,  0,  0,  0
6, 1257, 18,KB0G,    -0.12, 3,   boost,   -0.00,  73975.00, 2575.69,   -2.90,    0.00, 27.0, 4.21, 4.16, 4.17,   9.79,   0.79,   0.01,   0.47,   0.01,   0.19,  -0.08,  -0.23,  -0.21,   3.17, 4.36, 0.00, 0.00, 0.00, 0.00, 1, 1, 12,  39.0159236,-105.7107031,  2682.0, 2019,  5, 26, 16, 33, 11,        0,        0,   0,   0,   1.6,   0.8,   1.4, 38,  0,  0,  0,  0,  0, 44, 44, 40,  0, 42,  0, 35,  0,  0,  0, 38, 43,  0,  0,  0,  0,  0,  0,  0,  0,  0,  0,  0,  0,  0,  0
6, 1257, 18,KB0G,    -0.11, 3,   boost,   -0.00,  73955.00, 2577.84,   -0.75,    0.00, 27.0, 4.21, 4.16, 4.17,   9.87,   0.69,   0.03,  -0.26,  -0.12,   0.01,  -0.08,  -0.22,  -0.20,   3.17, 4.36, 0.00, 0.00, 0.00, 0.00, 1, 1, 12,  39.0159236,-105.7107031,  2682.0, 2019,  5, 26, 16, 33, 11,        0,        0,   0,   0,   1.6,   0.8,   1.4, 38,  0,  0,  0,  0,  0, 44, 44, 40,  0, 42,  0, 35,  0,  0,  0, 38, 43,  0,  0,  0,  0,  0,  0,  0,  0,  0,  0,  0,  0,  0,  0
6, 1257, 18,KB0G,    -0.10, 3,   boost,   -0.00,  73963.00, 2576.98,   -1.61,    0.00, 27.0, 4.21, 4.16, 4.17,   9.84,   0.57,   0.05,   0.23,  -0.24,  -0.18,  -0.08,  -0.23,  -0.19,   3.17, 4.36, 0.00, 0.00, 0.00, 0.00, 1, 1, 12,  39.0159236,-105.7107031,  2682.0, 2019,  5, 26, 16, 33, 11,        0,        0,   0,   0,   1.6,   0.8,   1.4, 38,  0,  0,  0,  0,  0, 44, 44, 40,  0, 42,  0, 35,  0,  0,  0, 38, 43,  0,  0,  0,  0,  0,  0,  0,  0,  0,  0,  0,  0,  0,  0
6, 1257, 18,KB0G,    -0.09, 3,   boost,   -0.00,  73943.00, 2579.13,    0.54,    0.00, 27.0, 4.21, 4.16, 4.17,   9.84,   0.68,   0.27,  -0.26,   0.01,  -0.18,  -0.08,  -0.22,  -0.20,   3.17, 4.36, 0.00, 0.00, 0.00, 0.00, 1, 1, 12,  39.0159236,-105.7107031,  2682.0, 2019,  5, 26, 16, 33, 11,        0,        0,   0,   0,   1.6,   0.8,   1.4, 38,  0,  0,  0,  0,  0, 44, 44, 40,  0, 42,  0, 35,  0,  0,  0, 38, 43,  0,  0,  0,  0,  0,  0,  0,  0,  0,  0,  0,  0,  0,  0
6, 1257, 18,KB0G,    -0.08, 3,   boost,   -0.00,  73956.00, 2577.73,   -0.86,    0.01, 27.0, 4.21, 4.16, 4.17,   9.84,   0.79,   0.17,   0.23,  -0.06,  -0.18,  -0.08,  -0.22,  -0.21,   3.17, 4.36, 0.00, 0.00, 0.00, 0.00, 1, 1, 12,  39.0159236,-105.7107031,  2682.0, 2019,  5, 26, 16, 33, 11,        0,        0,   0,   0,   1.6,   0.8,   1.4, 38,  0,  0,  0,  0,  0, 44, 44, 40,  0, 42,  0, 35,  0,  0,  0, 38, 43,  0,  0,  0,  0,  0,  0,  0,  0,  0,  0,  0,  0,  0,  0
6, 1257, 18,KB0G,    -0.07, 3,   boost,   -0.00,  73966.00, 2576.66,   -1.93,    0.08, 27.0, 4.21, 4.16, 4.17,   9.82,   0.77,  -0.00,   0.47,   0.01,  -0.18,  -0.08,  -0.22,  -0.21,   3.17, 4.36, 0.00, 0.00, 0.00, 0.00, 1, 1, 12,  39.0159236,-105.7107031,  2682.0, 2019,  5, 26, 16, 33, 11,        0,        0,   0,   0,   1.6,   0.8,   1.4, 38,  0,  0,  0,  0,  0, 44, 44, 40,  0, 42,  0, 35,  0,  0,  0, 38, 43,  0,  0,  0,  0,  0,  0,  0,  0,  0,  0,  0,  0,  0,  0
6, 1257, 18,KB0G,    -0.06, 3,   boost,   -0.00,  73966.00, 2576.66,   -1.93,    0.26, 27.0, 4.21, 4.16, 4.17,   9.81,   0.74,   0.20,  -0.69,   0.01,  -0.36,  -0.09,  -0.22,  -0.19,   3.17, 4.36, 0.00, 0.00, 0.00, 0.00, 1, 1, 12,  39.0159236,-105.7107031,  2682.0, 2019,  5, 26, 16, 33, 11,        0,        0,   0,   0,   1.6,   0.8,   1.4, 38,  0,  0,  0,  0,  0, 44, 44, 40,  0, 42,  0, 35,  0,  0,  0, 38, 43,  0,  0,  0,  0,  0,  0,  0,  0,  0,  0,  0,  0,  0,  0
6, 1257, 18,KB0G,    -0.05, 3,   boost,    0.53,  73966.00, 2576.66,   -1.93,    0.61, 27.0, 4.21, 4.16, 4.17,   9.87,   0.43,   0.03,  -1.05,   0.07,  -0.36,  -0.08,  -0.22,  -0.21,   3.17, 4.36, 0.00, 0.00, 0.00, 0.00, 1, 1, 12,  39.0159236,-105.7107031,  2682.0, 2019,  5, 26, 16, 33, 11,        0,        0,   0,   0,   1.6,   0.8,   1.4, 38,  0,  0,  0,  0,  0, 44, 44, 40,  0, 42,  0, 35,  0,  0,  0, 38, 43,  0,  0,  0,  0,  0,  0,  0,  0,  0,  0,  0,  0,  0,  0
6, 1257, 18,KB0G,    -0.04, 3,   boost,  130.40,  73965.00, 2576.77,   -1.83,    1.20, 27.0, 4.21, 4.16, 4.17,  10.07,   0.53,   0.27,  -0.75,   0.07,  -0.72,  -0.08,  -0.22,  -0.20,   3.17, 4.36, 0.00, 0.00, 0.00, 0.00, 1, 1, 12,  39.0159236,-105.7107031,  2682.0, 2019,  5, 26, 16, 33, 11,        0,        0,   0,   0,   1.6,   0.8,   1.4, 38,  0,  0,  0,  0,  0, 44, 44, 40,  0, 42,  0, 35,  0,  0,  0, 38, 43,  0,  0,  0,  0,  0,  0,  0,  0,  0,  0,  0,  0,  0,  0
6, 1257, 18,KB0G,    -0.03, 3,   boost,   99.66,  74064.00, 2566.14,  -12.45,    2.01, 27.0, 4.21, 4.16, 4.17,   6.29,   1.03,   0.67,  -0.08,  -0.18,  -0.79,  -0.08,  -0.22,  -0.21,   3.17, 4.36, 0.00, 0.00, 0.00, 0.00, 1, 1, 12,  39.0159236,-105.7107031,  2682.0, 2019,  5, 26, 16, 33, 11,        0,        0,   0,   0,   1.6,   0.8,   1.4, 38,  0,  0,  0,  0,  0, 44, 44, 40,  0, 42,  0, 35,  0,  0,  0, 38, 43,  0,  0,  0,  0,  0,  0,  0,  0,  0,  0,  0,  0,  0,  0
6, 1257, 18,KB0G,    -0.02, 3,   boost,  111.85,  73985.00, 2574.62,   -3.97,    3.01, 27.0, 4.21, 4.16, 4.17, 102.09,   5.87, -27.46, -17.84,   0.13,  10.75,  -0.09,  -0.23,  -0.21,   3.17, 4.36, 0.00, 0.00, 0.00, 0.00, 1, 1, 12,  39.0159236,-105.7107031,  2682.0, 2019,  5, 26, 16, 33, 11,        0,        0,   0,   0,   1.6,   0.8,   1.4, 38,  0,  0,  0,  0,  0, 44, 44, 40,  0, 42,  0, 35,  0,  0,  0, 38, 43,  0,  0,  0,  0,  0,  0,  0,  0,  0,  0,  0,  0,  0,  0
6, 1257, 18,KB0G,    -0.01, 3,   boost,  117.15,  73929.00, 2580.63,    2.04,    4.17, 27.0, 4.21, 4.16, 4.17, 123.26,  31.30,  -7.37, -68.32,   2.57,  -0.18,  -0.09,  -0.23,  -0.20,   3.17, 4.36, 0.00, 0.00, 0.00, 0.00, 1, 1, 12,  39.0159236,-105.7107031,  2682.0, 2019,  5, 26, 16, 33, 11,        0,        0,   0,   0,   1.6,   0.8,   1.4, 38,  0,  0,  0,  0,  0, 44, 44, 40,  0, 42,  0, 35,  0,  0,  0, 38, 43,  0,  0,  0,  0,  0,  0,  0,  0,  0,  0,  0,  0,  0,  0
6, 1257, 18,KB0G,     0.00, 3,   boost,  142.06,  73950.00, 2578.38,   -0.21,    5.42, 27.0, 4.21, 4.16, 4.17, 123.36, -16.39, -16.83, -52.45,   1.41, -14.09,  -0.09,  -0.23,  -0.19,   3.17, 4.36, 0.00, 0.00, 0.00, 0.00, 1, 1, 12,  39.0159236,-105.7107031,  2682.0, 2019,  5, 26, 16, 33, 11,        0,        0,   0,   0,   1.6,   0.8,   1.4, 38,  0,  0,  0,  0,  0, 44, 44, 40,  0, 42,  0, 35,  0,  0,  0, 38, 43,  0,  0,  0,  0,  0,  0,  0,  0,  0,  0,  0,  0,  0,  0
6, 1257, 18,KB0G,     0.00, 3,   boost,  142.06,  73950.00, 2578.38,   -0.21,    5.42, 27.0, 4.21, 4.16, 4.17, 123.36, -16.39, -16.83, -52.45,   1.41, -14.09,  -0.09,  -0.23,  -0.19,   3.17, 4.36, 0.00, 0.00, 0.00, 0.00, 1, 1, 12,  39.0159236,-105.7107031,  2682.0, 2019,  5, 26, 16, 33, 11,        0,        0,   0,   0,   1.6,   0.8,   1.4, 38,  0,  0,  0,  0,  0, 44, 44, 40,  0, 42,  0, 35,  0,  0,  0, 38, 43,  0,  0,  0,  0,  0,  0,  0,  0,  0,  0,  0,  0,  0,  0
6, 1257, 18,KB0G,     0.00, 3,   boost,  142.06,  73950.00, 2578.38,   -0.21,    5.42, 27.0, 4.21, 4.16, 4.17, 123.36, -16.39, -16.83, -52.45,   1.41, -14.09,  -0.09,  -0.23,  -0.19,   3.17, 4.36, 0.00, 0.00, 0.00, 0.00, 1, 1, 12,  39.0159236,-105.7107031,  2682.0, 2019,  5, 26, 16, 33, 11,        0,        0,   0,   0,   1.6,   0.8,   1.4, 38,  0,  0,  0,  0,  0, 44, 44, 40,  0, 42,  0, 35,  0,  0,  0, 38, 43,  0,  0,  0,  0,  0,  0,  0,  0,  0,  0,  0,  0,  0,  0
6, 1257, 18,KB0G,     0.00, 3,   boost,  142.06,  73950.00, 2578.38,   -0.21,    5.42, 27.0, 4.21, 4.16, 4.17, 123.36, -16.39, -16.83, -52.45,   1.41, -14.09,  -0.09,  -0.23,  -0.19,   3.17, 4.36, 0.00, 0.00, 0.00, 0.00, 1, 1, 12,  39.0159236,-105.7107031,  2682.0, 2019,  5, 26, 16, 33, 11,        0,        0,   0,   0,   1.6,   0.8,   1.4, 38,  0,  0,  0,  0,  0, 44, 44, 40,  0, 42,  0, 35,  0,  0,  0, 38, 43,  0,  0,  0,  0,  0,  0,  0,  0,  0,  0,  0,  0,  0,  0
6, 1257, 18,KB0G,     0.00, 3,   boost,  142.06,  73950.00, 2578.38,   -0.21,    5.42, 27.0, 4.21, 4.16, 4.17, 123.36, -16.39, -16.83, -52.45,   1.41, -14.09,  -0.09,  -0.23,  -0.19,   3.17, 4.36, 0.00, 0.00, 0.00, 0.00, 1, 1, 12,  39.0159236,-105.7107031,  2682.0, 2019,  5, 26, 16, 33, 11,        0,        0,   0,   0,   1.6,   0.8,   1.4, 38,  0,  0,  0,  0,  0, 44, 44, 40,  0, 42,  0, 35,  0,  0,  0, 38, 43,  0,  0,  0,  0,  0,  0,  0,  0,  0,  0,  0,  0,  0,  0
6, 1257, 18,KB0G,     0.00, 3,   boost,  142.06,  73950.00, 2578.38,   -0.21,    5.42, 27.0, 4.21, 4.16, 4.17, 123.36, -16.39, -16.83, -52.45,   1.41, -14.09,  -0.09,  -0.23,  -0.19,   3.17, 4.36, 0.00, 0.00, 0.00, 0.00, 1, 1, 12,  39.0159236,-105.7107031,  2682.0, 2019,  5, 26, 16, 33, 11,        0,        0,   0,   0,   1.6,   0.8,   1.4, 38,  0,  0,  0,  0,  0, 44, 44, 40,  0, 42,  0, 35,  0,  0,  0, 38, 43,  0,  0,  0,  0,  0,  0,  0,  0,  0,  0,  0,  0,  0,  0
6, 1257, 18,KB0G,     0.00, 3,   boost,  142.06,  73950.00, 2578.38,   -0.21,    5.42, 27.0, 4.21, 4.16, 4.17, 123.36, -16.39, -16.83, -52.45,   1.41, -14.09,  -0.09,  -0.23,  -0.19,   3.17, 4.36, 0.00, 0.00, 0.00, 0.00, 1, 1, 12,  39.0159236,-105.7107031,  2682.0, 2019,  5, 26, 16, 33, 11,        0,        0,   0,   0,   1.6,   0.8,   1.4, 38,  0,  0,  0,  0,  0, 44, 44, 40,  0, 42,  0, 35,  0,  0,  0, 38, 43,  0,  0,  0,  0,  0,  0,  0,  0,  0,  0,  0,  0,  0,  0
6, 1257, 18,KB0G,     0.00, 3,   boost,  142.06,  73950.00, 2578.38,   -0.21,    5.42, 27.0, 4.21, 4.16, 4.17, 123.36, -16.39, -16.83, -52.45,   1.41, -14.09,  -0.09,  -0.23,  -0.19,   3.18, 4.36, 0.00, 0.00, 0.00, 0.00, 1, 1, 12,  39.0159236,-105.7107031,  2682.0, 2019,  5, 26, 16, 33, 11,        0,        0,   0,   0,   1.6,   0.8,   1.4, 38,  0,  0,  0,  0,  0, 44, 44, 40,  0, 42,  0, 35,  0,  0,  0, 38, 43,  0,  0,  0,  0,  0,  0,  0,  0,  0,  0,  0,  0,  0,  0
6, 1257, 18,KB0G,     0.00, 3,   boost,  142.06,  73950.00, 2578.38,   -0.21,    5.42, 27.0, 4.21, 4.16, 4.17, 123.36, -16.39, -16.83, -52.45,   1.41, -14.09,  -0.09,  -0.23,  -0.19,   3.18, 4.36, 0.00, 0.00, 0.00, 0.00, 1, 1, 12,  39.0159236,-105.7107031,  2682.0, 2019,  5, 26, 16, 33, 11,        0,        0,   0,   0,   1.6,   0.8,   1.4, 38,  0,  0,  0,  0,  0, 44, 44, 40,  0, 42,  0, 35,  0,  0,  0, 38, 43,  0,  0,  0,  0,  0,  0,  0,  0,  0,  0,  0,  0,  0,  0
6, 1257, 18,KB0G,     0.00, 3,   boost,  142.06,  73950.00, 2578.38,   -0.21,    5.42, 27.0, 4.21, 4.16, 4.17, 123.36, -16.39, -16.83, -52.45,   1.41, -14.09,  -0.09,  -0.23,  -0.19,   3.18, 4.36, 0.00, 0.00, 0.00, 0.00, 1, 1, 12,  39.0159236,-105.7107031,  2682.0, 2019,  5, 26, 16, 33, 11,        0,        0,   0,   0,   1.6,   0.8,   1.4, 38,  0,  0,  0,  0,  0, 44, 44, 40,  0, 42,  0, 35,  0,  0,  0, 38, 43,  0,  0,  0,  0,  0,  0,  0,  0,  0,  0,  0,  0,  0,  0
6, 1257, 18,KB0G,     0.00, 3,   boost,  142.06,  73950.00, 2578.38,   -0.21,    5.42, 27.0, 4.21, 4.16, 4.17, 123.36, -16.39, -16.83, -52.45,   1.41, -14.09,  -0.09,  -0.23,  -0.19,   3.18, 4.36, 0.00, 0.00, 0.00, 0.00, 1, 1, 12,  39.0159236,-105.7107031,  2682.0, 2019,  5, 26, 16, 33, 11,        0,        0,   0,   0,   1.6,   0.8,   1.4, 38,  0,  0,  0,  0,  0, 44, 44, 40,  0, 42,  0, 35,  0,  0,  0, 38, 43,  0,  0,  0,  0,  0,  0,  0,  0,  0,  0,  0,  0,  0,  0
6, 1257, 18,KB0G,     0.00, 3,   boost,  142.06,  73950.00, 2578.38,   -0.21,    5.42, 27.0, 4.21, 4.16, 4.17, 123.36, -16.39, -16.83, -52.45,   1.41, -14.09,  -0.09,  -0.23,  -0.19,   3.19, 4.36, 0.00, 0.00, 0.00, 0.00, 1, 1, 12,  39.0159236,-105.7107031,  2682.0, 2019,  5, 26, 16, 33, 11,        0,        0,   0,   0,   1.6,   0.8,   1.4, 38,  0,  0,  0,  0,  0, 44, 44, 40,  0, 42,  0, 35,  0,  0,  0, 38, 43,  0,  0,  0,  0,  0,  0,  0,  0,  0,  0,  0,  0,  0,  0
6, 1257, 18,KB0G,     0.00, 3,   boost,  142.06,  73950.00, 2578.38,   -0.21,    5.42, 27.0, 4.21, 4.16, 4.17, 123.36, -16.39, -16.83, -52.45,   1.41, -14.09,  -0.09,  -0.23,  -0.19,   3.20, 4.36, 0.00, 0.00, 0.00, 0.00, 1, 1, 12,  39.0159236,-105.7107031,  2682.0, 2019,  5, 26, 16, 33, 11,        0,        0,   0,   0,   1.6,   0.8,   1.4, 38,  0,  0,  0,  0,  0, 44, 44, 40,  0, 42,  0, 35,  0,  0,  0, 38, 43,  0,  0,  0,  0,  0,  0,  0,  0,  0,  0,  0,  0,  0,  0
6, 1257, 18,KB0G,     0.00, 3,   boost,  142.06,  73950.00, 2578.38,   -0.21,    5.42, 27.0, 4.21, 4.16, 4.17, 123.36, -16.39, -16.83, -52.45,   1.41, -14.09,  -0.09,  -0.23,  -0.19,   3.21, 4.36, 0.00, 0.00, 0.00, 0.00, 1, 1, 12,  39.0159236,-105.7107031,  2682.0, 2019,  5, 26, 16, 33, 11,        0,        0,   0,   0,   1.6,   0.8,   1.4, 38,  0,  0,  0,  0,  0, 44, 44, 40,  0, 42,  0, 35,  0,  0,  0, 38, 43,  0,  0,  0,  0,  0,  0,  0,  0,  0,  0,  0,  0,  0,  0
6, 1257, 18,KB0G,     0.00, 3,   boost,  142.06,  73950.00, 2578.38,   -0.21,    5.42, 27.0, 4.21, 4.16, 4.17, 123.36, -16.39, -16.83, -52.45,   1.41, -14.09,  -0.09,  -0.23,  -0.19,   3.21, 4.36, 0.00, 0.00, 0.00, 0.00, 1, 1, 12,  39.0159236,-105.7107031,  2682.0, 2019,  5, 26, 16, 33, 11,        0,        0,   0,   0,   1.6,   0.8,   1.4, 38,  0,  0,  0,  0,  0, 44, 44, 40,  0, 42,  0, 35,  0,  0,  0, 38, 43,  0,  0,  0,  0,  0,  0,  0,  0,  0,  0,  0,  0,  0,  0
6, 1257, 18,KB0G,     0.00, 3,   boost,  142.06,  73950.00, 2578.38,   -0.21,    5.42, 27.0, 4.21, 4.16, 4.17, 123.36, -16.39, -16.83, -52.45,   1.41, -14.09,  -0.09,  -0.23,  -0.19,   3.22, 4.36, 0.00, 0.00, 0.00, 0.00, 1, 1, 12,  39.0159236,-105.7107031,  2682.0, 2019,  5, 26, 16, 33, 11,        0,        0,   0,   0,   1.6,   0.8,   1.4, 38,  0,  0,  0,  0,  0, 44, 44, 40,  0, 42,  0, 35,  0,  0,  0, 38, 43,  0,  0,  0,  0,  0,  0,  0,  0,  0,  0,  0,  0,  0,  0
6, 1257, 18,KB0G,     0.00, 3,   boost,  142.06,  73950.00, 2578.38,   -0.21,    5.42, 27.0, 4.21, 4.16, 4.17, 123.36, -16.39, -16.83, -52.45,   1.41, -14.09,  -0.09,  -0.23,  -0.19,   3.23, 4.36, 0.00, 0.00, 0.00, 0.00, 1, 1, 12,  39.0159236,-105.7107031,  2682.0, 2019,  5, 26, 16, 33, 11,        0,        0,   0,   0,   1.6,   0.8,   1.4, 38,  0,  0,  0,  0,  0, 44, 44, 40,  0, 42,  0, 35,  0,  0,  0, 38, 43,  0,  0,  0,  0,  0,  0,  0,  0,  0,  0,  0,  0,  0,  0
6, 1257, 18,KB0G,     0.00, 3,   boost,  142.06,  73950.00, 2578.38,   -0.21,    5.42, 27.0, 4.21, 4.16, 4.17, 123.36, -16.39, -16.83, -52.45,   1.41, -14.09,  -0.09,  -0.23,  -0.19,   3.23, 4.36, 0.00, 0.00, 0.00, 0.00, 1, 1, 12,  39.0159236,-105.7107031,  2682.0, 2019,  5, 26, 16, 33, 11,        0,        0,   0,   0,   1.6,   0.8,   1.4, 38,  0,  0,  0,  0,  0, 44, 44, 40,  0, 42,  0, 35,  0,  0,  0, 38, 43,  0,  0,  0,  0,  0,  0,  0,  0,  0,  0,  0,  0,  0,  0
6, 1257, 18,KB0G,     0.00, 3,   boost,  142.06,  73950.00, 2578.38,   -0.21,    5.42, 27.0, 4.21, 4.16, 4.17, 123.36, -16.39, -16.83, -52.45,   1.41, -14.09,  -0.09,  -0.23,  -0.19,   3.24, 4.36, 0.00, 0.00, 0.00, 0.00, 1, 1, 12,  39.0159236,-105.7107031,  2682.0, 2019,  5, 26, 16, 33, 11,        0,        0,   0,   0,   1.6,   0.8,   1.4, 38,  0,  0,  0,  0,  0, 44, 44, 40,  0, 42,  0, 35,  0,  0,  0, 38, 43,  0,  0,  0,  0,  0,  0,  0,  0,  0,  0,  0,  0,  0,  0
6, 1257, 18,KB0G,     0.00, 3,   boost,  142.06,  73950.00, 2578.38,   -0.21,    5.42, 27.0, 4.21, 4.16, 4.17, 123.36, -16.39, -16.83, -52.45,   1.41, -14.09,  -0.09,  -0.23,  -0.19,   3.24, 4.36, 0.00, 0.00, 0.00, 0.00, 1, 1, 12,  39.0159236,-105.7107031,  2682.0, 2019,  5, 26, 16, 33, 11,        0,        0,   0,   0,   1.6,   0.8,   1.4, 38,  0,  0,  0,  0,  0, 44, 44, 40,  0, 42,  0, 35,  0,  0,  0, 38, 43,  0,  0,  0,  0,  0,  0,  0,  0,  0,  0,  0,  0,  0,  0
6, 1257, 18,KB0G,     0.00, 3,   boost,  142.06,  73950.00, 2578.38,   -0.21,    5.42, 27.0, 4.21, 4.16, 4.17, 123.36, -16.39, -16.83, -52.45,   1.41, -14.09,  -0.09,  -0.23,  -0.19,   3.24, 4.36, 0.00, 0.00, 0.00, 0.00, 1, 1, 12,  39.0159236,-105.7107031,  2682.0, 2019,  5, 26, 16, 33, 11,        0,        0,   0,   0,   1.6,   0.8,   1.4, 38,  0,  0,  0,  0,  0, 44, 44, 40,  0, 42,  0, 35,  0,  0,  0, 38, 43,  0,  0,  0,  0,  0,  0,  0,  0,  0,  0,  0,  0,  0,  0
6, 1257, 18,KB0G,     0.00, 3,   boost,  142.06,  73950.00, 2578.38,   -0.21,    5.42, 27.0, 4.21, 4.16, 4.17, 123.36, -16.39, -16.83, -52.45,   1.41, -14.09,  -0.09,  -0.23,  -0.19,   3.24, 4.36, 0.00, 0.00, 0.00, 0.00, 1, 1, 12,  39.0159236,-105.7107031,  2682.0, 2019,  5, 26, 16, 33, 11,        0,        0,   0,   0,   1.6,   0.8,   1.4, 38,  0,  0,  0,  0,  0, 44, 44, 40,  0, 42,  0, 35,  0,  0,  0, 38, 43,  0,  0,  0,  0,  0,  0,  0,  0,  0,  0,  0,  0,  0,  0
6, 1257, 18,KB0G,     0.00, 3,   boost,  142.06,  73950.00, 2578.38,   -0.21,    5.42, 27.0, 4.21, 4.16, 4.17, 123.36, -16.39, -16.83, -52.45,   1.41, -14.09,  -0.09,  -0.23,  -0.19,   3.24, 4.36, 0.00, 0.00, 0.00, 0.00, 1, 1, 12,  39.0159236,-105.7107031,  2682.0, 2019,  5, 26, 16, 33, 11,        0,        0,   0,   0,   1.6,   0.8,   1.4, 38,  0,  0,  0,  0,  0, 44, 44, 40,  0, 42,  0, 35,  0,  0,  0, 38, 43,  0,  0,  0,  0,  0,  0,  0,  0,  0,  0,  0,  0,  0,  0
6, 1257, 18,KB0G,     0.00, 3,   boost,  142.06,  73950.00, 2578.38,   -0.21,    5.42, 27.0, 4.21, 4.16, 4.17, 123.36, -16.39, -16.83, -52.45,   1.41, -14.09,  -0.09,  -0.23,  -0.19,   3.24, 4.36, 0.00, 0.00, 0.00, 0.00, 1, 1, 12,  39.0159236,-105.7107031,  2682.0, 2019,  5, 26, 16, 33, 11,        0,        0,   0,   0,   1.6,   0.8,   1.4, 38,  0,  0,  0,  0,  0, 44, 44, 40,  0, 42,  0, 35,  0,  0,  0, 38, 43,  0,  0,  0,  0,  0,  0,  0,  0,  0,  0,  0,  0,  0,  0
6, 1257, 18,KB0G,     0.00, 3,   boost,  142.06,  73950.00, 2578.38,   -0.21,    5.42, 27.0, 4.21, 4.16, 4.17, 123.36, -16.39, -16.83, -52.45,   1.41, -14.09,  -0.09,  -0.23,  -0.19,   3.24, 4.36, 0.00, 0.00, 0.00, 0.00, 1, 1, 12,  39.0159236,-105.7107031,  2682.0, 2019,  5, 26, 16, 33, 11,        0,        0,   0,   0,   1.6,   0.8,   1.4, 38,  0,  0,  0,  0,  0, 44, 44, 40,  0, 42,  0, 35,  0,  0,  0, 38, 43,  0,  0,  0,  0,  0,  0,  0,  0,  0,  0,  0,  0,  0,  0
6, 1257, 18,KB0G,     0.00, 3,   boost,  142.06,  73950.00, 2578.38,   -0.21,    5.42, 27.0, 4.21, 4.16, 4.17, 123.36, -16.39, -16.83, -52.45,   1.41, -14.09,  -0.09,  -0.23,  -0.19,   3.24, 4.36, 0.00, 0.00, 0.00, 0.00, 1, 1, 12,  39.0159236,-105.7107031,  2682.0, 2019,  5, 26, 16, 33, 11,        0,        0,   0,   0,   1.6,   0.8,   1.4, 38,  0,  0,  0,  0,  0, 44, 44, 40,  0, 42,  0, 35,  0,  0,  0, 38, 43,  0,  0,  0,  0,  0,  0,  0,  0,  0,  0,  0,  0,  0,  0
6, 1257, 18,KB0G,     0.00, 3,   boost,  142.06,  73950.00, 2578.38,   -0.21,    5.42, 27.0, 4.21, 4.16, 4.17, 123.36, -16.39, -16.83, -52.45,   1.41, -14.09,  -0.09,  -0.23,  -0.19,   3.23, 4.36, 0.00, 0.00, 0.00, 0.00, 1, 1, 12,  39.0159236,-105.7107031,  2682.0, 2019,  5, 26, 16, 33, 11,        0,        0,   0,   0,   1.6,   0.8,   1.4, 38,  0,  0,  0,  0,  0, 44, 44, 40,  0, 42,  0, 35,  0,  0,  0, 38, 43,  0,  0,  0,  0,  0,  0,  0,  0,  0,  0,  0,  0,  0,  0
6, 1257, 18,KB0G,     0.00, 3,   boost,  142.06,  73950.00, 2578.38,   -0.21,    5.42, 27.0, 4.21, 4.16, 4.17, 123.36, -16.39, -16.83, -52.45,   1.41, -14.09,  -0.09,  -0.23,  -0.19,   3.23, 4.36, 0.00, 0.00, 0.00, 0.00, 1, 1, 12,  39.0159236,-105.7107031,  2682.0, 2019,  5, 26, 16, 33, 11,        0,        0,   0,   0,   1.6,   0.8,   1.4, 38,  0,  0,  0,  0,  0, 44, 44, 40,  0, 42,  0, 35,  0,  0,  0, 38, 43,  0,  0,  0,  0,  0,  0,  0,  0,  0,  0,  0,  0,  0,  0
6, 1257, 18,KB0G,     0.00, 3,   boost,  142.06,  73950.00, 2578.38,   -0.21,    5.42, 27.0, 4.21, 4.16, 4.17, 123.36, -16.39, -16.83, -52.45,   1.41, -14.09,  -0.09,  -0.23,  -0.19,   3.23, 4.36, 0.00, 0.00, 0.00, 0.00, 1, 1, 12,  39.0159236,-105.7107031,  2682.0, 2019,  5, 26, 16, 33, 11,        0,        0,   0,   0,   1.6,   0.8,   1.4, 38,  0,  0,  0,  0,  0, 44, 44, 40,  0, 42,  0, 35,  0,  0,  0, 38, 43,  0,  0,  0,  0,  0,  0,  0,  0,  0,  0,  0,  0,  0,  0
6, 1257, 18,KB0G,     0.00, 3,   boost,  142.06,  73950.00, 2578.38,   -0.21,    5.42, 27.0, 4.21, 4.16, 4.17, 123.36, -16.39, -16.83, -52.45,   1.41, -14.09,  -0.09,  -0.23,  -0.19,   3.22, 4.36, 0.00, 0.00, 0.00, 0.00, 1, 1, 12,  39.0159236,-105.7107031,  2682.0, 2019,  5, 26, 16, 33, 11,        0,        0,   0,   0,   1.6,   0.8,   1.4, 38,  0,  0,  0,  0,  0, 44, 44, 40,  0, 42,  0, 35,  0,  0,  0, 38, 43,  0,  0,  0,  0,  0,  0,  0,  0,  0,  0,  0,  0,  0,  0
6, 1257, 18,KB0G,     0.00, 3,   boost,  142.06,  73950.00, 2578.38,   -0.21,    5.42, 27.0, 4.21, 4.16, 4.17, 123.36, -16.39, -16.83, -52.45,   1.41, -14.09,  -0.09,  -0.23,  -0.19,   3.22, 4.36, 0.00, 0.00, 0.00, 0.00, 1, 1, 12,  39.0159236,-105.7107031,  2682.0, 2019,  5, 26, 16, 33, 11,        0,        0,   0,   0,   1.6,   0.8,   1.4, 38,  0,  0,  0,  0,  0, 44, 44, 40,  0, 42,  0, 35,  0,  0,  0, 38, 43,  0,  0,  0,  0,  0,  0,  0,  0,  0,  0,  0,  0,  0,  0
6, 1257, 18,KB0G,     0.00, 3,   boost,  142.06,  73950.00, 2578.38,   -0.21,    5.42, 27.0, 4.21, 4.16, 4.17, 123.36, -16.39, -16.83, -52.45,   1.41, -14.09,  -0.09,  -0.23,  -0.19,   3.21, 4.36, 0.00, 0.00, 0.00, 0.00, 1, 1, 12,  39.0159236,-105.7107031,  2682.0, 2019,  5, 26, 16, 33, 11,        0,        0,   0,   0,   1.6,   0.8,   1.4, 38,  0,  0,  0,  0,  0, 44, 44, 40,  0, 42,  0, 35,  0,  0,  0, 38, 43,  0,  0,  0,  0,  0,  0,  0,  0,  0,  0,  0,  0,  0,  0
6, 1257, 18,KB0G,     0.00, 3,   boost,  142.06,  73950.00, 2578.38,   -0.21,    5.42, 27.0, 4.21, 4.16, 4.17, 123.36, -16.39, -16.83, -52.45,   1.41, -14.09,  -0.09,  -0.23,  -0.19,   3.32, 4.36, 0.00, 0.00, 0.00, 0.00, 1, 1, 12,  39.0159236,-105.7107031,  2682.0, 2019,  5, 26, 16, 33, 11,        0,        0,   0,   0,   1.6,   0.8,   1.4, 38,  0,  0,  0,  0,  0, 44, 44, 40,  0, 42,  0, 35,  0,  0,  0, 38, 43,  0,  0,  0,  0,  0,  0,  0,  0,  0,  0,  0,  0,  0,  0
6, 1257, 18,KB0G,     0.00, 3,   boost,  142.06,  73950.00, 2578.38,   -0.21,    5.42, 27.0, 4.21, 4.16, 4.17, 123.36, -16.39, -16.83, -52.45,   1.41, -14.09,  -0.09,  -0.23,  -0.19,   3.31, 4.36, 0.00, 0.00, 0.00, 0.00, 1, 1, 12,  39.0159236,-105.7107031,  2682.0, 2019,  5, 26, 16, 33, 11,        0,        0,   0,   0,   1.6,   0.8,   1.4, 38,  0,  0,  0,  0,  0, 44, 44, 40,  0, 42,  0, 35,  0,  0,  0, 38, 43,  0,  0,  0,  0,  0,  0,  0,  0,  0,  0,  0,  0,  0,  0
6, 1257, 18,KB0G,     0.00, 3,   boost,  142.06,  73950.00, 2578.38,   -0.21,    5.42, 27.0, 4.21, 4.16, 4.17, 123.36, -16.39, -16.83, -52.45,   1.41, -14.09,  -0.09,  -0.23,  -0.19,   3.17, 4.36, 0.00, 0.00, 0.00, 0.00, 1, 1, 12,  39.0159236,-105.7107031,  2682.0, 2019,  5, 26, 16, 33, 11,        0,        0,   0,   0,   1.6,   0.8,   1.4, 38,  0,  0,  0,  0,  0, 44, 44, 40,  0, 42,  0, 35,  0,  0,  0, 38, 43,  0,  0,  0,  0,  0,  0,  0,  0,  0,  0,  0,  0,  0,  0
6, 1257, 18,KB0G,     0.01, 3,   boost,  142.06,  73950.00, 2578.38,   -0.21,    6.72, 27.0, 4.21, 4.16, 4.17, 155.65, -22.53,   5.69, -39.32,  -4.27, -25.51,  -0.09,  -0.23,  -0.20,   2.92, 4.36, 0.00, 0.00, 0.00, 0.00, 1, 1, 12,  39.0159236,-105.7107031,  2682.0, 2019,  5, 26, 16, 33, 11,        0,        0,   0,   0,   1.6,   0.8,   1.4, 38,  0,  0,  0,  0,  0, 44, 44, 40,  0, 42,  0, 35,  0,  0,  0, 38, 43,  0,  0,  0,  0,  0,  0,  0,  0,  0,  0,  0,  0,  0,  0
6, 1257, 18,KB0G,     0.01, 3,   boost,  142.06,  73950.00, 2578.38,   -0.21,    6.72, 27.0, 4.21, 4.16, 4.17, 155.65, -22.53,   5.69, -39.32,  -4.27, -25.51,  -0.09,  -0.23,  -0.20,   2.92, 4.36, 0.00, 0.00, 0.00, 0.00, 1, 1, 12,  39.0159236,-105.7107031,  2682.0, 2019,  5, 26, 16, 33, 11,        0,        0,   0,   0,   1.6,   0.8,   1.4, 38,  0,  0,  0,  0,  0, 44, 44, 40,  0, 42,  0, 35,  0,  0,  0, 38, 43,  0,  0,  0,  0,  0,  0,  0,  0,  0,  0,  0,  0,  0,  0
6, 1257, 18,KB0G,     0.02, 3,   boost,  133.58,  73950.00, 2578.38,   -0.21,    8.04, 27.0, 4.18, 4.15, 4.16, 155.82,   6.99, -15.85,  -9.48,  -6.83, -21.90,  -0.09,  -0.23,  -0.20,   2.70, 4.17, 0.00, 0.00, 0.00, 0.05, 1, 1, 12,  39.0159236,-105.7107031,  2682.0, 2019,  5, 26, 16, 33, 11,        0,        0,   0,   0,   1.6,   0.8,   1.4, 38,  0,  0,  0,  0,  0, 44, 44, 40,  0, 42,  0, 35,  0,  0,  0, 38, 43,  0,  0,  0,  0,  0,  0,  0,  0,  0,  0,  0,  0,  0,  0
6, 1257, 18,KB0G,     0.02, 3,   boost,  133.58,  73950.00, 2578.38,   -0.21,    8.04, 27.0, 4.18, 4.15, 4.16, 155.82,   6.99, -15.85,  -9.48,  -6.83, -21.90,  -0.09,  -0.23,  -0.20,   2.70, 4.17, 0.00, 0.00, 0.00, 0.05, 1, 1, 12,  39.0159236,-105.7107031,  2682.0, 2019,  5, 26, 16, 33, 11,        0,        0,   0,   0,   1.6,   0.8,   1.4, 38,  0,  0,  0,  0,  0, 44, 44, 40,  0, 42,  0, 35,  0,  0,  0, 38, 43,  0,  0,  0,  0,  0,  0,  0,  0,  0,  0,  0,  0,  0,  0
6, 1257, 18,KB0G,     0.03, 3,   boost,  129.87,  73917.00, 2581.92,    3.33,    9.37, 27.0, 4.18, 4.15, 4.16, 148.64,  13.76,  -1.91,  10.30,  -4.15,  -0.36,  -0.09,  -0.24,  -0.21,   2.70, 4.17, 0.00, 0.00, 0.00, 0.05, 1, 1, 12,  39.0159236,-105.7107031,  2682.0, 2019,  5, 26, 16, 33, 11,        0,        0,   0,   0,   1.6,   0.8,   1.4, 38,  0,  0,  0,  0,  0, 44, 44, 40,  0, 42,  0, 35,  0,  0,  0, 38, 43,  0,  0,  0,  0,  0,  0,  0,  0,  0,  0,  0,  0,  0,  0
6, 1257, 18,KB0G,     0.04, 3,   boost,  129.87,  73916.00, 2582.03,    3.44,   10.68, 27.0, 4.18, 4.15, 4.16, 144.35,   2.22,  -5.25,   7.49,  -3.78,  11.18,  -0.09,  -0.24,  -0.23,   2.81, 4.17, 0.00, 0.00, 0.00, 0.05, 1, 1, 12,  39.0159236,-105.7107031,  2682.0, 2019,  5, 26, 16, 33, 11,        0,        0,   0,   0,   1.6,   0.8,   1.4, 38,  0,  0,  0,  0,  0, 44, 44, 40,  0, 42,  0, 35,  0,  0,  0, 38, 43,  0,  0,  0,  0,  0,  0,  0,  0,  0,  0,  0,  0,  0,  0
6, 1257, 18,KB0G,     0.05, 3,   boost,  129.87,  73904.00, 2583.32,    4.73,   11.98, 27.0, 4.18, 4.15, 4.16, 142.54,  -5.25,   2.32, -59.22,  -3.29,   8.31,  -0.09,  -0.23,  -0.22,   2.90, 4.17, 0.00, 0.00, 0.00, 0.05, 1, 1, 12,  39.0159236,-105.7107031,  2682.0, 2019,  5, 26, 16, 33, 11,        0,        0,   0,   0,   1.6,   0.8,   1.4, 38,  0,  0,  0,  0,  0, 44, 44, 40,  0, 42,  0, 35,  0,  0,  0, 38, 43,  0,  0,  0,  0,  0,  0,  0,  0,  0,  0,  0,  0,  0,  0
6, 1257, 18,KB0G,     0.06, 3,   boost,  127.75,  73904.00, 2583.32,    4.73,   13.27, 27.0, 4.18, 4.15, 4.16, 142.12,   3.40,   2.77, -58.67,  -3.66,   7.64,  -0.09,  -0.23,  -0.21,   2.97, 4.17, 0.00, 0.00, 0.00, 0.05, 1, 1, 12,  39.0159236,-105.7107031,  2682.0, 2019,  5, 26, 16, 33, 11,        0,        0,   0,   0,   1.6,   0.8,   1.4, 38,  0,  0,  0,  0,  0, 44, 44, 40,  0, 42,  0, 35,  0,  0,  0, 38, 43,  0,  0,  0,  0,  0,  0,  0,  0,  0,  0,  0,  0,  0,  0
6, 1257, 18,KB0G,     0.07, 3,   boost,  126.16,  73901.00, 2583.64,    5.05,   14.55, 27.0, 4.18, 4.15, 4.16, 139.79,   3.00,  -9.61,-105.36,  -1.83,   6.72,  -0.09,  -0.24,  -0.22,   3.04, 4.17, 0.00, 0.00, 0.00, 0.05, 1, 1, 12,  39.0159236,-105.7107031,  2682.0, 2019,  5, 26, 16, 33, 11,        0,        0,   0,   0,   1.6,   0.8,   1.4, 38,  0,  0,  0,  0,  0, 44, 44, 40,  0, 42,  0, 35,  0,  0,  0, 38, 43,  0,  0,  0,  0,  0,  0,  0,  0,  0,  0,  0,  0,  0,  0
6, 1257, 18,KB0G,     0.08, 3,   boost,  127.22,  73905.00, 2583.21,    4.62,   15.82, 26.9, 4.18, 4.15, 4.16, 140.79, -12.97,   0.01, -69.47,  -2.19,   3.18,  -0.09,  -0.24,  -0.22,   3.08, 4.17, 0.00, 0.00, 0.00, 0.05, 1, 1, 12,  39.0159236,-105.7107031,  2682.0, 2019,  5, 26, 16, 33, 11,        0,        0,   0,   0,   1.6,   0.8,   1.4, 38,  0,  0,  0,  0,  0, 44, 44, 40,  0, 42,  0, 35,  0,  0,  0, 38, 43,  0,  0,  0,  0,  0,  0,  0,  0,  0,  0,  0,  0,  0,  0
6, 1257, 18,KB0G,     0.09, 3,   boost,  127.75,  73894.00, 2584.39,    5.80,   17.09, 27.0, 4.18, 4.15, 4.16, 139.33,   4.72,  -3.55, -72.71,  -2.25,   5.07,  -0.09,  -0.23,  -0.20,   3.13, 4.17, 0.00, 0.00, 0.00, 0.05, 1, 1, 12,  39.0159236,-105.7107031,  2682.0, 2019,  5, 26, 16, 33, 11,        0,        0,   0,   0,   1.6,   0.8,   1.4, 38,  0,  0,  0,  0,  0, 44, 44, 40,  0, 42,  0, 35,  0,  0,  0, 38, 43,  0,  0,  0,  0,  0,  0,  0,  0,  0,  0,  0,  0,  0,  0
6, 1257, 18,KB0G,     0.10, 3,   boost,  127.75,  73867.00, 2587.30,    8.71,   18.37, 27.0, 4.18, 4.15, 4.16, 139.92,   3.97,   0.05, -58.79,  -0.24,   5.68,  -0.09,  -0.23,  -0.21,   3.18, 4.17, 0.00, 0.00, 0.00, 0.05, 1, 1, 12,  39.0159236,-105.7107031,  2682.0, 2019,  5, 26, 16, 33, 11,        0,        0,   0,   0,   1.6,   0.8,   1.4, 38,  0,  0,  0,  0,  0, 44, 44, 40,  0, 42,  0, 35,  0,  0,  0, 38, 43,  0,  0,  0,  0,  0,  0,  0,  0,  0,  0,  0,  0,  0,  0
6, 1257, 18,KB0G,     0.11, 3,   boost,  127.75,  73869.00, 2587.08,    8.49,   19.64, 27.0, 4.18, 4.15, 4.16, 140.38,  -5.41,   2.33, -56.23,   0.68,   5.93,  -0.09,  -0.23,  -0.19,   3.24, 4.17, 0.00, 0.00, 0.00, 0.05, 1, 1, 12,  39.0159236,-105.7107031,  2682.0, 2019,  5, 26, 16, 33, 11,        0,        0,   0,   0,   1.6,   0.8,   1.4, 38,  0,  0,  0,  0,  0, 44, 44, 40,  0, 42,  0, 35,  0,  0,  0, 38, 43,  0,  0,  0,  0,  0,  0,  0,  0,  0,  0,  0,  0,  0,  0
6, 1257, 18,KB0G,     0.12, 3,   boost,  127.75,  73869.00, 2587.08,    8.49,   20.92, 27.0, 4.18, 4.15, 4.16, 141.41,   0.20,   1.19, -79.12,   0.86,   4.77,  -0.09,  -0.23,  -0.20,   3.29, 4.17, 0.00, 0.00, 0.00, 0.05, 1, 1, 12,  39.0159236,-105.7107031,  2682.0, 2019,  5, 26, 16, 33, 11,        0,        0,   0,   0,   1.6,   0.8,   1.4, 38,  0,  0,  0,  0,  0, 44, 44, 40,  0, 42,  0, 35,  0,  0,  0, 38, 43,  0,  0,  0,  0,  0,  0,  0,  0,  0,  0,  0,  0,  0,  0
6, 1257, 18,KB0G,     0.13, 3,   boost,  129.34,  73894.00, 2584.39,    5.80,   22.21, 26.9, 4.18, 4.15, 4.16, 140.40,   9.59,  -1.70, -78.20,   1.84,   6.42,  -0.10,  -0.24,  -0.20,   3.35, 4.17, 0.00, 0.00, 0.00, 0.05, 1, 1, 12,  39.0159236,-105.7107031,  2682.0, 2019,  5, 26, 16, 33, 11,        0,        0,   0,   0,   1.6,   0.8,   1.4, 38,  0,  0,  0,  0,  0, 44, 44, 40,  0, 42,  0, 35,  0,  0,  0, 38, 43,  0,  0,  0,  0,  0,  0,  0,  0,  0,  0,  0,  0,  0,  0
6, 1257, 18,KB0G,     0.14, 3,   boost,  129.34,  73872.00, 2586.76,    8.17,   23.50, 26.9, 4.18, 4.15, 4.16, 142.24,   2.83,   4.31, -76.37,   1.71,   4.89,  -0.09,  -0.24,  -0.20,   3.40, 4.17, 0.00, 0.00, 0.00, 0.05, 1, 1, 12,  39.0159236,-105.7107031,  2682.0, 2019,  5, 26, 16, 33, 11,        0,        0,   0,   0,   1.6,   0.8,   1.4, 38,  0,  0,  0,  0,  0, 44, 44, 40,  0, 42,  0, 35,  0,  0,  0, 38, 43,  0,  0,  0,  0,  0,  0,  0,  0,  0,  0,  0,  0,  0,  0
6, 1257, 18,KB0G,     0.15, 3,   boost,  129.34,  73872.00, 2586.76,    8.17,   24.79, 26.9, 4.18, 4.15, 4.16, 142.43,  -0.53,   4.94, -72.34,   1.53,   5.62,  -0.10,  -0.23,  -0.19,   3.46, 4.17, 0.00, 0.00, 0.00, 0.05, 1, 1, 12,  39.0159236,-105.7107031,  2682.0, 2019,  5, 26, 16, 33, 11,        0,        0,   0,   0,   1.6,   0.8,   1.4, 38,  0,  0,  0,  0,  0, 44, 44, 40,  0, 42,  0, 35,  0,  0,  0, 38, 43,  0,  0,  0,  0,  0,  0,  0,  0,  0,  0,  0,  0,  0,  0
6, 1257, 18,KB0G,     0.16, 3,   boost,  130.93,  73850.00, 2589.12,   10.53,   26.09, 26.9, 4.18, 4.15, 4.16, 142.30,   0.65,  -2.35, -61.11,   1.41,   4.77,  -0.09,  -0.24,  -0.20,   3.51, 4.17, 0.00, 0.00, 0.00, 0.05, 1, 1, 12,  39.0159236,-105.7107031,  2682.0, 2019,  5, 26, 16, 33, 11,        0,        0,   0,   0,   1.6,   0.8,   1.4, 38,  0,  0,  0,  0,  0, 44, 44, 40,  0, 42,  0, 35,  0,  0,  0, 38, 43,  0,  0,  0,  0,  0,  0,  0,  0,  0,  0,  0,  0,  0,  0
6, 1257, 18,KB0G,     0.17, 3,   boost,  130.93,  73867.00, 2587.30,    8.71,   27.40, 26.9, 4.18, 4.15, 4.16, 143.03,   4.59,   3.26, -56.72,   1.16,   4.83,  -0.10,  -0.24,  -0.19,   3.56, 4.17, 0.00, 0.00, 0.00, 0.05, 1, 1, 12,  39.0159236,-105.7107031,  2682.0, 2019,  5, 26, 16, 33, 11,        0,        0,   0,   0,   1.6,   0.8,   1.4, 38,  0,  0,  0,  0,  0, 44, 44, 40,  0, 42,  0, 35,  0,  0,  0, 38, 43,  0,  0,  0,  0,  0,  0,  0,  0,  0,  0,  0,  0,  0,  0
6, 1257, 18,KB0G,     0.18, 3,   boost,  132.52,  73870.00, 2586.97,    8.38,   28.72, 26.9, 4.18, 4.15, 4.16, 144.90,   3.12,  -0.42, -56.23,   1.47,   4.65,  -0.10,  -0.24,  -0.18,   3.61, 4.17, 0.00, 0.00, 0.00, 0.05, 1, 1, 12,  39.0159236,-105.7107031,  2682.0, 2019,  5, 26, 16, 33, 11,        0,        0,   0,   0,   1.6,   0.8,   1.4, 38,  0,  0,  0,  0,  0, 44, 44, 40,  0, 42,  0, 35,  0,  0,  0, 38, 43,  0,  0,  0,  0,  0,  0,  0,  0,  0,  0,  0,  0,  0,  0
6, 1257, 18,KB0G,     0.19, 3,   boost,  134.64,  73857.00, 2588.37,    9.78,   30.04, 26.9, 4.18, 4.15, 4.16, 144.60,  -0.24,   0.79, -56.35,   1.10,   5.38,  -0.10,  -0.24,  -0.18,   3.66, 4.17, 0.00, 0.00, 0.00, 0.05, 1, 1, 12,  39.0159236,-105.7107031,  2682.0, 2019,  5, 26, 16, 33, 11,        0,        0,   0,   0,   1.6,   0.8,   1.4, 38,  0,  0,  0,  0,  0, 44, 44, 40,  0, 42,  0, 35,  0,  0,  0, 38, 43,  0,  0,  0,  0,  0,  0,  0,  0,  0,  0,  0,  0,  0,  0
6, 1257, 18,KB0G,     0.20, 3,   boost,  134.11,  73855.00, 2588.59,   10.00,   31.37, 26.9, 4.18, 4.15, 4.16, 146.88,   0.68,   7.22, -58.06,   0.98,   5.62,  -0.10,  -0.24,  -0.18,   3.72, 4.17, 0.00, 0.00, 0.00, 0.05, 1, 1, 12,  39.0159236,-105.7107031,  2682.0, 2019,  5, 26, 16, 33, 11,        0,        0,   0,   0,   1.6,   0.8,   1.4, 38,  0,  0,  0,  0,  0, 44, 44, 40,  0, 42,  0, 35,  0,  0,  0, 38, 43,  0,  0,  0,  0,  0,  0,  0,  0,  0,  0,  0,  0,  0,  0
6, 1257, 18,KB0G,     0.21, 3,   boost,  133.05,  73839.00, 2590.31,   11.72,   32.70, 26.9, 4.18, 4.15, 4.16, 148.55,   2.42,   0.27, -58.24,   1.35,   6.60,  -0.10,  -0.24,  -0.18,   3.79, 4.17, 0.00, 0.00, 0.00, 0.05, 1, 1, 12,  39.0159236,-105.7107031,  2682.0, 2019,  5, 26, 16, 33, 11,        0,        0,   0,   0,   1.6,   0.8,   1.4, 38,  0,  0,  0,  0,  0, 44, 44, 40,  0, 42,  0, 35,  0,  0,  0, 38, 43,  0,  0,  0,  0,  0,  0,  0,  0,  0,  0,  0,  0,  0,  0
6, 1257, 18,KB0G,     0.22, 3,   boost,  133.05,  73840.00, 2590.20,   11.61,   34.03, 26.9, 4.18, 4.15, 4.16, 146.19,   1.48,   0.40, -54.89,   1.35,   6.84,  -0.10,  -0.24,  -0.18,   3.85, 4.17, 0.00, 0.00, 0.00, 0.05, 1, 1, 12,  39.0159236,-105.7107031,  2682.0, 2019,  5, 26, 16, 33, 11,        0,        0,   0,   0,   1.6,   0.8,   1.4, 38,  0,  0,  0,  0,  0, 44, 44, 40,  0, 42,  0, 35,  0,  0,  0, 38, 43,  0,  0,  0,  0,  0,  0,  0,  0,  0,  0,  0,  0,  0,  0
6, 1257, 18,KB0G,     0.23, 3,   boost,  133.05,  73840.00, 2590.20,   11.61,   35.37, 26.9, 4.18, 4.15, 4.16, 146.81,   0.98,   2.79, -52.14,   1.41,   7.03,  -0.10,  -0.24,  -0.17,   3.93, 4.17, 0.00, 0.00, 0.00, 0.05, 1, 1, 12,  39.0159236,-105.7107031,  2682.0, 2019,  5, 26, 16, 33, 11,        0,        0,   0,   0,   1.6,   0.8,   1.4, 38,  0,  0,  0,  0,  0, 44, 44, 40,  0, 42,  0, 35,  0,  0,  0, 38, 43,  0,  0,  0,  0,  0,  0,  0,  0,  0,  0,  0,  0,  0,  0
6, 1257, 18,KB0G,     0.24, 3,   boost,  134.11,  73817.00, 2592.67,   14.08,   36.70, 26.9, 4.18, 4.15, 4.16, 146.42,   1.58,  -0.42, -49.33,   1.84,   6.66,  -0.10,  -0.24,  -0.18,   4.00, 4.17, 0.00, 0.00, 0.00, 0.05, 1, 1, 12,  39.0159236,-105.7107031,  2682.0, 2019,  5, 26, 16, 33, 11,        0,        0,   0,   0,   1.6,   0.8,   1.4, 38,  0,  0,  0,  0,  0, 44, 44, 40,  0, 42,  0, 35,  0,  0,  0, 38, 43,  0,  0,  0,  0,  0,  0,  0,  0,  0,  0,  0,  0,  0,  0
6, 1257, 18,KB0G,     0.25, 3,   boost,  134.11,  73845.00, 2589.66,   11.07,   38.04, 26.9, 4.18, 4.15, 4.16, 147.01,   1.68,   0.61, -45.06,   1.84,   7.21,  -0.10,  -0.24,  -0.18,   4.07, 4.17, 0.00, 0.00, 0.00, 0.05, 1, 1, 12,  39.0159236,-105.7107031,  2682.0, 2019,  5, 26, 16, 33, 11,        0,        0,   0,   0,   1.6,   0.8,   1.4, 38,  0,  0,  0,  0,  0, 44, 44, 40,  0, 42,  0, 35,  0,  0,  0, 38, 43,  0,  0,  0,  0,  0,  0,  0,  0,  0,  0,  0,  0,  0,  0
6, 1257, 18,KB0G,     0.26, 3,   boost,  135.17,  73845.00, 2589.66,   11.07,   39.38, 26.9, 4.18, 4.15, 4.16, 147.80,   1.36,   1.84, -42.50,   1.78,   7.27,  -0.10,  -0.24,  -0.17,   4.14, 4.17, 0.00, 0.00, 0.00, 0.05, 1, 1, 12,  39.0159236,-105.7107031,  2682.0, 2019,  5, 26, 16, 33, 11,        0,        0,   0,   0,   1.6,   0.8,   1.4, 38,  0,  0,  0,  0,  0, 44, 44, 40,  0, 42,  0, 35,  0,  0,  0, 38, 43,  0,  0,  0,  0,  0,  0,  0,  0,  0,  0,  0,  0,  0,  0
6, 1257, 18,KB0G,     0.27, 3,   boost,  135.70,  73799.00, 2594.61,   16.02,   40.73, 26.9, 4.18, 4.15, 4.16, 148.34,   0.82,  -0.82, -40.67,   1.90,   6.84,  -0.10,  -0.25,  -0.18,   4.21, 4.17, 0.00, 0.00, 0.00, 0.05, 1, 1, 12,  39.0159236,-105.7107031,  2682.0, 2019,  5, 26, 16, 33, 11,        0,        0,   0,   0,   1.6,   0.8,   1.4, 38,  0,  0,  0,  0,  0, 44, 44, 40,  0, 42,  0, 35,  0,  0,  0, 38, 43,  0,  0,  0,  0,  0,  0,  0,  0,  0,  0,  0,  0,  0,  0
6, 1257, 18,KB0G,     0.28, 3,   boost,  135.70,  73810.00, 2593.43,   14.84,   42.09, 26.9, 4.18, 4.15, 4.16, 148.72,   1.31,   1.13, -36.76,   1.90,   6.66,  -0.10,  -0.24,  -0.17,   4.28, 4.17, 0.00, 0.00, 0.00, 0.05, 1, 1, 12,  39.0159236,-105.7107031,  2682.0, 2019,  5, 26, 16, 33, 11,        0,        0,   0,   0,   1.6,   0.8,   1.4, 38,  0,  0,  0,  0,  0, 44, 44, 40,  0, 42,  0, 35,  0,  0,  0, 38, 43,  0,  0,  0,  0,  0,  0,  0,  0,  0,  0,  0,  0,  0,  0
6, 1257, 18,KB0G,     0.29, 3,   boost,  136.76,  73810.00, 2593.43,   14.84,   43.45, 26.9, 4.18, 4.15, 4.16, 149.57,   1.19,   0.75, -34.13,   2.08,   6.91,  -0.10,  -0.24,  -0.17,   4.36, 4.17, 0.00, 0.00, 0.00, 0.05, 1, 1, 12,  39.0159236,-105.7107031,  2682.0, 2019,  5, 26, 16, 33, 11,        0,        0,   0,   0,   1.6,   0.8,   1.4, 38,  0,  0,  0,  0,  0, 44, 44, 40,  0, 42,  0, 35,  0,  0,  0, 38, 43,  0,  0,  0,  0,  0,  0,  0,  0,  0,  0,  0,  0,  0,  0
6, 1257, 18,KB0G,     0.30, 3,   boost,  136.76,  73818.00, 2592.57,   13.98,   44.81, 26.9, 4.18, 4.15, 4.16, 149.55,   1.04,  -0.48, -30.72,   2.08,   7.45,  -0.10,  -0.24,  -0.17,   4.43, 4.17, 0.00, 0.00, 0.00, 0.05, 1, 1, 12,  39.0159236,-105.7107031,  2682.0, 2019,  5, 26, 16, 33, 11,        0,        0,   0,   0,   1.6,   0.8,   1.4, 38,  0,  0,  0,  0,  0, 44, 44, 40,  0, 42,  0, 35,  0,  0,  0, 38, 43,  0,  0,  0,  0,  0,  0,  0,  0,  0,  0,  0,  0,  0,  0
6, 1257, 18,KB0G,     0.31, 3,   boost,  138.35,  73783.00, 2596.33,   17.74,   46.18, 26.8, 4.18, 4.15, 4.16, 154.05,   1.11,   1.20, -29.56,   2.51,   7.33,  -0.10,  -0.25,  -0.18,   4.51, 4.17, 0.00, 0.00, 0.00, 0.05, 1, 1, 12,  39.0159236,-105.7107031,  2682.0, 2019,  5, 26, 16, 33, 11,        0,        0,   0,   0,   1.6,   0.8,   1.4, 38,  0,  0,  0,  0,  0, 44, 44, 40,  0, 42,  0, 35,  0,  0,  0, 38, 43,  0,  0,  0,  0,  0,  0,  0,  0,  0,  0,  0,  0,  0,  0
6, 1257, 18,KB0G,     0.32, 3,   boost,  138.88,  73775.00, 2597.19,   18.60,   47.56, 26.9, 4.18, 4.15, 4.16, 151.64,   0.87,   0.22, -27.79,   2.32,   6.91,  -0.10,  -0.24,  -0.15,   4.58, 4.17, 0.00, 0.00, 0.00, 0.05, 1, 1, 12,  39.0159236,-105.7107031,  2682.0, 2019,  5, 26, 16, 33, 11,        0,        0,   0,   0,   1.6,   0.8,   1.4, 38,  0,  0,  0,  0,  0, 44, 44, 40,  0, 42,  0, 35,  0,  0,  0, 38, 43,  0,  0,  0,  0,  0,  0,  0,  0,  0,  0,  0,  0,  0,  0
6, 1257, 18,KB0G,     0.33, 3,   boost,  138.88,  73767.00, 2598.05,   19.46,   48.94, 26.9, 4.18, 4.15, 4.16, 151.98,   0.13,   0.91, -25.77,   2.51,   6.54,  -0.10,  -0.24,  -0.16,   4.65, 4.17, 0.00, 0.00, 0.00, 0.05, 1, 1, 12,  39.0159236,-105.7107031,  2682.0, 2019,  5, 26, 16, 33, 11,        0,        0,   0,   0,   1.6,   0.8,   1.4, 38,  0,  0,  0,  0,  0, 44, 44, 40,  0, 42,  0, 35,  0,  0,  0, 38, 43,  0,  0,  0,  0,  0,  0,  0,  0,  0,  0,  0,  0,  0,  0
6, 1257, 18,KB0G,     0.34, 3,   boost,  138.35,  73767.00, 2598.05,   19.46,   50.32, 26.9, 4.18, 4.15, 4.16, 151.86,   0.75,   1.26, -22.60,   2.51,   6.05,  -0.10,  -0.24,  -0.16,   4.72, 4.17, 0.00, 0.00, 0.00, 0.00, 1, 1, 12,  39.0159236,-105.7107031,  2682.0, 2019,  5, 26, 16, 33, 11,        0,        0,   0,   0,   1.6,   0.8,   1.4, 38,  0,  0,  0,  0,  0, 44, 44, 40,  0, 42,  0, 35,  0,  0,  0, 38, 43,  0,  0,  0,  0,  0,  0,  0,  0,  0,  0,  0,  0,  0,  0
6, 1257, 18,KB0G,     0.34, 3,   boost,  138.35,  73767.00, 2598.05,   19.46,   50.32, 26.9, 4.18, 4.15, 4.16, 151.86,   0.75,   1.26, -22.60,   2.51,   6.05,  -0.10,  -0.24,  -0.16,   4.72, 4.17, 0.00, 0.00, 0.00, 0.00, 1, 1, 12,  39.0159236,-105.7107031,  2682.0, 2019,  5, 26, 16, 33, 11,        0,        0,   0,   0,   1.6,   0.8,   1.4, 38,  0,  0,  0,  0,  0, 44, 44, 40,  0, 42,  0, 35,  0,  0,  0, 38, 43,  0,  0,  0,  0,  0,  0,  0,  0,  0,  0,  0,  0,  0,  0
6, 1257, 18,KB0G,     0.35, 3,   boost,  138.88,  73765.00, 2598.27,   19.68,   51.70, 26.9, 4.18, 4.15, 4.16, 151.41,   0.39,   0.95, -22.35,   2.63,   5.81,  -0.10,  -0.25,  -0.16,   4.78, 4.17, 0.00, 0.00, 0.00, 0.00, 1, 1, 12,  39.0159236,-105.7107031,  2682.0, 2019,  5, 26, 16, 33, 11,        0,        0,   0,   0,   1.6,   0.8,   1.4, 38,  0,  0,  0,  0,  0, 44, 44, 40,  0, 42,  0, 35,  0,  0,  0, 38, 43,  0,  0,  0,  0,  0,  0,  0,  0,  0,  0,  0,  0,  0,  0
6, 1257, 18,KB0G,     0.36, 3,   boost,  138.88,  73743.00, 2600.64,   22.05,   53.09, 26.8, 4.18, 4.15, 4.16, 152.09,   0.56,   1.23, -22.17,   2.45,   5.38,  -0.10,  -0.24,  -0.16,   4.84, 4.17, 0.00, 0.00, 0.00, 0.00, 1, 1, 12,  39.0159236,-105.7107031,  2682.0, 2019,  5, 26, 16, 33, 11,        0,        0,   0,   0,   1.6,   0.8,   1.4, 38,  0,  0,  0,  0,  0, 44, 44, 40,  0, 42,  0, 35,  0,  0,  0, 38, 43,  0,  0,  0,  0,  0,  0,  0,  0,  0,  0,  0,  0,  0,  0
6, 1257, 18,KB0G,     0.37, 3,   boost,  139.41,  73743.00, 2600.64,   22.05,   54.47, 26.8, 4.18, 4.15, 4.16, 152.80,   0.49,   0.80, -18.14,   2.14,   4.65,  -0.10,  -0.24,  -0.16,   4.89, 4.17, 0.00, 0.00, 0.00, 0.00, 1, 1, 12,  39.0159236,-105.7107031,  2682.0, 2019,  5, 26, 16, 33, 11,        0,        0,   0,   0,   1.6,   0.8,   1.4, 38,  0,  0,  0,  0,  0, 44, 44, 40,  0, 42,  0, 35,  0,  0,  0, 38, 43,  0,  0,  0,  0,  0,  0,  0,  0,  0,  0,  0,  0,  0,  0
6, 1257, 18,KB0G,     0.38, 3,   boost,  139.41,  73761.00, 2598.70,   20.11,   55.86, 26.8, 4.18, 4.15, 4.16, 152.87,   0.23,   0.94, -14.66,   1.96,   4.59,  -0.10,  -0.25,  -0.16,   4.94, 4.17, 0.00, 0.00, 0.00, 0.00, 1, 1, 12,  39.0159236,-105.7107031,  2682.0, 2019,  5, 26, 16, 33, 11,        0,        0,   0,   0,   1.6,   0.8,   1.4, 38,  0,  0,  0,  0,  0, 44, 44, 40,  0, 42,  0, 35,  0,  0,  0, 38, 43,  0,  0,  0,  0,  0,  0,  0,  0,  0,  0,  0,  0,  0,  0
6, 1257, 18,KB0G,     0.39, 3,   boost,  139.41,  73756.00, 2599.24,   20.65,   57.25, 26.8, 4.18, 4.15, 4.16, 152.96,   0.58,   1.20, -10.70,   1.71,   3.06,  -0.10,  -0.25,  -0.15,   4.97, 4.17, 0.00, 0.00, 0.00, 0.00, 1, 1, 12,  39.0159236,-105.7107031,  2682.0, 2019,  5, 26, 16, 33, 11,        0,        0,   0,   0,   1.6,   0.8,   1.4, 38,  0,  0,  0,  0,  0, 44, 44, 40,  0, 42,  0, 35,  0,  0,  0, 38, 43,  0,  0,  0,  0,  0,  0,  0,  0,  0,  0,  0,  0,  0,  0
6, 1257, 18,KB0G,     0.40, 3,   boost,  139.41,  73756.00, 2599.24,   20.65,   58.63, 26.8, 4.18, 4.15, 4.16, 152.84,   0.16,   0.58,  -7.83,   1.35,   2.45,  -0.10,  -0.24,  -0.15,   5.00, 4.17, 0.00, 0.00, 0.00, 0.00, 1, 1, 12,  39.0159236,-105.7107031,  2682.0, 2019,  5, 26, 16, 33, 11,        0,        0,   0,   0,   1.6,   0.8,   1.4, 38,  0,  0,  0,  0,  0, 44, 44, 40,  0, 42,  0, 35,  0,  0,  0, 38, 43,  0,  0,  0,  0,  0,  0,  0,  0,  0,  0,  0,  0,  0,  0
6, 1257, 18,KB0G,     0.41, 3,   boost,  139.41,  73733.00, 2601.72,   23.12,   60.02, 26.8, 4.18, 4.15, 4.16, 152.94,   0.36,   0.70,  -4.65,   0.98,   1.84,  -0.10,  -0.24,  -0.17,   5.02, 4.17, 0.00, 0.00, 0.00, 0.00, 1, 1, 12,  39.0159236,-105.7107031,  2682.0, 2019,  5, 26, 16, 33, 11,        0,        0,   0,   0,   1.6,   0.8,   1.4, 38,  0,  0,  0,  0,  0, 44, 44, 40,  0, 42,  0, 35,  0,  0,  0, 38, 43,  0,  0,  0,  0,  0,  0,  0,  0,  0,  0,  0,  0,  0,  0
6, 1257, 18,KB0G,     0.42, 3,   boost,  139.41,  73725.00, 2602.58,   23.99,   61.41, 26.8, 4.18, 4.15, 4.16, 152.91,   0.20,   0.97,  -0.32,   0.80,   1.17,  -0.10,  -0.24,  -0.17,   5.03, 4.17, 0.00, 0.00, 0.00, 0.00, 1, 1, 12,  39.0159236,-105.7107031,  2682.0, 2019,  5, 26, 16, 33, 11,        0,        0,   0,   0,   1.6,   0.8,   1.4, 38,  0,  0,  0,  0,  0, 44, 44, 40,  0, 42,  0, 35,  0,  0,  0, 38, 43,  0,  0,  0,  0,  0,  0,  0,  0,  0,  0,  0,  0,  0,  0
6, 1257, 18,KB0G,     0.43, 3,   boost,  138.88,  73701.00, 2605.16,   26.57,   62.79, 26.8, 4.18, 4.15, 4.16, 152.75,   0.03,   0.63,   4.07,   0.74,   0.74,  -0.10,  -0.24,  -0.15,   5.04, 4.17, 0.00, 0.00, 0.00, 0.00, 1, 1, 12,  39.0159236,-105.7107031,  2682.0, 2019,  5, 26, 16, 33, 11,        0,        0,   0,   0,   1.6,   0.8,   1.4, 38,  0,  0,  0,  0,  0, 44, 44, 40,  0, 42,  0, 35,  0,  0,  0, 38, 43,  0,  0,  0,  0,  0,  0,  0,  0,  0,  0,  0,  0,  0,  0
6, 1257, 18,KB0G,     0.44, 3,   boost,  138.88,  73719.00, 2603.22,   24.63,   64.18, 26.8, 4.18, 4.15, 4.16, 152.53,   0.21,   0.82,   5.30,   0.25,   0.44,  -0.10,  -0.24,  -0.15,   5.05, 4.17, 0.00, 0.00, 0.00, 0.00, 1, 1, 12,  39.0159236,-105.7107031,  2682.0, 2019,  5, 26, 16, 33, 11,        0,        0,   0,   0,   1.6,   0.8,   1.4, 38,  0,  0,  0,  0,  0, 44, 44, 40,  0, 42,  0, 35,  0,  0,  0, 38, 43,  0,  0,  0,  0,  0,  0,  0,  0,  0,  0,  0,  0,  0,  0
6, 1257, 18,KB0G,     0.45, 3,   boost,  139.41,  73719.00, 2603.22,   24.63,   65.57, 26.8, 4.18, 4.15, 4.16, 152.39,  -0.24,   0.98,   7.68,  -0.30,  -0.11,  -0.10,  -0.24,  -0.15,   5.04, 4.17, 0.00, 0.00, 0.00, 0.00, 1, 1, 12,  39.0159236,-105.7107031,  2682.0, 2019,  5, 26, 16, 33, 11,        0,        0,   0,   0,   1.6,   0.8,   1.4, 38,  0,  0,  0,  0,  0, 44, 44, 40,  0, 42,  0, 35,  0,  0,  0, 38, 43,  0,  0,  0,  0,  0,  0,  0,  0,  0,  0,  0,  0,  0,  0
6, 1257, 18,KB0G,     0.46, 3,   boost,  138.88,  73710.00, 2604.19,   25.60,   66.95, 26.8, 4.18, 4.15, 4.16, 152.69,  -0.57,   0.88,  12.86,  -0.79,  -1.27,  -0.10,  -0.24,  -0.17,   5.03, 4.17, 0.00, 0.00, 0.00, 0.00, 1, 1, 12,  39.0159236,-105.7107031,  2682.0, 2019,  5, 26, 16, 33, 11,        0,        0,   0,   0,   1.6,   0.8,   1.4, 38,  0,  0,  0,  0,  0, 44, 44, 40,  0, 42,  0, 35,  0,  0,  0, 38, 43,  0,  0,  0,  0,  0,  0,  0,  0,  0,  0,  0,  0,  0,  0
6, 1257, 18,KB0G,     0.47, 3,   boost,  138.88,  73676.00, 2607.85,   29.26,   68.33, 26.8, 4.18, 4.15, 4.16, 152.57,  -0.37,   0.38,  16.53,  -0.97,  -1.95,  -0.10,  -0.24,  -0.17,   5.01, 4.17, 0.00, 0.00, 0.00, 0.00, 1, 1, 12,  39.0159236,-105.7107031,  2682.0, 2019,  5, 26, 16, 33, 11,        0,        0,   0,   0,   1.6,   0.8,   1.4, 38,  0,  0,  0,  0,  0, 44, 44, 40,  0, 42,  0, 35,  0,  0,  0, 38, 43,  0,  0,  0,  0,  0,  0,  0,  0,  0,  0,  0,  0,  0,  0
6, 1257, 18,KB0G,     0.48, 3,   boost,  139.41,  73676.00, 2607.85,   29.26,   69.72, 26.8, 4.18, 4.15, 4.16, 152.49,  -0.77,   0.75,  17.56,  -1.95,  -2.62,  -0.10,  -0.24,  -0.16,   4.98, 4.17, 0.00, 0.00, 0.00, 0.00, 1, 1, 12,  39.0159236,-105.7107031,  2682.0, 2019,  5, 26, 16, 33, 11,        0,        0,   0,   0,   1.6,   0.8,   1.4, 38,  0,  0,  0,  0,  0, 44, 44, 40,  0, 42,  0, 35,  0,  0,  0, 38, 43,  0,  0,  0,  0,  0,  0,  0,  0,  0,  0,  0,  0,  0,  0
6, 1257, 18,KB0G,     0.49, 3,   boost,  138.88,  73656.00, 2610.01,   31.42,   71.10, 26.8, 4.18, 4.15, 4.16, 152.78,  -1.08,  -0.30,  23.12,  -2.68,  -3.65,  -0.10,  -0.24,  -0.16,   4.94, 4.17, 0.00, 0.00, 0.00, 0.00, 1, 1, 12,  39.0159236,-105.7107031,  2682.0, 2019,  5, 26, 16, 33, 11,        0,        0,   0,   0,   1.6,   0.8,   1.4, 38,  0,  0,  0,  0,  0, 44, 44, 40,  0, 42,  0, 35,  0,  0,  0, 38, 43,  0,  0,  0,  0,  0,  0,  0,  0,  0,  0,  0,  0,  0,  0
6, 1257, 18,KB0G,     0.50, 3,   boost,  138.88,  73644.00, 2611.30,   32.71,   72.49, 26.8, 4.18, 4.15, 4.16, 152.51,  -0.52,   0.65,  29.10,  -3.11,  -5.49,  -0.10,  -0.24,  -0.17,   4.87, 4.17, 0.00, 0.00, 0.00, 0.00, 1, 1, 12,  39.0159236,-105.7107031,  2682.0, 2019,  5, 26, 16, 33, 11,        0,        0,   0,   0,   1.6,   0.8,   1.4, 38,  0,  0,  0,  0,  0, 44, 44, 40,  0, 42,  0, 35,  0,  0,  0, 38, 43,  0,  0,  0,  0,  0,  0,  0,  0,  0,  0,  0,  0,  0,  0
6, 1257, 18,KB0G,     0.51, 3,   boost,  138.35,  73644.00, 2611.30,   32.71,   73.87, 26.8, 4.18, 4.15, 4.16, 152.51,  -0.48,   0.26,  30.32,  -3.17,  -7.56,  -0.10,  -0.24,  -0.16,   4.79, 4.17, 0.00, 0.00, 0.00, 0.00, 1, 1, 12,  39.0159236,-105.7107031,  2682.0, 2019,  5, 26, 16, 33, 11,        0,        0,   0,   0,   1.6,   0.8,   1.4, 38,  0,  0,  0,  0,  0, 44, 44, 40,  0, 42,  0, 35,  0,  0,  0, 38, 43,  0,  0,  0,  0,  0,  0,  0,  0,  0,  0,  0,  0,  0,  0
6, 1257, 18,KB0G,     0.52, 3,   boost,  138.88,  73626.00, 2613.24,   34.65,   75.25, 26.8, 4.18, 4.15, 4.16, 152.57,  -0.93,   0.07,  27.09,  -3.11,  -8.23,  -0.10,  -0.24,  -0.16,   4.71, 4.17, 0.00, 0.00, 0.00, 0.00, 1, 1, 12,  39.0159236,-105.7107031,  2682.0, 2019,  5, 26, 16, 33, 11,        0,        0,   0,   0,   1.6,   0.8,   1.4, 38,  0,  0,  0,  0,  0, 44, 44, 40,  0, 42,  0, 35,  0,  0,  0, 38, 43,  0,  0,  0,  0,  0,  0,  0,  0,  0,  0,  0,  0,  0,  0
6, 1257, 18,KB0G,     0.53, 3,   boost,  138.88,  73613.00, 2614.65,   36.05,   76.64, 26.8, 4.18, 4.15, 4.16, 151.90,  -0.69,  -0.10,  26.90,  -3.05,  -9.45,  -0.10,  -0.25,  -0.17,   4.61, 4.17, 0.00, 0.00, 0.00, 0.00, 1, 1, 12,  39.0159236,-105.7107031,  2682.0, 2019,  5, 26, 16, 33, 11,        0,        0,   0,   0,   1.6,   0.8,   1.4, 38,  0,  0,  0,  0,  0, 44, 44, 40,  0, 42,  0, 35,  0,  0,  0, 38, 43,  0,  0,  0,  0,  0,  0,  0,  0,  0,  0,  0,  0,  0,  0
6, 1257, 18,KB0G,     0.54, 3,   boost,  139.41,  73629.00, 2612.92,   34.33,   78.02, 26.8, 4.18, 4.15, 4.16, 152.29,  -0.88,  -0.13,  28.06,  -2.86, -10.67,  -0.10,  -0.24,  -0.16,   4.50, 4.17, 0.00, 0.00, 0.00, 0.00, 1, 1, 12,  39.0159234,-105.7107031,  2682.0, 2019,  5, 26, 16, 33, 12,        0,        0, 180,   0,   1.6,   0.8,   1.4, 38,  0,  0,  0,  0,  0, 44, 44, 40,  0, 42,  0, 35,  0,  0,  0, 39, 43,  0,  0,  0,  0,  0,  0,  0,  0,  0,  0,  0,  0,  0,  0
6, 1257, 18,KB0G,     0.54, 3,   boost,  139.41,  73629.00, 2612.92,   34.33,   78.02, 26.8, 4.18, 4.15, 4.16, 152.29,  -0.88,  -0.13,  28.06,  -2.86, -10.67,  -0.10,  -0.24,  -0.16,   4.50, 4.17, 0.00, 0.00, 0.00, 0.00, 1, 1, 12,  39.0159234,-105.7107031,  2682.0, 2019,  5, 26, 16, 33, 12,        0,        0, 180,   0,   1.6,   0.8,   1.4, 38,  0,  0,  0,  0,  0, 44, 44, 40,  0, 42,  0, 35,  0,  0,  0, 39, 43,  0,  0,  0,  0,  0,  0,  0,  0,  0,  0,  0,  0,  0,  0
6, 1257, 18,KB0G,     0.54, 3,   boost,  139.41,  73629.00, 2612.92,   34.33,   78.02, 26.8, 4.18, 4.15, 4.16, 152.29,  -0.88,  -0.13,  28.06,  -2.86, -10.67,  -0.10,  -0.24,  -0.16,   4.50, 4.17, 0.00, 0.00, 0.00, 0.00, 1, 1, 12,  39.0159234,-105.7107031,  2682.0, 2019,  5, 26, 16, 33, 12,        0,        0, 180,   0,   1.6,   0.8,   1.4, 38,  0,  0,  0,  0,  0, 44, 44, 40,  0, 42,  0, 35,  0,  0,  0, 39, 43,  0,  0,  0,  0,  0,  0,  0,  0,  0,  0,  0,  0,  0,  0
6, 1257, 18,KB0G,     0.55, 3,   boost,  139.41,  73606.00, 2615.40,   36.81,   79.41, 26.8, 4.18, 4.15, 4.16, 153.37,  -1.05,  -0.39,  26.90,  -1.95, -11.89,  -0.10,  -0.24,  -0.16,   4.38, 4.17, 0.00, 0.00, 0.00, 0.00, 1, 1, 12,  39.0159234,-105.7107031,  2682.0, 2019,  5, 26, 16, 33, 12,        0,        0, 180,   0,   1.6,   0.8,   1.4, 38,  0,  0,  0,  0,  0, 44, 44, 40,  0, 42,  0, 35,  0,  0,  0, 39, 43,  0,  0,  0,  0,  0,  0,  0,  0,  0,  0,  0,  0,  0,  0
6, 1257, 18,KB0G,     0.56, 3,   boost,  137.82,  73606.00, 2615.40,   36.81,   80.79, 26.8, 4.18, 4.15, 4.16, 149.75,  -0.96,   0.58,  20.55,  -1.40, -13.36,  -0.10,  -0.24,  -0.17,   4.24, 4.17, 0.00, 0.00, 0.00, 0.00, 1, 1, 12,  39.0159234,-105.7107031,  2682.0, 2019,  5, 26, 16, 33, 12,        0,        0, 180,   0,   1.6,   0.8,   1.4, 38,  0,  0,  0,  0,  0, 44, 44, 40,  0, 42,  0, 35,  0,  0,  0, 39, 43,  0,  0,  0,  0,  0,  0,  0,  0,  0,  0,  0,  0,  0,  0
