#version,serial,flight,call,time,state,state_name,acceleration,pressure,altitude,height,speed,temperature,drogue_voltage,main_voltage,battery_voltage,accel_x,accel_y,accel_z,gyro_roll,gyro_pitch,gyro_yaw,mag_x,mag_y,mag_z,tilt,pyro,igniter_a,igniter_b,igniter_c,igniter_d,connected,locked,nsat,latitude,longitude,altitude,year,month,day,hour,minute,second,pad_dist,pad_range,pad_az,pad_el,pdop,hdop,vdop,sat01,sat02,sat03,sat04,sat05,sat06,sat07,sat08,sat09,sat10,sat11,sat12,sat13,sat14,sat15,sat16,sat17,sat18,sat19,sat20,sat21,sat22,sat23,sat24,sat25,sat26,sat27,sat28,sat29,sat30,sat31,sat32
6, 4411, 2,KB0G,    -0.30, 3,   boost,   -0.00,  77410.00, 2213.54,   -0.83,    0.00, 31.2, 4.18, 4.24, 4.17,   9.84,  -0.34,   0.26,  -0.05,   0.06,   0.10,  -0.18,   0.03,  -0.97,   2.26, 4.19, 4.19, 0.00, 0.00, 0.00, 1, 1,  7,  37.3838425,-106.1050358,  2374.0, 2020,  8,  8, 17, 25,  8,        0,        0,   0,   0,   2.2,   1.4,   1.8,  0, 42,  0,  0, 37, 40,  0,  0, 43,  0,  0, 32,  0,  0,  0,  0,  0, 35, 42,  0,  0,  0,  0,  0, 37,  0,  0,  0, 35,  0,  0,  0
6, 4411, 2,KB0G,    -0.29, 3,   boost,   -0.00,  77406.00, 2213.96,   -0.41,    0.00, 31.2, 4.18, 4.24, 4.17,   9.55,  -0.37,   0.25,   0.01,  -0.12,   0.04,  -0.19,   0.04,  -0.97,   2.26, 4.19, 4.19, 0.00, 0.00, 0.00, 1, 1,  7,  37.3838425,-106.1050358,  2374.0, 2020,  8,  8, 17, 25,  8,        0,        0,   0,   0,   2.2,   1.4,   1.8,  0, 42,  0,  0, 37, 40,  0,  0, 43,  0,  0, 32,  0,  0,  0,  0,  0, 35, 42,  0,  0,  0,  0,  0, 37,  0,  0,  0, 35,  0,  0,  0
6, 4411, 2,KB0G,    -0.28, 3,   boost,   -0.00,  77411.00, 2213.44,   -0.93,    0.00, 31.2, 4.18, 4.24, 4.17,   9.67,  -0.39,   0.42,   0.19,   0.12,  -0.02,  -0.19,   0.04,  -0.97,   2.26, 4.19, 4.19, 0.00, 0.00, 0.00, 1, 1,  7,  37.3838425,-106.1050358,  2374.0, 2020,  8,  8, 17, 25,  8,        0,        0,   0,   0,   2.2,   1.4,   1.8,  0, 42,  0,  0, 37, 40,  0,  0, 43,  0,  0, 32,  0,  0,  0,  0,  0, 35, 42,  0,  0,  0,  0,  0, 37,  0,  0,  0, 35,  0,  0,  0
6, 4411, 2,KB0G,    -0.27, 3,   boost,   -0.00,  77405.00, 2214.06,   -0.31,    0.00, 31.2, 4.18, 4.24, 4.17,  10.07,  -0.33,   0.75,   0.13,  -0.31,  -0.02,  -0.17,   0.03,  -0.98,   2.26, 4.19, 4.19, 0.00, 0.00, 0.00, 1, 1,  7,  37.3838425,-106.1050358,  2374.0, 2020,  8,  8, 17, 25,  8,        0,        0,   0,   0,   2.2,   1.4,   1.8,  0, 42,  0,  0, 37, 40,  0,  0, 43,  0,  0, 32,  0,  0,  0,  0,  0, 35, 42,  0,  0,  0,  0,  0, 37,  0,  0,  0, 35,  0,  0,  0
6, 4411, 2,KB0G,    -0.26, 3,   boost,   -0.00,  77393.00, 2215.30,    0.93,    0.00, 31.2, 4.18, 4.24, 4.17,   9.83,  -0.35,   0.34,  -0.05,   0.24,   0.10,  -0.17,   0.05,  -0.98,   2.26, 4.19, 4.19, 0.00, 0.00, 0.00, 1, 1,  7,  37.3838425,-106.1050358,  2374.0, 2020,  8,  8, 17, 25,  8,        0,        0,   0,   0,   2.2,   1.4,   1.8,  0, 42,  0,  0, 37, 40,  0,  0, 43,  0,  0, 32,  0,  0,  0,  0,  0, 35, 42,  0,  0,  0,  0,  0, 37,  0,  0,  0, 35,  0,  0,  0
6, 4411, 2,KB0G,    -0.25, 3,   boost,   -0.00,  77402.00, 2214.37,    0.00,    0.00, 31.2, 4.18, 4.24, 4.17,   9.89,  -0.42,   0.12,  -0.17,  -0.37,   0.10,  -0.18,   0.04,  -0.97,   2.26, 4.19, 4.19, 0.00, 0.00, 0.00, 1, 1,  7,  37.3838425,-106.1050358,  2374.0, 2020,  8,  8, 17, 25,  8,        0,        0,   0,   0,   2.2,   1.4,   1.8,  0, 42,  0,  0, 37, 40,  0,  0, 43,  0,  0, 32,  0,  0,  0,  0,  0, 35, 42,  0,  0,  0,  0,  0, 37,  0,  0,  0, 35,  0,  0,  0
6, 4411, 2,KB0G,    -0.24, 3,   boost,   -0.00,  77406.00, 2213.96,   -0.41,    0.00, 31.2, 4.18, 4.24, 4.17,   9.96,  -0.38,  -0.09,  -0.23,   0.18,   0.04,  -0.17,   0.04,  -0.97,   2.26, 4.19, 4.19, 0.00, 0.00, 0.00, 1, 1,  7,  37.3838425,-106.1050358,  2374.0, 2020,  8,  8, 17, 25,  8,        0,        0,   0,   0,   2.2,   1.4,   1.8,  0, 42,  0,  0, 37, 40,  0,  0, 43,  0,  0, 32,  0,  0,  0,  0,  0, 35, 42,  0,  0,  0,  0,  0, 37,  0,  0,  0, 35,  0,  0,  0
6, 4411, 2,KB0G,    -0.23, 3,   boost,   -0.00,  77396.00, 2214.99,    0.62,    0.00, 31.2, 4.18, 4.24, 4.17,   9.96,  -0.58,  -0.04,   0.19,  -0.06,  -0.09,  -0.18,   0.04,  -0.99,   2.26, 4.19, 4.19, 0.00, 0.00, 0.00, 1, 1,  7,  37.3838425,-106.1050358,  2374.0, 2020,  8,  8, 17, 25,  8,        0,        0,   0,   0,   2.2,   1.4,   1.8,  0, 42,  0,  0, 37, 40,  0,  0, 43,  0,  0, 32,  0,  0,  0,  0,  0, 35, 42,  0,  0,  0,  0,  0, 37,  0,  0,  0, 35,  0,  0,  0
6, 4411, 2,KB0G,    -0.22, 3,   boost,   -0.00,  77402.00, 2214.37,    0.00,    0.00, 31.2, 4.18, 4.24, 4.17,   9.70,  -0.37,   0.11,   0.25,  -0.06,  -0.02,  -0.18,   0.03,  -0.98,   2.26, 4.19, 4.19, 0.00, 0.00, 0.00, 1, 1,  7,  37.3838425,-106.1050358,  2374.0, 2020,  8,  8, 17, 25,  8,        0,        0,   0,   0,   2.2,   1.4,   1.8,  0, 42,  0,  0, 37, 40,  0,  0, 43,  0,  0, 32,  0,  0,  0,  0,  0, 35, 42,  0,  0,  0,  0,  0, 37,  0,  0,  0, 35,  0,  0,  0
6, 4411, 2,KB0G,    -0.21, 3,   boost,   -0.00,  77409.00, 2213.64,   -0.72,    0.00, 31.2, 4.18, 4.24, 4.17,   9.87,  -0.54,   0.50,  -0.11,  -0.12,   0.04,  -0.19,   0.04,  -0.97,   2.26, 4.19, 4.19, 0.00, 0.00, 0.00, 1, 1,  7,  37.3838425,-106.1050358,  2374.0, 2020,  8,  8, 17, 25,  8,        0,        0,   0,   0,   2.2,   1.4,   1.8,  0, 42,  0,  0, 37, 40,  0,  0, 43,  0,  0, 32,  0,  0,  0,  0,  0, 35, 42,  0,  0,  0,  0,  0, 37,  0,  0,  0, 35,  0,  0,  0
6, 4411, 2,KB0G,    -0.20, 3,   boost,   -0.00,  77389.00, 2215.72,    1.35,    0.00, 31.2, 4.18, 4.24, 4.17,  10.03,  -0.47,   0.52,  -0.23,   0.06,   0.16,  -0.19,   0.04,  -0.97,   2.26, 4.19, 4.19, 0.00, 0.00, 0.00, 1, 1,  7,  37.3838425,-106.1050358,  2374.0, 2020,  8,  8, 17, 25,  8,        0,        0,   0,   0,   2.2,   1.4,   1.8,  0, 42,  0,  0, 37, 40,  0,  0, 43,  0,  0, 32,  0,  0,  0,  0,  0, 35, 42,  0,  0,  0,  0,  0, 37,  0,  0,  0, 35,  0,  0,  0
6, 4411, 2,KB0G,    -0.19, 3,   boost,   -0.00,  77399.00, 2214.68,    0.31,    0.00, 31.2, 4.18, 4.24, 4.17,   9.63,  -0.58,   0.29,  -0.48,  -0.12,   0.10,  -0.19,   0.04,  -0.97,   2.26, 4.19, 4.19, 0.00, 0.00, 0.00, 1, 1,  7,  37.3838425,-106.1050358,  2374.0, 2020,  8,  8, 17, 25,  8,        0,        0,   0,   0,   2.2,   1.4,   1.8,  0, 42,  0,  0, 37, 40,  0,  0, 43,  0,  0, 32,  0,  0,  0,  0,  0, 35, 42,  0,  0,  0,  0,  0, 37,  0,  0,  0, 35,  0,  0,  0
6, 4411, 2,KB0G,    -0.18, 3,   boost,   -0.00,  77404.00, 2214.16,   -0.21,    0.00, 31.2, 4.18, 4.24, 4.17,  10.30,   0.06,   0.53,  -1.33,  -0.55,  -0.09,  -0.19,   0.04,  -0.97,   2.26, 4.19, 4.19, 0.00, 0.00, 0.00, 1, 1,  7,  37.3838425,-106.1050358,  2374.0, 2020,  8,  8, 17, 25,  8,        0,        0,   0,   0,   2.2,   1.4,   1.8,  0, 42,  0,  0, 37, 40,  0,  0, 43,  0,  0, 32,  0,  0,  0,  0,  0, 35, 42,  0,  0,  0,  0,  0, 37,  0,  0,  0, 35,  0,  0,  0
6, 4411, 2,KB0G,    -0.17, 3,   boost,    0.54,  77407.00, 2213.85,   -0.52,    0.00, 31.2, 4.18, 4.24, 4.17,   9.93,  -0.16,   0.35,  -1.82,   0.06,  -0.09,  -0.19,   0.04,  -0.97,   2.26, 4.19, 4.19, 0.00, 0.00, 0.00, 1, 1,  7,  37.3838425,-106.1050358,  2374.0, 2020,  8,  8, 17, 25,  8,        0,        0,   0,   0,   2.2,   1.4,   1.8,  0, 42,  0,  0, 37, 40,  0,  0, 43,  0,  0, 32,  0,  0,  0,  0,  0, 35, 42,  0,  0,  0,  0,  0, 37,  0,  0,  0, 35,  0,  0,  0
6, 4411, 2,KB0G,    -0.16, 3,   boost,   -2.18,  77394.00, 2215.20,    0.83,    0.00, 31.2, 4.18, 4.24, 4.17,  11.67,  -0.34,   1.41,  -4.08,  -2.08,   1.50,  -0.18,   0.03,  -0.97,   2.26, 4.19, 4.19, 0.00, 0.00, 0.00, 1, 1,  7,  37.3838425,-106.1050358,  2374.0, 2020,  8,  8, 17, 25,  8,        0,        0,   0,   0,   2.2,   1.4,   1.8,  0, 42,  0,  0, 37, 40,  0,  0, 43,  0,  0, 32,  0,  0,  0,  0,  0, 35, 42,  0,  0,  0,  0,  0, 37,  0,  0,  0, 35,  0,  0,  0
6, 4411, 2,KB0G,    -0.15, 3,   boost,   -1.09,  77411.00, 2213.44,   -0.93,    0.00, 31.2, 4.18, 4.24, 4.17,   6.07,  -0.10,  -8.86,  -7.62, -26.73,   1.56,  -0.19,   0.03,  -0.97,   2.26, 4.19, 4.19, 0.00, 0.00, 0.00, 1, 1,  7,  37.3838425,-106.1050358,  2374.0, 2020,  8,  8, 17, 25,  8,        0,        0,   0,   0,   2.2,   1.4,   1.8,  0, 42,  0,  0, 37, 40,  0,  0, 43,  0,  0, 32,  0,  0,  0,  0,  0, 35, 42,  0,  0,  0,  0,  0, 37,  0,  0,  0, 35,  0,  0,  0
6, 4411, 2,KB0G,    -0.14, 3,   boost,    3.27,  77396.00, 2214.99,    0.62,    0.00, 31.2, 4.18, 4.24, 4.17,   8.83,  -4.84,  13.94, -14.15,  25.94,   2.29,  -0.19,   0.04,  -0.97,   2.26, 4.19, 4.19, 0.00, 0.00, 0.00, 1, 1,  7,  37.3838425,-106.1050358,  2374.0, 2020,  8,  8, 17, 25,  8,        0,        0,   0,   0,   2.2,   1.4,   1.8,  0, 42,  0,  0, 37, 40,  0,  0, 43,  0,  0, 32,  0,  0,  0,  0,  0, 35, 42,  0,  0,  0,  0,  0, 37,  0,  0,  0, 35,  0,  0,  0
6, 4411, 2,KB0G,    -0.13, 3,   boost,  -22.34,  77396.00, 2214.99,    0.62,    0.00, 31.2, 4.18, 4.24, 4.17,  13.17,   2.83,  -6.88, -13.97, -41.75,  -4.24,  -0.19,   0.05,  -0.98,   2.26, 4.19, 4.19, 0.00, 0.00, 0.00, 1, 1,  7,  37.3838425,-106.1050358,  2374.0, 2020,  8,  8, 17, 25,  8,        0,        0,   0,   0,   2.2,   1.4,   1.8,  0, 42,  0,  0, 37, 40,  0,  0, 43,  0,  0, 32,  0,  0,  0,  0,  0, 35, 42,  0,  0,  0,  0,  0, 37,  0,  0,  0, 35,  0,  0,  0
6, 4411, 2,KB0G,    -0.12, 3,   boost,    3.27,  77355.00, 2219.24,    4.87,    0.03, 31.2, 4.18, 4.24, 4.17,  -9.98,  -7.16,  -9.77, -27.52, -44.92,  -3.87,  -0.19,   0.05,  -0.98,   2.26, 4.19, 4.19, 0.00, 0.00, 0.00, 1, 1,  7,  37.3838425,-106.1050358,  2374.0, 2020,  8,  8, 17, 25,  8,        0,        0,   0,   0,   2.2,   1.4,   1.8,  0, 42,  0,  0, 37, 40,  0,  0, 43,  0,  0, 32,  0,  0,  0,  0,  0, 35, 42,  0,  0,  0,  0,  0, 37,  0,  0,  0, 35,  0,  0,  0
6, 4411, 2,KB0G,    -0.11, 3,   boost,   -0.00,  77415.00, 2213.02,   -1.35,    0.12, 31.2, 4.18, 4.24, 4.17,   3.35,   9.29,  -8.78, -27.94,  10.68, -10.52,  -0.18,   0.04,  -0.98,   2.26, 4.19, 4.19, 0.00, 0.00, 0.00, 1, 1,  7,  37.3838425,-106.1050358,  2374.0, 2020,  8,  8, 17, 25,  8,        0,        0,   0,   0,   2.2,   1.4,   1.8,  0, 42,  0,  0, 37, 40,  0,  0, 43,  0,  0, 32,  0,  0,  0,  0,  0, 35, 42,  0,  0,  0,  0,  0, 37,  0,  0,  0, 35,  0,  0,  0
6, 4411, 2,KB0G,    -0.10, 3,   boost,   14.71,  77422.00, 2212.30,   -2.07,    0.32, 31.2, 4.18, 4.24, 4.17,  16.16,   1.02,   4.46, -16.84,  22.22,   6.26,  -0.19,   0.05,  -0.98,   2.26, 4.19, 4.19, 0.00, 0.00, 0.00, 1, 1,  7,  37.3838425,-106.1050358,  2374.0, 2020,  8,  8, 17, 25,  8,        0,        0,   0,   0,   2.2,   1.4,   1.8,  0, 42,  0,  0, 37, 40,  0,  0, 43,  0,  0, 32,  0,  0,  0,  0,  0, 35, 42,  0,  0,  0,  0,  0, 37,  0,  0,  0, 35,  0,  0,  0
6, 4411, 2,KB0G,    -0.09, 3,   boost,   52.85,  77406.00, 2213.96,   -0.41,    0.68, 31.2, 4.18, 4.24, 4.17,  27.32,   0.69,  -1.07,  -9.45, -12.09,  13.16,  -0.18,   0.04,  -0.97,   2.26, 4.19, 4.19, 0.00, 0.00, 0.00, 1, 1,  7,  37.3838425,-106.1050358,  2374.0, 2020,  8,  8, 17, 25,  8,        0,        0,   0,   0,   2.2,   1.4,   1.8,  0, 42,  0,  0, 37, 40,  0,  0, 43,  0,  0, 32,  0,  0,  0,  0,  0, 35, 42,  0,  0,  0,  0,  0, 37,  0,  0,  0, 35,  0,  0,  0
6, 4411, 2,KB0G,    -0.08, 3,   boost,   83.36,  77419.00, 2212.61,   -1.76,    1.21, 31.2, 4.18, 4.24, 4.17,  79.64,   0.98,  -0.23, -14.76,  -5.49,   3.70,  -0.19,   0.04,  -0.97,   2.26, 4.19, 4.19, 0.00, 0.00, 0.00, 1, 1,  7,  37.3838425,-106.1050358,  2374.0, 2020,  8,  8, 17, 25,  8,        0,        0,   0,   0,   2.2,   1.4,   1.8,  0, 42,  0,  0, 37, 40,  0,  0, 43,  0,  0, 32,  0,  0,  0,  0,  0, 35, 42,  0,  0,  0,  0,  0, 37,  0,  0,  0, 35,  0,  0,  0
6, 4411, 2,KB0G,    -0.07, 3,   boost,   90.44,  77475.00, 2206.81,   -7.55,    1.90, 31.2, 4.18, 4.24, 4.17,  88.58, -10.77,   5.23,  -1.15,  28.99, -13.27,  -0.19,   0.04,  -0.98,   2.26, 4.19, 4.19, 0.00, 0.00, 0.00, 1, 1,  7,  37.3838425,-106.1050358,  2374.0, 2020,  8,  8, 17, 25,  8,        0,        0,   0,   0,   2.2,   1.4,   1.8,  0, 42,  0,  0, 37, 40,  0,  0, 43,  0,  0, 32,  0,  0,  0,  0,  0, 35, 42,  0,  0,  0,  0,  0, 37,  0,  0,  0, 35,  0,  0,  0
6, 4411, 2,KB0G,    -0.06, 3,   boost,   87.17,  77480.00, 2206.30,   -8.07,    2.69, 31.2, 4.18, 4.24, 4.17,  97.41,  -3.40,  -6.95,   7.88, -23.50,  -2.10,  -0.19,   0.04,  -0.98,   2.26, 4.19, 4.19, 0.00, 0.00, 0.00, 1, 1,  7,  37.3838425,-106.1050358,  2374.0, 2020,  8,  8, 17, 25,  8,        0,        0,   0,   0,   2.2,   1.4,   1.8,  0, 42,  0,  0, 37, 40,  0,  0, 43,  0,  0, 32,  0,  0,  0,  0,  0, 35, 42,  0,  0,  0,  0,  0, 37,  0,  0,  0, 35,  0,  0,  0
6, 4411, 2,KB0G,    -0.05, 3,   boost,   88.80,  77488.00, 2205.47,   -8.90,    3.56, 31.2, 4.18, 4.24, 4.17,  98.40,  -6.45,   5.14,   6.60,   3.97,   5.65,  -0.18,   0.04,  -0.99,   2.26, 4.19, 4.19, 0.00, 0.00, 0.00, 1, 1,  7,  37.3838425,-106.1050358,  2374.0, 2020,  8,  8, 17, 25,  8,        0,        0,   0,   0,   2.2,   1.4,   1.8,  0, 42,  0,  0, 37, 40,  0,  0, 43,  0,  0, 32,  0,  0,  0,  0,  0, 35, 42,  0,  0,  0,  0,  0, 37,  0,  0,  0, 35,  0,  0,  0
6, 4411, 2,KB0G,    -0.04, 3,   boost,   89.35,  77449.00, 2209.50,   -4.86,    4.45, 31.2, 4.18, 4.24, 4.17,  96.92,   0.34,   5.96,  13.01,   6.84,   0.10,  -0.19,   0.02,  -1.03,   2.26, 4.19, 4.19, 0.00, 0.00, 0.00, 1, 1,  7,  37.3838425,-106.1050358,  2374.0, 2020,  8,  8, 17, 25,  8,        0,        0,   0,   0,   2.2,   1.4,   1.8,  0, 42,  0,  0, 37, 40,  0,  0, 43,  0,  0, 32,  0,  0,  0,  0,  0, 35, 42,  0,  0,  0,  0,  0, 37,  0,  0,  0, 35,  0,  0,  0
6, 4411, 2,KB0G,    -0.03, 3,   boost,   90.98,  77406.00, 2213.96,   -0.41,    5.36, 31.2, 4.18, 4.24, 4.17,  28.92, -14.37,   0.71,  18.75, -18.92,  -2.47,  -0.18,   0.05,  -0.98,   2.26, 4.19, 4.19, 0.00, 0.00, 0.00, 1, 1,  7,  37.3838425,-106.1050358,  2374.0, 2020,  8,  8, 17, 25,  8,        0,        0,   0,   0,   2.2,   1.4,   1.8,  0, 42,  0,  0, 37, 40,  0,  0, 43,  0,  0, 32,  0,  0,  0,  0,  0, 35, 42,  0,  0,  0,  0,  0, 37,  0,  0,  0, 35,  0,  0,  0
6, 4411, 2,KB0G,    -0.02, 3,   boost,   93.16,  77396.00, 2214.99,    0.62,    6.30, 31.2, 4.18, 4.24, 4.17,  98.99,  -1.51,   0.91,  48.78,  19.17,   1.50,  -0.18,   0.04,  -0.99,   2.26, 4.19, 4.19, 0.00, 0.00, 0.00, 1, 1,  7,  37.3838425,-106.1050358,  2374.0, 2020,  8,  8, 17, 25,  8,        0,        0,   0,   0,   2.2,   1.4,   1.8,  0, 42,  0,  0, 37, 40,  0,  0, 43,  0,  0, 32,  0,  0,  0,  0,  0, 35, 42,  0,  0,  0,  0,  0, 37,  0,  0,  0, 35,  0,  0,  0
6, 4411, 2,KB0G,    -0.01, 3,   boost,   99.16,  77380.00, 2216.65,    2.28,    7.26, 31.2, 4.18, 4.24, 4.17, 101.47,   1.85,  -6.68,  58.36, -24.35,   1.01,  -0.19,   0.03,  -1.01,   2.26, 4.19, 4.19, 0.00, 0.00, 0.00, 1, 1,  7,  37.3838425,-106.1050358,  2374.0, 2020,  8,  8, 17, 25,  8,        0,        0,   0,   0,   2.2,   1.4,   1.8,  0, 42,  0,  0, 37, 40,  0,  0, 43,  0,  0, 32,  0,  0,  0,  0,  0, 35, 42,  0,  0,  0,  0,  0, 37,  0,  0,  0, 35,  0,  0,  0
6, 4411, 2,KB0G,     0.00, 3,   boost,  101.34,  77393.00, 2215.30,    0.93,    8.23, 31.2, 4.18, 4.24, 4.17, 108.56,  -6.54,   6.96,  62.15,  10.13,  -0.45,  -0.19,   0.05,  -0.97,   2.26, 4.19, 4.19, 0.00, 0.00, 0.00, 1, 1,  7,  37.3838425,-106.1050358,  2374.0, 2020,  8,  8, 17, 25,  8,        0,        0,   0,   0,   2.2,   1.4,   1.8,  0, 42,  0,  0, 37, 40,  0,  0, 43,  0,  0, 32,  0,  0,  0,  0,  0, 35, 42,  0,  0,  0,  0,  0, 37,  0,  0,  0, 35,  0,  0,  0
6, 4411, 2,KB0G,     0.00, 3,   boost,  101.34,  77393.00, 2215.30,    0.93,    8.23, 31.2, 4.18, 4.24, 4.17, 108.56,  -6.54,   6.96,  62.15,  10.13,  -0.45,  -0.19,   0.05,  -0.97,   2.26, 4.19, 4.19, 0.00, 0.00, 0.00, 1, 1,  7,  37.3838425,-106.1050358,  2374.0, 2020,  8,  8, 17, 25,  8,        0,        0,   0,   0,   2.2,   1.4,   1.8,  0, 42,  0,  0, 37, 40,  0,  0, 43,  0,  0, 32,  0,  0,  0,  0,  0, 35, 42,  0,  0,  0,  0,  0, 37,  0,  0,  0, 35,  0,  0,  0
6, 4411, 2,KB0G,     0.00, 3,   boost,  101.34,  77393.00, 2215.30,    0.93,    8.23, 31.2, 4.18, 4.24, 4.17, 108.56,  -6.54,   6.96,  62.15,  10.13,  -0.45,  -0.19,   0.05,  -0.97,   2.26, 4.19, 4.19, 0.00, 0.00, 0.00, 1, 1,  7,  37.3838425,-106.1050358,  2374.0, 2020,  8,  8, 17, 25,  8,        0,        0,   0,   0,   2.2,   1.4,   1.8,  0, 42,  0,  0, 37, 40,  0,  0, 43,  0,  0, 32,  0,  0,  0,  0,  0, 35, 42,  0,  0,  0,  0,  0, 37,  0,  0,  0, 35,  0,  0,  0
6, 4411, 2,KB0G,     0.00, 3,   boost,  101.34,  77393.00, 2215.30,    0.93,    8.23, 31.2, 4.18, 4.24, 4.17, 108.56,  -6.54,   6.96,  62.15,  10.13,  -0.45,  -0.19,   0.05,  -0.97,   2.26, 4.19, 4.19, 0.00, 0.00, 0.00, 1, 1,  7,  37.3838425,-106.1050358,  2374.0, 2020,  8,  8, 17, 25,  8,        0,        0,   0,   0,   2.2,   1.4,   1.8,  0, 42,  0,  0, 37, 40,  0,  0, 43,  0,  0, 32,  0,  0,  0,  0,  0, 35, 42,  0,  0,  0,  0,  0, 37,  0,  0,  0, 35,  0,  0,  0
6, 4411, 2,KB0G,     0.00, 3,   boost,  101.34,  77393.00, 2215.30,    0.93,    8.23, 31.2, 4.18, 4.24, 4.17, 108.56,  -6.54,   6.96,  62.15,  10.13,  -0.45,  -0.19,   0.05,  -0.97,   2.26, 4.19, 4.19, 0.00, 0.00, 0.00, 1, 1,  7,  37.3838425,-106.1050358,  2374.0, 2020,  8,  8, 17, 25,  8,        0,        0,   0,   0,   2.2,   1.4,   1.8,  0, 42,  0,  0, 37, 40,  0,  0, 43,  0,  0, 32,  0,  0,  0,  0,  0, 35, 42,  0,  0,  0,  0,  0, 37,  0,  0,  0, 35,  0,  0,  0
6, 4411, 2,KB0G,     0.00, 3,   boost,  101.34,  77393.00, 2215.30,    0.93,    8.23, 31.2, 4.18, 4.24, 4.17, 108.56,  -6.54,   6.96,  62.15,  10.13,  -0.45,  -0.19,   0.05,  -0.97,   2.26, 4.19, 4.19, 0.00, 0.00, 0.00, 1, 1,  7,  37.3838425,-106.1050358,  2374.0, 2020,  8,  8, 17, 25,  8,        0,        0,   0,   0,   2.2,   1.4,   1.8,  0, 42,  0,  0, 37, 40,  0,  0, 43,  0,  0, 32,  0,  0,  0,  0,  0, 35, 42,  0,  0,  0,  0,  0, 37,  0,  0,  0, 35,  0,  0,  0
6, 4411, 2,KB0G,     0.00, 3,   boost,  101.34,  77393.00, 2215.30,    0.93,    8.23, 31.2, 4.18, 4.24, 4.17, 108.56,  -6.54,   6.96,  62.15,  10.13,  -0.45,  -0.19,   0.05,  -0.97,   2.26, 4.19, 4.19, 0.00, 0.00, 0.00, 1, 1,  7,  37.3838425,-106.1050358,  2374.0, 2020,  8,  8, 17, 25,  8,        0,        0,   0,   0,   2.2,   1.4,   1.8,  0, 42,  0,  0, 37, 40,  0,  0, 43,  0,  0, 32,  0,  0,  0,  0,  0, 35, 42,  0,  0,  0,  0,  0, 37,  0,  0,  0, 35,  0,  0,  0
6, 4411, 2,KB0G,     0.00, 3,   boost,  101.34,  77393.00, 2215.30,    0.93,    8.23, 31.2, 4.18, 4.24, 4.17, 108.56,  -6.54,   6.96,  62.15,  10.13,  -0.45,  -0.19,   0.05,  -0.97,   2.27, 4.19, 4.19, 0.00, 0.00, 0.00, 1, 1,  7,  37.3838425,-106.1050358,  2374.0, 2020,  8,  8, 17, 25,  8,        0,        0,   0,   0,   2.2,   1.4,   1.8,  0, 42,  0,  0, 37, 40,  0,  0, 43,  0,  0, 32,  0,  0,  0,  0,  0, 35, 42,  0,  0,  0,  0,  0, 37,  0,  0,  0, 35,  0,  0,  0
6, 4411, 2,KB0G,     0.00, 3,   boost,  101.34,  77393.00, 2215.30,    0.93,    8.23, 31.2, 4.18, 4.24, 4.17, 108.56,  -6.54,   6.96,  62.15,  10.13,  -0.45,  -0.19,   0.05,  -0.97,   2.26, 4.19, 4.19, 0.00, 0.00, 0.00, 1, 1,  7,  37.3838425,-106.1050358,  2374.0, 2020,  8,  8, 17, 25,  8,        0,        0,   0,   0,   2.2,   1.4,   1.8,  0, 42,  0,  0, 37, 40,  0,  0, 43,  0,  0, 32,  0,  0,  0,  0,  0, 35, 42,  0,  0,  0,  0,  0, 37,  0,  0,  0, 35,  0,  0,  0
6, 4411, 2,KB0G,     0.00, 3,   boost,  101.34,  77393.00, 2215.30,    0.93,    8.23, 31.2, 4.18, 4.24, 4.17, 108.56,  -6.54,   6.96,  62.15,  10.13,  -0.45,  -0.19,   0.05,  -0.97,   2.26, 4.19, 4.19, 0.00, 0.00, 0.00, 1, 1,  7,  37.3838425,-106.1050358,  2374.0, 2020,  8,  8, 17, 25,  8,        0,        0,   0,   0,   2.2,   1.4,   1.8,  0, 42,  0,  0, 37, 40,  0,  0, 43,  0,  0, 32,  0,  0,  0,  0,  0, 35, 42,  0,  0,  0,  0,  0, 37,  0,  0,  0, 35,  0,  0,  0
6, 4411, 2,KB0G,     0.00, 3,   boost,  101.34,  77393.00, 2215.30,    0.93,    8.23, 31.2, 4.18, 4.24, 4.17, 108.56,  -6.54,   6.96,  62.15,  10.13,  -0.45,  -0.19,   0.05,  -0.97,   2.26, 4.19, 4.19, 0.00, 0.00, 0.00, 1, 1,  7,  37.3838425,-106.1050358,  2374.0, 2020,  8,  8, 17, 25,  8,        0,        0,   0,   0,   2.2,   1.4,   1.8,  0, 42,  0,  0, 37, 40,  0,  0, 43,  0,  0, 32,  0,  0,  0,  0,  0, 35, 42,  0,  0,  0,  0,  0, 37,  0,  0,  0, 35,  0,  0,  0
6, 4411, 2,KB0G,     0.00, 3,   boost,  101.34,  77393.00, 2215.30,    0.93,    8.23, 31.2, 4.18, 4.24, 4.17, 108.56,  -6.54,   6.96,  62.15,  10.13,  -0.45,  -0.19,   0.05,  -0.97,   2.26, 4.19, 4.19, 0.00, 0.00, 0.00, 1, 1,  7,  37.3838425,-106.1050358,  2374.0, 2020,  8,  8, 17, 25,  8,        0,        0,   0,   0,   2.2,   1.4,   1.8,  0, 42,  0,  0, 37, 40,  0,  0, 43,  0,  0, 32,  0,  0,  0,  0,  0, 35, 42,  0,  0,  0,  0,  0, 37,  0,  0,  0, 35,  0,  0,  0
6, 4411, 2,KB0G,     0.00, 3,   boost,  101.34,  77393.00, 2215.30,    0.93,    8.23, 31.2, 4.18, 4.24, 4.17, 108.56,  -6.54,   6.96,  62.15,  10.13,  -0.45,  -0.19,   0.05,  -0.97,   2.27, 4.19, 4.19, 0.00, 0.00, 0.00, 1, 1,  7,  37.3838425,-106.1050358,  2374.0, 2020,  8,  8, 17, 25,  8,        0,        0,   0,   0,   2.2,   1.4,   1.8,  0, 42,  0,  0, 37, 40,  0,  0, 43,  0,  0, 32,  0,  0,  0,  0,  0, 35, 42,  0,  0,  0,  0,  0, 37,  0,  0,  0, 35,  0,  0,  0
6, 4411, 2,KB0G,     0.00, 3,   boost,  101.34,  77393.00, 2215.30,    0.93,    8.23, 31.2, 4.18, 4.24, 4.17, 108.56,  -6.54,   6.96,  62.15,  10.13,  -0.45,  -0.19,   0.05,  -0.97,   2.27, 4.19, 4.19, 0.00, 0.00, 0.00, 1, 1,  7,  37.3838425,-106.1050358,  2374.0, 2020,  8,  8, 17, 25,  8,        0,        0,   0,   0,   2.2,   1.4,   1.8,  0, 42,  0,  0, 37, 40,  0,  0, 43,  0,  0, 32,  0,  0,  0,  0,  0, 35, 42,  0,  0,  0,  0,  0, 37,  0,  0,  0, 35,  0,  0,  0
6, 4411, 2,KB0G,     0.00, 3,   boost,  101.34,  77393.00, 2215.30,    0.93,    8.23, 31.2, 4.18, 4.24, 4.17, 108.56,  -6.54,   6.96,  62.15,  10.13,  -0.45,  -0.19,   0.05,  -0.97,   2.26, 4.19, 4.19, 0.00, 0.00, 0.00, 1, 1,  7,  37.3838425,-106.1050358,  2374.0, 2020,  8,  8, 17, 25,  8,        0,        0,   0,   0,   2.2,   1.4,   1.8,  0, 42,  0,  0, 37, 40,  0,  0, 43,  0,  0, 32,  0,  0,  0,  0,  0, 35, 42,  0,  0,  0,  0,  0, 37,  0,  0,  0, 35,  0,  0,  0
6, 4411, 2,KB0G,     0.00, 3,   boost,  101.34,  77393.00, 2215.30,    0.93,    8.23, 31.2, 4.18, 4.24, 4.17, 108.56,  -6.54,   6.96,  62.15,  10.13,  -0.45,  -0.19,   0.05,  -0.97,   2.26, 4.19, 4.19, 0.00, 0.00, 0.00, 1, 1,  7,  37.3838425,-106.1050358,  2374.0, 2020,  8,  8, 17, 25,  8,        0,        0,   0,   0,   2.2,   1.4,   1.8,  0, 42,  0,  0, 37, 40,  0,  0, 43,  0,  0, 32,  0,  0,  0,  0,  0, 35, 42,  0,  0,  0,  0,  0, 37,  0,  0,  0, 35,  0,  0,  0
6, 4411, 2,KB0G,     0.00, 3,   boost,  101.34,  77393.00, 2215.30,    0.93,    8.23, 31.2, 4.18, 4.24, 4.17, 108.56,  -6.54,   6.96,  62.15,  10.13,  -0.45,  -0.19,   0.05,  -0.97,   2.27, 4.19, 4.19, 0.00, 0.00, 0.00, 1, 1,  7,  37.3838425,-106.1050358,  2374.0, 2020,  8,  8, 17, 25,  8,        0,        0,   0,   0,   2.2,   1.4,   1.8,  0, 42,  0,  0, 37, 40,  0,  0, 43,  0,  0, 32,  0,  0,  0,  0,  0, 35, 42,  0,  0,  0,  0,  0, 37,  0,  0,  0, 35,  0,  0,  0
6, 4411, 2,KB0G,     0.00, 3,   boost,  101.34,  77393.00, 2215.30,    0.93,    8.23, 31.2, 4.18, 4.24, 4.17, 108.56,  -6.54,   6.96,  62.15,  10.13,  -0.45,  -0.19,   0.05,  -0.97,   2.27, 4.19, 4.19, 0.00, 0.00, 0.00, 1, 1,  7,  37.3838425,-106.1050358,  2374.0, 2020,  8,  8, 17, 25,  8,        0,        0,   0,   0,   2.2,   1.4,   1.8,  0, 42,  0,  0, 37, 40,  0,  0, 43,  0,  0, 32,  0,  0,  0,  0,  0, 35, 42,  0,  0,  0,  0,  0, 37,  0,  0,  0, 35,  0,  0,  0
6, 4411, 2,KB0G,     0.00, 3,   boost,  101.34,  77393.00, 2215.30,    0.93,    8.23, 31.2, 4.18, 4.24, 4.17, 108.56,  -6.54,   6.96,  62.15,  10.13,  -0.45,  -0.19,   0.05,  -0.97,   2.26, 4.19, 4.19, 0.00, 0.00, 0.00, 1, 1,  7,  37.3838425,-106.1050358,  2374.0, 2020,  8,  8, 17, 25,  8,        0,        0,   0,   0,   2.2,   1.4,   1.8,  0, 42,  0,  0, 37, 40,  0,  0, 43,  0,  0, 32,  0,  0,  0,  0,  0, 35, 42,  0,  0,  0,  0,  0, 37,  0,  0,  0, 35,  0,  0,  0
6, 4411, 2,KB0G,     0.00, 3,   boost,  101.34,  77393.00, 2215.30,    0.93,    8.23, 31.2, 4.18, 4.24, 4.17, 108.56,  -6.54,   6.96,  62.15,  10.13,  -0.45,  -0.19,   0.05,  -0.97,   2.37, 4.19, 4.19, 0.00, 0.00, 0.00, 1, 1,  7,  37.3838425,-106.1050358,  2374.0, 2020,  8,  8, 17, 25,  8,        0,        0,   0,   0,   2.2,   1.4,   1.8,  0, 42,  0,  0, 37, 40,  0,  0, 43,  0,  0, 32,  0,  0,  0,  0,  0, 35, 42,  0,  0,  0,  0,  0, 37,  0,  0,  0, 35,  0,  0,  0
6, 4411, 2,KB0G,     0.00, 3,   boost,  101.34,  77393.00, 2215.30,    0.93,    8.23, 31.2, 4.18, 4.24, 4.17, 108.56,  -6.54,   6.96,  62.15,  10.13,  -0.45,  -0.19,   0.05,  -0.97,   2.23, 4.19, 4.19, 0.00, 0.00, 0.00, 1, 1,  7,  37.3838425,-106.1050358,  2374.0, 2020,  8,  8, 17, 25,  8,        0,        0,   0,   0,   2.2,   1.4,   1.8,  0, 42,  0,  0, 37, 40,  0,  0, 43,  0,  0, 32,  0,  0,  0,  0,  0, 35, 42,  0,  0,  0,  0,  0, 37,  0,  0,  0, 35,  0,  0,  0
6, 4411, 2,KB0G,     0.00, 3,   boost,  101.34,  77393.00, 2215.30,    0.93,    8.23, 31.2, 4.18, 4.24, 4.17, 108.56,  -6.54,   6.96,  62.15,  10.13,  -0.45,  -0.19,   0.05,  -0.97,   2.47, 4.19, 4.19, 0.00, 0.00, 0.00, 1, 1,  7,  37.3838425,-106.1050358,  2374.0, 2020,  8,  8, 17, 25,  8,        0,        0,   0,   0,   2.2,   1.4,   1.8,  0, 42,  0,  0, 37, 40,  0,  0, 43,  0,  0, 32,  0,  0,  0,  0,  0, 35, 42,  0,  0,  0,  0,  0, 37,  0,  0,  0, 35,  0,  0,  0
6, 4411, 2,KB0G,     0.00, 3,   boost,  101.34,  77393.00, 2215.30,    0.93,    8.23, 31.2, 4.18, 4.24, 4.17, 108.56,  -6.54,   6.96,  62.15,  10.13,  -0.45,  -0.19,   0.05,  -0.97,   2.76, 4.19, 4.19, 0.00, 0.00, 0.00, 1, 1,  7,  37.3838425,-106.1050358,  2374.0, 2020,  8,  8, 17, 25,  8,        0,        0,   0,   0,   2.2,   1.4,   1.8,  0, 42,  0,  0, 37, 40,  0,  0, 43,  0,  0, 32,  0,  0,  0,  0,  0, 35, 42,  0,  0,  0,  0,  0, 37,  0,  0,  0, 35,  0,  0,  0
6, 4411, 2,KB0G,     0.00, 3,   boost,  101.34,  77393.00, 2215.30,    0.93,    8.23, 31.2, 4.18, 4.24, 4.17, 108.56,  -6.54,   6.96,  62.15,  10.13,  -0.45,  -0.19,   0.05,  -0.97,   2.78, 4.19, 4.19, 0.00, 0.00, 0.00, 1, 1,  7,  37.3838425,-106.1050358,  2374.0, 2020,  8,  8, 17, 25,  8,        0,        0,   0,   0,   2.2,   1.4,   1.8,  0, 42,  0,  0, 37, 40,  0,  0, 43,  0,  0, 32,  0,  0,  0,  0,  0, 35, 42,  0,  0,  0,  0,  0, 37,  0,  0,  0, 35,  0,  0,  0
6, 4411, 2,KB0G,     0.00, 3,   boost,  101.34,  77393.00, 2215.30,    0.93,    8.23, 31.2, 4.18, 4.24, 4.17, 108.56,  -6.54,   6.96,  62.15,  10.13,  -0.45,  -0.19,   0.05,  -0.97,   2.60, 4.19, 4.19, 0.00, 0.00, 0.00, 1, 1,  7,  37.3838425,-106.1050358,  2374.0, 2020,  8,  8, 17, 25,  8,        0,        0,   0,   0,   2.2,   1.4,   1.8,  0, 42,  0,  0, 37, 40,  0,  0, 43,  0,  0, 32,  0,  0,  0,  0,  0, 35, 42,  0,  0,  0,  0,  0, 37,  0,  0,  0, 35,  0,  0,  0
6, 4411, 2,KB0G,     0.00, 3,   boost,  101.34,  77393.00, 2215.30,    0.93,    8.23, 31.2, 4.18, 4.24, 4.17, 108.56,  -6.54,   6.96,  62.15,  10.13,  -0.45,  -0.19,   0.05,  -0.97,   2.56, 4.19, 4.19, 0.00, 0.00, 0.00, 1, 1,  7,  37.3838425,-106.1050358,  2374.0, 2020,  8,  8, 17, 25,  8,        0,        0,   0,   0,   2.2,   1.4,   1.8,  0, 42,  0,  0, 37, 40,  0,  0, 43,  0,  0, 32,  0,  0,  0,  0,  0, 35, 42,  0,  0,  0,  0,  0, 37,  0,  0,  0, 35,  0,  0,  0
6, 4411, 2,KB0G,     0.00, 3,   boost,  101.34,  77393.00, 2215.30,    0.93,    8.23, 31.2, 4.18, 4.24, 4.17, 108.56,  -6.54,   6.96,  62.15,  10.13,  -0.45,  -0.19,   0.05,  -0.97,   2.57, 4.19, 4.19, 0.00, 0.00, 0.00, 1, 1,  7,  37.3838425,-106.1050358,  2374.0, 2020,  8,  8, 17, 25,  8,        0,        0,   0,   0,   2.2,   1.4,   1.8,  0, 42,  0,  0, 37, 40,  0,  0, 43,  0,  0, 32,  0,  0,  0,  0,  0, 35, 42,  0,  0,  0,  0,  0, 37,  0,  0,  0, 35,  0,  0,  0
6, 4411, 2,KB0G,     0.00, 3,   boost,  101.34,  77393.00, 2215.30,    0.93,    8.23, 31.2, 4.18, 4.24, 4.17, 108.56,  -6.54,   6.96,  62.15,  10.13,  -0.45,  -0.19,   0.05,  -0.97,   2.50, 4.19, 4.19, 0.00, 0.00, 0.00, 1, 1,  7,  37.3838425,-106.1050358,  2374.0, 2020,  8,  8, 17, 25,  8,        0,        0,   0,   0,   2.2,   1.4,   1.8,  0, 42,  0,  0, 37, 40,  0,  0, 43,  0,  0, 32,  0,  0,  0,  0,  0, 35, 42,  0,  0,  0,  0,  0, 37,  0,  0,  0, 35,  0,  0,  0
6, 4411, 2,KB0G,     0.00, 3,   boost,  101.34,  77393.00, 2215.30,    0.93,    8.23, 31.2, 4.18, 4.24, 4.17, 108.56,  -6.54,   6.96,  62.15,  10.13,  -0.45,  -0.19,   0.05,  -0.97,   2.66, 4.19, 4.19, 0.00, 0.00, 0.00, 1, 1,  7,  37.3838425,-106.1050358,  2374.0, 2020,  8,  8, 17, 25,  8,        0,        0,   0,   0,   2.2,   1.4,   1.8,  0, 42,  0,  0, 37, 40,  0,  0, 43,  0,  0, 32,  0,  0,  0,  0,  0, 35, 42,  0,  0,  0,  0,  0, 37,  0,  0,  0, 35,  0,  0,  0
6, 4411, 2,KB0G,     0.00, 3,   boost,  101.34,  77393.00, 2215.30,    0.93,    8.23, 31.2, 4.18, 4.24, 4.17, 108.56,  -6.54,   6.96,  62.15,  10.13,  -0.45,  -0.19,   0.05,  -0.97,   2.59, 4.19, 4.19, 0.00, 0.00, 0.00, 1, 1,  7,  37.3838425,-106.1050358,  2374.0, 2020,  8,  8, 17, 25,  8,        0,        0,   0,   0,   2.2,   1.4,   1.8,  0, 42,  0,  0, 37, 40,  0,  0, 43,  0,  0, 32,  0,  0,  0,  0,  0, 35, 42,  0,  0,  0,  0,  0, 37,  0,  0,  0, 35,  0,  0,  0
6, 4411, 2,KB0G,     0.00, 3,   boost,  101.34,  77393.00, 2215.30,    0.93,    8.23, 31.2, 4.18, 4.24, 4.17, 108.56,  -6.54,   6.96,  62.15,  10.13,  -0.45,  -0.19,   0.05,  -0.97,   2.55, 4.19, 4.19, 0.00, 0.00, 0.00, 1, 1,  7,  37.3838425,-106.1050358,  2374.0, 2020,  8,  8, 17, 25,  8,        0,        0,   0,   0,   2.2,   1.4,   1.8,  0, 42,  0,  0, 37, 40,  0,  0, 43,  0,  0, 32,  0,  0,  0,  0,  0, 35, 42,  0,  0,  0,  0,  0, 37,  0,  0,  0, 35,  0,  0,  0
6, 4411, 2,KB0G,     0.00, 3,   boost,  101.34,  77393.00, 2215.30,    0.93,    8.23, 31.2, 4.18, 4.24, 4.17, 108.56,  -6.54,   6.96,  62.15,  10.13,  -0.45,  -0.19,   0.05,  -0.97,   2.68, 4.19, 4.19, 0.00, 0.00, 0.00, 1, 1,  7,  37.3838425,-106.1050358,  2374.0, 2020,  8,  8, 17, 25,  8,        0,        0,   0,   0,   2.2,   1.4,   1.8,  0, 42,  0,  0, 37, 40,  0,  0, 43,  0,  0, 32,  0,  0,  0,  0,  0, 35, 42,  0,  0,  0,  0,  0, 37,  0,  0,  0, 35,  0,  0,  0
6, 4411, 2,KB0G,     0.00, 3,   boost,  101.34,  77393.00, 2215.30,    0.93,    8.23, 31.2, 4.18, 4.24, 4.17, 108.56,  -6.54,   6.96,  62.15,  10.13,  -0.45,  -0.19,   0.05,  -0.97,   2.55, 4.19, 4.19, 0.00, 0.00, 0.00, 1, 1,  7,  37.3838425,-106.1050358,  2374.0, 2020,  8,  8, 17, 25,  8,        0,        0,   0,   0,   2.2,   1.4,   1.8,  0, 42,  0,  0, 37, 40,  0,  0, 43,  0,  0, 32,  0,  0,  0,  0,  0, 35, 42,  0,  0,  0,  0,  0, 37,  0,  0,  0, 35,  0,  0,  0
6, 4411, 2,KB0G,     0.00, 3,   boost,  101.34,  77393.00, 2215.30,    0.93,    8.23, 31.2, 4.18, 4.24, 4.17, 108.56,  -6.54,   6.96,  62.15,  10.13,  -0.45,  -0.19,   0.05,  -0.97,   2.69, 4.19, 4.19, 0.00, 0.00, 0.00, 1, 1,  7,  37.3838425,-106.1050358,  2374.0, 2020,  8,  8, 17, 25,  8,        0,        0,   0,   0,   2.2,   1.4,   1.8,  0, 42,  0,  0, 37, 40,  0,  0, 43,  0,  0, 32,  0,  0,  0,  0,  0, 35, 42,  0,  0,  0,  0,  0, 37,  0,  0,  0, 35,  0,  0,  0
6, 4411, 2,KB0G,     0.00, 3,   boost,  101.34,  77393.00, 2215.30,    0.93,    8.23, 31.2, 4.18, 4.24, 4.17, 108.56,  -6.54,   6.96,  62.15,  10.13,  -0.45,  -0.19,   0.05,  -0.97,   2.63, 4.19, 4.19, 0.00, 0.00, 0.00, 1, 1,  7,  37.3838425,-106.1050358,  2374.0, 2020,  8,  8, 17, 25,  8,        0,        0,   0,   0,   2.2,   1.4,   1.8,  0, 42,  0,  0, 37, 40,  0,  0, 43,  0,  0, 32,  0,  0,  0,  0,  0, 35, 42,  0,  0,  0,  0,  0, 37,  0,  0,  0, 35,  0,  0,  0
6, 4411, 2,KB0G,     0.01, 3,   boost,  101.34,  77399.00, 2214.68,    0.31,    9.22, 31.2, 4.18, 4.24, 4.17, 108.85,   2.09,   0.85,  30.35, -14.40,   5.83,  -0.18,   0.05,  -0.99,   2.68, 4.19, 4.19, 0.00, 0.00, 0.00, 1, 1,  7,  37.3838425,-106.1050358,  2374.0, 2020,  8,  8, 17, 25,  8,        0,        0,   0,   0,   2.2,   1.4,   1.8,  0, 42,  0,  0, 37, 40,  0,  0, 43,  0,  0, 32,  0,  0,  0,  0,  0, 35, 42,  0,  0,  0,  0,  0, 37,  0,  0,  0, 35,  0,  0,  0
6, 4411, 2,KB0G,     0.01, 3,   boost,  101.34,  77399.00, 2214.68,    0.31,    9.22, 31.2, 4.18, 4.24, 4.17, 108.85,   2.09,   0.85,  30.35, -14.40,   5.83,  -0.18,   0.05,  -0.99,   2.68, 4.19, 4.19, 0.00, 0.00, 0.00, 1, 1,  7,  37.3838425,-106.1050358,  2374.0, 2020,  8,  8, 17, 25,  8,        0,        0,   0,   0,   2.2,   1.4,   1.8,  0, 42,  0,  0, 37, 40,  0,  0, 43,  0,  0, 32,  0,  0,  0,  0,  0, 35, 42,  0,  0,  0,  0,  0, 37,  0,  0,  0, 35,  0,  0,  0
6, 4411, 2,KB0G,     0.02, 3,   boost,  101.88,  77392.00, 2215.40,    1.04,   10.22, 31.2, 4.17, 4.18, 4.18, 116.45,   3.67,   6.32,  19.60, -18.43,  -6.92,  -0.19,   0.04,  -1.02,   2.85, 4.18, 4.20, 0.09, 0.00, 0.00, 1, 1,  7,  37.3838425,-106.1050358,  2374.0, 2020,  8,  8, 17, 25,  8,        0,        0,   0,   0,   2.2,   1.4,   1.8,  0, 42,  0,  0, 37, 40,  0,  0, 43,  0,  0, 32,  0,  0,  0,  0,  0, 35, 42,  0,  0,  0,  0,  0, 37,  0,  0,  0, 35,  0,  0,  0
6, 4411, 2,KB0G,     0.02, 3,   boost,  101.88,  77392.00, 2215.40,    1.04,   10.22, 31.2, 4.17, 4.18, 4.18, 116.45,   3.67,   6.32,  19.60, -18.43,  -6.92,  -0.19,   0.04,  -1.02,   2.85, 4.18, 4.20, 0.09, 0.00, 0.00, 1, 1,  7,  37.3838425,-106.1050358,  2374.0, 2020,  8,  8, 17, 25,  8,        0,        0,   0,   0,   2.2,   1.4,   1.8,  0, 42,  0,  0, 37, 40,  0,  0, 43,  0,  0, 32,  0,  0,  0,  0,  0, 35, 42,  0,  0,  0,  0,  0, 37,  0,  0,  0, 35,  0,  0,  0
6, 4411, 2,KB0G,     0.03, 3,   boost,   95.34,  77373.00, 2217.37,    3.00,   11.22, 31.2, 4.17, 4.18, 4.18, 107.46,  -4.08,  -3.71,   6.18,  -4.15,  -6.80,  -0.19,   0.04,  -0.97,   2.93, 4.18, 4.20, 0.09, 0.00, 0.00, 1, 1,  7,  37.3838425,-106.1050358,  2374.0, 2020,  8,  8, 17, 25,  8,        0,        0,   0,   0,   2.2,   1.4,   1.8,  0, 42,  0,  0, 37, 40,  0,  0, 43,  0,  0, 32,  0,  0,  0,  0,  0, 35, 42,  0,  0,  0,  0,  0, 37,  0,  0,  0, 35,  0,  0,  0
6, 4411, 2,KB0G,     0.04, 3,   boost,  102.43,  77381.00, 2216.54,    2.17,   12.22, 31.2, 4.17, 4.18, 4.18, 107.29,  -7.95,  17.97,  14.78,  23.44,  -1.06,  -0.18,   0.05,  -0.97,   2.79, 4.18, 4.20, 0.09, 0.00, 0.00, 1, 1,  7,  37.3838425,-106.1050358,  2374.0, 2020,  8,  8, 17, 25,  8,        0,        0,   0,   0,   2.2,   1.4,   1.8,  0, 42,  0,  0, 37, 40,  0,  0, 43,  0,  0, 32,  0,  0,  0,  0,  0, 35, 42,  0,  0,  0,  0,  0, 37,  0,  0,  0, 35,  0,  0,  0
6, 4411, 2,KB0G,     0.05, 3,   boost,   99.16,  77380.00, 2216.65,    2.28,   13.22, 31.2, 4.17, 4.18, 4.18, 114.12,  -4.99, -11.73,  16.67, -30.82,   0.89,  -0.18,   0.04,  -0.98,   2.98, 4.18, 4.20, 0.09, 0.00, 0.00, 1, 1,  7,  37.3838425,-106.1050358,  2374.0, 2020,  8,  8, 17, 25,  8,        0,        0,   0,   0,   2.2,   1.4,   1.8,  0, 42,  0,  0, 37, 40,  0,  0, 43,  0,  0, 32,  0,  0,  0,  0,  0, 35, 42,  0,  0,  0,  0,  0, 37,  0,  0,  0, 35,  0,  0,  0
6, 4411, 2,KB0G,     0.06, 3,   boost,  102.97,  77377.00, 2216.96,    2.59,   14.23, 31.2, 4.17, 4.18, 4.18, 110.48,   1.09,  27.78,   3.49,  43.89,  -4.42,  -0.19,   0.04,  -1.00,   2.74, 4.18, 4.20, 0.09, 0.00, 0.00, 1, 1,  7,  37.3838425,-106.1050358,  2374.0, 2020,  8,  8, 17, 25,  8,        0,        0,   0,   0,   2.2,   1.4,   1.8,  0, 42,  0,  0, 37, 40,  0,  0, 43,  0,  0, 32,  0,  0,  0,  0,  0, 35, 42,  0,  0,  0,  0,  0, 37,  0,  0,  0, 35,  0,  0,  0
6, 4411, 2,KB0G,     0.07, 3,   boost,   98.61,  77387.00, 2215.92,    1.55,   15.23, 31.2, 4.17, 4.18, 4.18, 113.09,  -1.03, -19.21, -28.07, -49.14,  -5.70,  -0.19,   0.05,  -0.96,   3.09, 4.18, 4.20, 0.09, 0.00, 0.00, 1, 1,  7,  37.3838425,-106.1050358,  2374.0, 2020,  8,  8, 17, 25,  8,        0,        0,   0,   0,   2.2,   1.4,   1.8,  0, 42,  0,  0, 37, 40,  0,  0, 43,  0,  0, 32,  0,  0,  0,  0,  0, 35, 42,  0,  0,  0,  0,  0, 37,  0,  0,  0, 35,  0,  0,  0
6, 4411, 2,KB0G,     0.08, 3,   boost,  103.51,  77370.00, 2217.68,    3.31,   16.24, 31.2, 4.17, 4.18, 4.18, 106.06, -11.70,  23.62, -37.47,  53.10,  -1.12,  -0.17,   0.04,  -1.00,   2.77, 4.18, 4.20, 0.09, 0.00, 0.00, 1, 1,  7,  37.3838425,-106.1050358,  2374.0, 2020,  8,  8, 17, 25,  8,        0,        0,   0,   0,   2.2,   1.4,   1.8,  0, 42,  0,  0, 37, 40,  0,  0, 43,  0,  0, 32,  0,  0,  0,  0,  0, 35, 42,  0,  0,  0,  0,  0, 37,  0,  0,  0, 35,  0,  0,  0
6, 4411, 2,KB0G,     0.09, 3,   boost,   98.61,  77376.00, 2217.06,    2.69,   17.25, 31.2, 4.17, 4.18, 4.18, 113.39,  -8.04, -24.46, -16.96, -57.13,  -2.04,  -0.19,   0.03,  -1.01,   3.14, 4.18, 4.20, 0.09, 0.00, 0.00, 1, 1,  7,  37.3838425,-106.1050358,  2374.0, 2020,  8,  8, 17, 25,  8,        0,        0,   0,   0,   2.2,   1.4,   1.8,  0, 42,  0,  0, 37, 40,  0,  0, 43,  0,  0, 32,  0,  0,  0,  0,  0, 35, 42,  0,  0,  0,  0,  0, 37,  0,  0,  0, 35,  0,  0,  0
6, 4411, 2,KB0G,     0.10, 3,   boost,  101.88,  77375.00, 2217.16,    2.80,   18.25, 31.2, 4.17, 4.18, 4.18, 108.05,  -5.60,  22.42,   8.92,  51.82,   5.53,  -0.19,   0.05,  -0.98,   2.77, 4.18, 4.20, 0.09, 0.00, 0.00, 1, 1,  7,  37.3838425,-106.1050358,  2374.0, 2020,  8,  8, 17, 25,  8,        0,        0,   0,   0,   2.2,   1.4,   1.8,  0, 42,  0,  0, 37, 40,  0,  0, 43,  0,  0, 32,  0,  0,  0,  0,  0, 35, 42,  0,  0,  0,  0,  0, 37,  0,  0,  0, 35,  0,  0,  0
6, 4411, 2,KB0G,     0.11, 3,   boost,  100.25,  77385.00, 2216.13,    1.76,   19.26, 31.2, 4.17, 4.18, 4.18, 112.71,   4.65,  -9.52,   9.65, -35.89,  -4.91,  -0.19,   0.05,  -0.97,   3.03, 4.18, 4.20, 0.09, 0.00, 0.00, 1, 1,  7,  37.3838425,-106.1050358,  2374.0, 2020,  8,  8, 17, 25,  8,        0,        0,   0,   0,   2.2,   1.4,   1.8,  0, 42,  0,  0, 37, 40,  0,  0, 43,  0,  0, 32,  0,  0,  0,  0,  0, 35, 42,  0,  0,  0,  0,  0, 37,  0,  0,  0, 35,  0,  0,  0
6, 4411, 2,KB0G,     0.12, 3,   boost,  100.25,  77383.00, 2216.34,    1.97,   20.26, 31.2, 4.17, 4.18, 4.18, 106.36,  -4.05,  14.26,   0.50,  40.28,   6.14,  -0.19,   0.04,  -0.98,   2.74, 4.18, 4.20, 0.09, 0.00, 0.00, 1, 1,  7,  37.3838425,-106.1050358,  2374.0, 2020,  8,  8, 17, 25,  8,        0,        0,   0,   0,   2.2,   1.4,   1.8,  0, 42,  0,  0, 37, 40,  0,  0, 43,  0,  0, 32,  0,  0,  0,  0,  0, 35, 42,  0,  0,  0,  0,  0, 37,  0,  0,  0, 35,  0,  0,  0
6, 4411, 2,KB0G,     0.13, 3,   boost,  100.79,  77349.00, 2219.86,    5.49,   21.27, 31.2, 4.17, 4.18, 4.18, 109.77, -17.03,  -1.59,  16.55, -27.71,   9.80,  -0.18,   0.06,  -0.98,   2.83, 4.18, 4.20, 0.09, 0.00, 0.00, 1, 1,  7,  37.3838425,-106.1050358,  2374.0, 2020,  8,  8, 17, 25,  8,        0,        0,   0,   0,   2.2,   1.4,   1.8,  0, 42,  0,  0, 37, 40,  0,  0, 43,  0,  0, 32,  0,  0,  0,  0,  0, 35, 42,  0,  0,  0,  0,  0, 37,  0,  0,  0, 35,  0,  0,  0
6, 4411, 2,KB0G,     0.14, 3,   boost,  100.79,  77370.00, 2217.68,    3.31,   22.28, 31.2, 4.17, 4.18, 4.18, 114.01,   6.55,  -3.19,  20.52,  -7.57,  10.84,  -0.19,   0.04,  -0.98,   2.80, 4.18, 4.20, 0.09, 0.00, 0.00, 1, 1,  7,  37.3838425,-106.1050358,  2374.0, 2020,  8,  8, 17, 25,  8,        0,        0,   0,   0,   2.2,   1.4,   1.8,  0, 42,  0,  0, 37, 40,  0,  0, 43,  0,  0, 32,  0,  0,  0,  0,  0, 35, 42,  0,  0,  0,  0,  0, 37,  0,  0,  0, 35,  0,  0,  0
6, 4411, 2,KB0G,     0.15, 3,   boost,  101.88,  77363.00, 2218.41,    4.04,   23.28, 31.2, 4.17, 4.18, 4.18, 109.30, -10.49,  15.20,  14.48,  40.83,  12.61,  -0.19,   0.05,  -0.97,   2.44, 4.18, 4.20, 0.09, 0.00, 0.00, 1, 1,  7,  37.3838425,-106.1050358,  2374.0, 2020,  8,  8, 17, 25,  8,        0,        0,   0,   0,   2.2,   1.4,   1.8,  0, 42,  0,  0, 37, 40,  0,  0, 43,  0,  0, 32,  0,  0,  0,  0,  0, 35, 42,  0,  0,  0,  0,  0, 37,  0,  0,  0, 35,  0,  0,  0
6, 4411, 2,KB0G,     0.16, 3,   boost,   99.70,  77371.00, 2217.58,    3.21,   24.30, 31.2, 4.17, 4.18, 4.18, 112.02,  13.42, -12.71,  18.63, -39.12,   7.60,  -0.17,   0.05,  -0.99,   2.64, 4.18, 4.20, 0.09, 0.00, 0.00, 1, 1,  7,  37.3838425,-106.1050358,  2374.0, 2020,  8,  8, 17, 25,  8,        0,        0,   0,   0,   2.2,   1.4,   1.8,  0, 42,  0,  0, 37, 40,  0,  0, 43,  0,  0, 32,  0,  0,  0,  0,  0, 35, 42,  0,  0,  0,  0,  0, 37,  0,  0,  0, 35,  0,  0,  0
6, 4411, 2,KB0G,     0.17, 3,   boost,  101.88,  77355.00, 2219.24,    4.87,   25.32, 31.2, 4.17, 4.18, 4.18, 110.42,   7.18,  10.92,  21.74,  60.37,   1.32,  -0.20,   0.04,  -1.01,   2.24, 4.18, 4.20, 0.09, 0.00, 0.00, 1, 1,  7,  37.3838425,-106.1050358,  2374.0, 2020,  8,  8, 17, 25,  8,        0,        0,   0,   0,   2.2,   1.4,   1.8,  0, 42,  0,  0, 37, 40,  0,  0, 43,  0,  0, 32,  0,  0,  0,  0,  0, 35, 42,  0,  0,  0,  0,  0, 37,  0,  0,  0, 35,  0,  0,  0
6, 4411, 2,KB0G,     0.18, 3,   boost,  102.43,  77341.00, 2220.69,    6.32,   26.35, 31.2, 4.17, 4.18, 4.18, 113.62,  -4.65,   9.55,  18.63, -12.82,   4.49,  -0.20,   0.06,  -0.97,   2.28, 4.18, 4.20, 0.09, 0.00, 0.00, 1, 1,  7,  37.3838425,-106.1050358,  2374.0, 2020,  8,  8, 17, 25,  8,        0,        0,   0,   0,   2.2,   1.4,   1.8,  0, 42,  0,  0, 37, 40,  0,  0, 43,  0,  0, 32,  0,  0,  0,  0,  0, 35, 42,  0,  0,  0,  0,  0, 37,  0,  0,  0, 35,  0,  0,  0
6, 4411, 2,KB0G,     0.18, 3,   boost,  102.43,  77341.00, 2220.69,    6.32,   26.35, 31.2, 4.17, 4.18, 4.18, 113.62,  -4.65,   9.55,  18.63, -12.82,   4.49,  -0.20,   0.06,  -0.97,   2.28, 4.18, 4.20, 0.09, 0.00, 0.00, 1, 1,  7,  37.3838425,-106.1050358,  2374.0, 2020,  8,  8, 17, 25,  8,        0,        0,   0,   0,   2.2,   1.4,   1.8,  0, 42,  0,  0, 37, 40,  0,  0, 43,  0,  0, 32,  0,  0,  0,  0,  0, 35, 42,  0,  0,  0,  0,  0, 37,  0,  0,  0, 35,  0,  0,  0
6, 4411, 2,KB0G,     0.18, 3,   boost,  102.43,  77341.00, 2220.69,    6.32,   26.35, 31.2, 4.17, 4.18, 4.18, 113.62,  -4.65,   9.55,  18.63, -12.82,   4.49,  -0.20,   0.06,  -0.97,   2.28, 4.18, 4.20, 0.09, 0.00, 0.00, 1, 1,  7,  37.3838425,-106.1050358,  2374.0, 2020,  8,  8, 17, 25,  8,        0,        0,   0,   0,   2.2,   1.4,   1.8,  0, 42,  0,  0, 37, 40,  0,  0, 43,  0,  0, 32,  0,  0,  0,  0,  0, 35, 42,  0,  0,  0,  0,  0, 37,  0,  0,  0, 35,  0,  0,  0
6, 4411, 2,KB0G,     0.19, 3,   boost,  105.69,  77367.00, 2217.99,    3.62,   27.39, 31.2, 4.17, 4.18, 4.18, 112.62,  -3.89, -14.52, -22.94, -21.00,  19.87,  -0.18,   0.04,  -1.00,   2.26, 4.18, 4.20, 0.09, 0.00, 0.00, 1, 1,  7,  37.3838580,-106.1050186,  2380.0, 2020,  8,  8, 17, 25,  9,        2,        6,  41,  69,   2.2,   1.4,   1.8,  0, 39,  0,  0, 38, 40,  0,  0, 41,  0,  0, 28,  0,  0,  0,  0,  0, 31, 40,  0,  0,  0,  0,  0, 32,  0,  0,  0, 32,  0,  0,  0
6, 4411, 2,KB0G,     0.20, 3,   boost,  110.05,  77355.00, 2219.24,    4.87,   28.43, 31.2, 4.17, 4.18, 4.18, 112.50,  -2.39,  27.79, -13.36,  41.63, -20.11,  -0.20,   0.03,  -1.01,   2.16, 4.18, 4.20, 0.09, 0.00, 0.00, 1, 1,  7,  37.3838580,-106.1050186,  2380.0, 2020,  8,  8, 17, 25,  9,        2,        6,  41,  69,   2.2,   1.4,   1.8,  0, 39,  0,  0, 38, 40,  0,  0, 41,  0,  0, 28,  0,  0,  0,  0,  0, 31, 40,  0,  0,  0,  0,  0, 32,  0,  0,  0, 32,  0,  0,  0
6, 4411, 2,KB0G,     0.21, 3,   boost,  102.97,  77345.00, 2220.27,    5.90,   29.48, 31.2, 4.17, 4.18, 4.18, 124.26,   4.11, -13.80,  -2.31, -64.33,  -9.85,  -0.19,   0.04,  -0.97,   2.64, 4.18, 4.20, 0.09, 0.00, 0.00, 1, 1,  7,  37.3838580,-106.1050186,  2380.0, 2020,  8,  8, 17, 25,  9,        2,        6,  41,  69,   2.2,   1.4,   1.8,  0, 39,  0,  0, 38, 40,  0,  0, 41,  0,  0, 28,  0,  0,  0,  0,  0, 31, 40,  0,  0,  0,  0,  0, 32,  0,  0,  0, 32,  0,  0,  0
6, 4411, 2,KB0G,     0.22, 3,   boost,  104.06,  77335.00, 2221.31,    6.94,   30.53, 31.2, 4.17, 4.18, 4.18, 110.17,  -2.25,  13.39,   2.03,  68.36,   5.71,  -0.20,   0.04,  -0.97,   2.18, 4.18, 4.20, 0.09, 0.00, 0.00, 1, 1,  7,  37.3838580,-106.1050186,  2380.0, 2020,  8,  8, 17, 25,  9,        2,        6,  41,  69,   2.2,   1.4,   1.8,  0, 39,  0,  0, 38, 40,  0,  0, 41,  0,  0, 28,  0,  0,  0,  0,  0, 31, 40,  0,  0,  0,  0,  0, 32,  0,  0,  0, 32,  0,  0,  0
6, 4411, 2,KB0G,     0.23, 3,   boost,  104.06,  77333.00, 2221.52,    7.15,   31.58, 31.2, 4.17, 4.18, 4.18, 117.67,  -5.04, -10.38,  11.73, -52.86,  -5.03,  -0.19,   0.06,  -0.98,   2.53, 4.18, 4.20, 0.09, 0.00, 0.00, 1, 1,  7,  37.3838580,-106.1050186,  2380.0, 2020,  8,  8, 17, 25,  9,        2,        6,  41,  69,   2.2,   1.4,   1.8,  0, 39,  0,  0, 38, 40,  0,  0, 41,  0,  0, 28,  0,  0,  0,  0,  0, 31, 40,  0,  0,  0,  0,  0, 32,  0,  0,  0, 32,  0,  0,  0
6, 4411, 2,KB0G,     0.24, 3,   boost,  104.06,  77325.00, 2222.34,    7.97,   32.63, 31.2, 4.17, 4.18, 4.18, 113.23,   4.70,  10.39,   9.35,  52.19,   0.77,  -0.19,   0.04,  -0.97,   2.22, 4.18, 4.20, 0.09, 0.00, 0.00, 1, 1,  7,  37.3838580,-106.1050186,  2380.0, 2020,  8,  8, 17, 25,  9,        2,        6,  41,  69,   2.2,   1.4,   1.8,  0, 39,  0,  0, 38, 40,  0,  0, 41,  0,  0, 28,  0,  0,  0,  0,  0, 31, 40,  0,  0,  0,  0,  0, 32,  0,  0,  0, 32,  0,  0,  0
6, 4411, 2,KB0G,     0.25, 3,   boost,  106.78,  77328.00, 2222.03,    7.66,   33.68, 31.2, 4.17, 4.18, 4.18, 115.00,  -0.22,  -0.44,  10.20, -35.40,  -4.42,  -0.18,   0.05,  -0.97,   2.45, 4.18, 4.20, 0.09, 0.00, 0.00, 1, 1,  7,  37.3838580,-106.1050186,  2380.0, 2020,  8,  8, 17, 25,  9,        2,        6,  41,  69,   2.2,   1.4,   1.8,  0, 39,  0,  0, 38, 40,  0,  0, 41,  0,  0, 28,  0,  0,  0,  0,  0, 31, 40,  0,  0,  0,  0,  0, 32,  0,  0,  0, 32,  0,  0,  0
6, 4411, 2,KB0G,     0.26, 3,   boost,  105.69,  77310.00, 2223.90,    9.53,   34.73, 31.2, 4.17, 4.18, 4.18, 117.22,  -3.63,  -2.27,  10.20,   7.26,   0.04,  -0.19,   0.06,  -0.96,   2.41, 4.18, 4.20, 0.09, 0.00, 0.00, 1, 1,  7,  37.3838580,-106.1050186,  2380.0, 2020,  8,  8, 17, 25,  9,        2,        6,  41,  69,   2.2,   1.4,   1.8,  0, 39,  0,  0, 38, 40,  0,  0, 41,  0,  0, 28,  0,  0,  0,  0,  0, 31, 40,  0,  0,  0,  0,  0, 32,  0,  0,  0, 32,  0,  0,  0
6, 4411, 2,KB0G,     0.27, 3,   boost,  105.69,  77320.00, 2222.86,    8.49,   35.79, 31.2, 4.17, 4.18, 4.18, 113.75,  -5.17,   4.70,  10.75,  10.44,  -2.28,  -0.16,   0.05,  -0.99,   2.37, 4.18, 4.20, 0.09, 0.00, 0.00, 1, 1,  7,  37.3838580,-106.1050186,  2380.0, 2020,  8,  8, 17, 25,  9,        2,        6,  41,  69,   2.2,   1.4,   1.8,  0, 39,  0,  0, 38, 40,  0,  0, 41,  0,  0, 28,  0,  0,  0,  0,  0, 31, 40,  0,  0,  0,  0,  0, 32,  0,  0,  0, 32,  0,  0,  0
6, 4411, 2,KB0G,     0.28, 3,   boost,  107.87,  77319.00, 2222.97,    8.60,   36.85, 31.2, 4.17, 4.18, 4.18, 114.29,   0.83,   6.23,  11.24,  -3.42,  -0.70,  -0.19,   0.04,  -1.01,   2.39, 4.18, 4.20, 0.09, 0.00, 0.00, 1, 1,  7,  37.3838580,-106.1050186,  2380.0, 2020,  8,  8, 17, 25,  9,        2,        6,  41,  69,   2.2,   1.4,   1.8,  0, 39,  0,  0, 38, 40,  0,  0, 41,  0,  0, 28,  0,  0,  0,  0,  0, 31, 40,  0,  0,  0,  0,  0, 32,  0,  0,  0, 32,  0,  0,  0
6, 4411, 2,KB0G,     0.29, 3,   boost,  105.15,  77311.00, 2223.79,    9.43,   37.92, 31.2, 4.17, 4.18, 4.18, 116.78,  -4.57,  -8.25,  12.71, -14.34,  -1.67,  -0.20,   0.06,  -0.97,   2.49, 4.18, 4.20, 0.09, 0.00, 0.00, 1, 1,  7,  37.3838580,-106.1050186,  2380.0, 2020,  8,  8, 17, 25,  9,        2,        6,  41,  69,   2.2,   1.4,   1.8,  0, 39,  0,  0, 38, 40,  0,  0, 41,  0,  0, 28,  0,  0,  0,  0,  0, 31, 40,  0,  0,  0,  0,  0, 32,  0,  0,  0, 32,  0,  0,  0
6, 4411, 2,KB0G,     0.30, 3,   boost,  107.33,  77305.00, 2224.42,   10.05,   38.98, 31.2, 4.17, 4.18, 4.18, 113.84,  -3.17,  16.19,  11.61,  31.25,  -2.41,  -0.18,   0.04,  -0.99,   2.34, 4.18, 4.20, 0.09, 0.00, 0.00, 1, 1,  7,  37.3838580,-106.1050186,  2380.0, 2020,  8,  8, 17, 25,  9,        2,        6,  41,  69,   2.2,   1.4,   1.8,  0, 39,  0,  0, 38, 40,  0,  0, 41,  0,  0, 28,  0,  0,  0,  0,  0, 31, 40,  0,  0,  0,  0,  0, 32,  0,  0,  0, 32,  0,  0,  0
6, 4411, 2,KB0G,     0.31, 3,   boost,  106.78,  77309.00, 2224.00,    9.63,   40.05, 31.2, 4.17, 4.18, 4.18, 116.54,  -4.07, -11.78,  14.60, -34.49,  -1.67,  -0.19,   0.03,  -1.02,   2.54, 4.18, 4.20, 0.09, 0.00, 0.00, 1, 1,  7,  37.3838580,-106.1050186,  2380.0, 2020,  8,  8, 17, 25,  9,        2,        6,  41,  69,   2.2,   1.4,   1.8,  0, 39,  0,  0, 38, 40,  0,  0, 41,  0,  0, 28,  0,  0,  0,  0,  0, 31, 40,  0,  0,  0,  0,  0, 32,  0,  0,  0, 32,  0,  0,  0
6, 4411, 2,KB0G,     0.32, 3,   boost,  107.87,  77288.00, 2226.18,   11.81,   41.12, 31.2, 4.17, 4.18, 4.18, 116.30,  -4.19,   9.02,  15.94,  29.05,  -2.28,  -0.20,   0.04,  -0.98,   2.40, 4.18, 4.20, 0.09, 0.00, 0.00, 1, 1,  7,  37.3838580,-106.1050186,  2380.0, 2020,  8,  8, 17, 25,  9,        2,        6,  41,  69,   2.2,   1.4,   1.8,  0, 39,  0,  0, 38, 40,  0,  0, 41,  0,  0, 28,  0,  0,  0,  0,  0, 31, 40,  0,  0,  0,  0,  0, 32,  0,  0,  0, 32,  0,  0,  0
6, 4411, 2,KB0G,     0.33, 3,   boost,  106.78,  77288.00, 2226.18,   11.81,   42.19, 31.2, 4.17, 4.18, 4.18, 116.25,  -3.97,  -2.50,  18.26, -14.65,  -4.05,  -0.17,   0.04,  -0.99,   2.51, 4.18, 4.20, 0.09, 0.00, 0.00, 1, 1,  7,  37.3838580,-106.1050186,  2380.0, 2020,  8,  8, 17, 25,  9,        2,        6,  41,  69,   2.2,   1.4,   1.8,  0, 39,  0,  0, 38, 40,  0,  0, 41,  0,  0, 28,  0,  0,  0,  0,  0, 31, 40,  0,  0,  0,  0,  0, 32,  0,  0,  0, 32,  0,  0,  0
6, 4411, 2,KB0G,     0.34, 3,   boost,  106.78,  77296.00, 2225.35,   10.98,   43.27, 31.2, 4.18, 4.18, 4.17, 114.81,  -3.46,   7.25,  15.70,  15.63,  -2.10,  -0.19,   0.02,  -1.01,   2.45, 4.17, 4.20, 0.00, 0.00, 0.00, 1, 1,  7,  37.3838580,-106.1050186,  2380.0, 2020,  8,  8, 17, 25,  9,        2,        6,  41,  69,   2.2,   1.4,   1.8,  0, 39,  0,  0, 38, 40,  0,  0, 41,  0,  0, 28,  0,  0,  0,  0,  0, 31, 40,  0,  0,  0,  0,  0, 32,  0,  0,  0, 32,  0,  0,  0
6, 4411, 2,KB0G,     0.34, 3,   boost,  106.78,  77296.00, 2225.35,   10.98,   43.27, 31.2, 4.18, 4.18, 4.17, 114.81,  -3.46,   7.25,  15.70,  15.63,  -2.10,  -0.19,   0.02,  -1.01,   2.45, 4.17, 4.20, 0.00, 0.00, 0.00, 1, 1,  7,  37.3838580,-106.1050186,  2380.0, 2020,  8,  8, 17, 25,  9,        2,        6,  41,  69,   2.2,   1.4,   1.8,  0, 39,  0,  0, 38, 40,  0,  0, 41,  0,  0, 28,  0,  0,  0,  0,  0, 31, 40,  0,  0,  0,  0,  0, 32,  0,  0,  0, 32,  0,  0,  0
6, 4411, 2,KB0G,     0.35, 3,   boost,  108.96,  77261.00, 2228.98,   14.61,   44.34, 31.2, 4.18, 4.18, 4.17, 117.62,  -4.40,  -0.15,  14.78, -10.68,  -2.41,  -0.19,   0.04,  -0.97,   2.53, 4.17, 4.20, 0.00, 0.00, 0.00, 1, 1,  7,  37.3838580,-106.1050186,  2380.0, 2020,  8,  8, 17, 25,  9,        2,        6,  41,  69,   2.2,   1.4,   1.8,  0, 39,  0,  0, 38, 40,  0,  0, 41,  0,  0, 28,  0,  0,  0,  0,  0, 31, 40,  0,  0,  0,  0,  0, 32,  0,  0,  0, 32,  0,  0,  0
6, 4411, 2,KB0G,     0.36, 3,   boost,  108.42,  77271.00, 2227.94,   13.57,   45.43, 31.2, 4.18, 4.18, 4.17, 116.54,  -2.60,   3.19,  14.96,   1.83,  -3.69,  -0.17,   0.04,  -0.98,   2.55, 4.17, 4.20, 0.00, 0.00, 0.00, 1, 1,  7,  37.3838580,-106.1050186,  2380.0, 2020,  8,  8, 17, 25,  9,        2,        6,  41,  69,   2.2,   1.4,   1.8,  0, 39,  0,  0, 38, 40,  0,  0, 41,  0,  0, 28,  0,  0,  0,  0,  0, 31, 40,  0,  0,  0,  0,  0, 32,  0,  0,  0, 32,  0,  0,  0
6, 4411, 2,KB0G,     0.37, 3,   boost,  109.51,  77264.00, 2228.67,   14.30,   46.51, 31.2, 4.18, 4.18, 4.17, 117.55,  -3.45,   6.82,  18.20,  -2.50,  -2.59,  -0.20,   0.03,  -1.00,   2.58, 4.17, 4.20, 0.00, 0.00, 0.00, 1, 1,  7,  37.3838580,-106.1050186,  2380.0, 2020,  8,  8, 17, 25,  9,        2,        6,  41,  69,   2.2,   1.4,   1.8,  0, 39,  0,  0, 38, 40,  0,  0, 41,  0,  0, 28,  0,  0,  0,  0,  0, 31, 40,  0,  0,  0,  0,  0, 32,  0,  0,  0, 32,  0,  0,  0
6, 4411, 2,KB0G,     0.38, 3,   boost,  109.51,  77268.00, 2228.25,   13.88,   47.61, 31.2, 4.18, 4.18, 4.17, 119.34,  -3.29,  -1.15,  21.92,  -8.91,  -3.87,  -0.20,   0.04,  -0.98,   2.66, 4.17, 4.20, 0.00, 0.00, 0.00, 1, 1,  7,  37.3838580,-106.1050186,  2380.0, 2020,  8,  8, 17, 25,  9,        2,        6,  41,  69,   2.2,   1.4,   1.8,  0, 39,  0,  0, 38, 40,  0,  0, 41,  0,  0, 28,  0,  0,  0,  0,  0, 31, 40,  0,  0,  0,  0,  0, 32,  0,  0,  0, 32,  0,  0,  0
6, 4411, 2,KB0G,     0.39, 3,   boost,  109.51,  77241.00, 2231.05,   16.68,   48.70, 31.2, 4.18, 4.18, 4.17, 117.92,  -3.50,   5.06,  20.58,  11.05,  -4.54,  -0.17,   0.04,  -0.97,   2.65, 4.17, 4.20, 0.00, 0.00, 0.00, 1, 1,  7,  37.3838580,-106.1050186,  2380.0, 2020,  8,  8, 17, 25,  9,        2,        6,  41,  69,   2.2,   1.4,   1.8,  0, 39,  0,  0, 38, 40,  0,  0, 41,  0,  0, 28,  0,  0,  0,  0,  0, 31, 40,  0,  0,  0,  0,  0, 32,  0,  0,  0, 32,  0,  0,  0
6, 4411, 2,KB0G,     0.40, 3,   boost,  110.60,  77255.00, 2229.60,   15.23,   49.80, 31.2, 4.18, 4.18, 4.17, 118.57,  -2.04,   3.05,  22.29,  -8.73,  -3.69,  -0.18,   0.03,  -1.00,   2.72, 4.17, 4.20, 0.00, 0.00, 0.00, 1, 1,  7,  37.3838580,-106.1050186,  2380.0, 2020,  8,  8, 17, 25,  9,        2,        6,  41,  69,   2.2,   1.4,   1.8,  0, 39,  0,  0, 38, 40,  0,  0, 41,  0,  0, 28,  0,  0,  0,  0,  0, 31, 40,  0,  0,  0,  0,  0, 32,  0,  0,  0, 32,  0,  0,  0
6, 4411, 2,KB0G,     0.41, 3,   boost,  110.60,  77242.00, 2230.95,   16.58,   50.91, 31.2, 4.18, 4.18, 4.17, 119.05,  -4.11,   0.50,  23.27,  -0.37,  -3.93,  -0.18,   0.05,  -0.97,   2.76, 4.17, 4.20, 0.00, 0.00, 0.00, 1, 1,  7,  37.3838580,-106.1050186,  2380.0, 2020,  8,  8, 17, 25,  9,        2,        6,  41,  69,   2.2,   1.4,   1.8,  0, 39,  0,  0, 38, 40,  0,  0, 41,  0,  0, 28,  0,  0,  0,  0,  0, 31, 40,  0,  0,  0,  0,  0, 32,  0,  0,  0, 32,  0,  0,  0
6, 4411, 2,KB0G,     0.42, 3,   boost,  111.14,  77233.00, 2231.88,   17.51,   52.01, 31.2, 4.18, 4.18, 4.17, 119.64,  -1.77,   3.18,  23.94,   0.67,  -5.21,  -0.16,   0.04,  -0.98,   2.80, 4.17, 4.20, 0.00, 0.00, 0.00, 1, 1,  7,  37.3838580,-106.1050186,  2380.0, 2020,  8,  8, 17, 25,  9,        2,        6,  41,  69,   2.2,   1.4,   1.8,  0, 39,  0,  0, 38, 40,  0,  0, 41,  0,  0, 28,  0,  0,  0,  0,  0, 31, 40,  0,  0,  0,  0,  0, 32,  0,  0,  0, 32,  0,  0,  0
6, 4411, 2,KB0G,     0.43, 3,   boost,  111.14,  77232.00, 2231.98,   17.62,   53.12, 31.2, 4.18, 4.18, 4.17, 120.97,  -3.62,   0.15,  25.40,  -2.26,  -4.11,  -0.19,   0.02,  -1.00,   2.85, 4.17, 4.20, 0.00, 0.00, 0.00, 1, 1,  7,  37.3838580,-106.1050186,  2380.0, 2020,  8,  8, 17, 25,  9,        2,        6,  41,  69,   2.2,   1.4,   1.8,  0, 39,  0,  0, 38, 40,  0,  0, 41,  0,  0, 28,  0,  0,  0,  0,  0, 31, 40,  0,  0,  0,  0,  0, 32,  0,  0,  0, 32,  0,  0,  0
6, 4411, 2,KB0G,     0.44, 3,   boost,  111.69,  77217.00, 2233.54,   19.17,   54.24, 31.2, 4.18, 4.18, 4.17, 121.20,  -2.90,   2.50,  26.50,  -1.53,  -4.36,  -0.19,   0.04,  -0.96,   2.89, 4.17, 4.20, 0.00, 0.00, 0.00, 1, 1,  7,  37.3838580,-106.1050186,  2380.0, 2020,  8,  8, 17, 25,  9,        2,        6,  41,  69,   2.2,   1.4,   1.8,  0, 39,  0,  0, 38, 40,  0,  0, 41,  0,  0, 28,  0,  0,  0,  0,  0, 31, 40,  0,  0,  0,  0,  0, 32,  0,  0,  0, 32,  0,  0,  0
6, 4411, 2,KB0G,     0.45, 3,   boost,  111.69,  77210.00, 2234.27,   19.90,   55.35, 31.2, 4.18, 4.18, 4.17, 120.22,  -2.54,  -0.05,  27.84,  -4.09,  -5.52,  -0.17,   0.03,  -0.96,   2.96, 4.17, 4.20, 0.00, 0.00, 0.00, 1, 1,  7,  37.3838580,-106.1050186,  2380.0, 2020,  8,  8, 17, 25,  9,        2,        6,  41,  69,   2.2,   1.4,   1.8,  0, 39,  0,  0, 38, 40,  0,  0, 41,  0,  0, 28,  0,  0,  0,  0,  0, 31, 40,  0,  0,  0,  0,  0, 32,  0,  0,  0, 32,  0,  0,  0
6, 4411, 2,KB0G,     0.46, 3,   boost,  113.32,  77219.00, 2233.33,   18.96,   56.48, 31.2, 4.18, 4.18, 4.17, 121.27,  -2.62,   6.39,  27.97,  -0.43,  -4.48,  -0.18,   0.04,  -0.99,   3.00, 4.17, 4.20, 0.00, 0.00, 0.00, 1, 1,  7,  37.3838580,-106.1050186,  2380.0, 2020,  8,  8, 17, 25,  9,        2,        6,  41,  69,   2.2,   1.4,   1.8,  0, 39,  0,  0, 38, 40,  0,  0, 41,  0,  0, 28,  0,  0,  0,  0,  0, 31, 40,  0,  0,  0,  0,  0, 32,  0,  0,  0, 32,  0,  0,  0
6, 4411, 2,KB0G,     0.47, 3,   boost,  113.32,  77201.00, 2235.20,   20.83,   57.60, 31.2, 4.18, 4.18, 4.17, 122.09,  -3.48,   1.09,  32.18,  -7.02,  -4.72,  -0.18,   0.04,  -0.98,   3.08, 4.17, 4.20, 0.00, 0.00, 0.00, 1, 1,  7,  37.3838580,-106.1050186,  2380.0, 2020,  8,  8, 17, 25,  9,        2,        6,  41,  69,   2.2,   1.4,   1.8,  0, 39,  0,  0, 38, 40,  0,  0, 41,  0,  0, 28,  0,  0,  0,  0,  0, 31, 40,  0,  0,  0,  0,  0, 32,  0,  0,  0, 32,  0,  0,  0
6, 4411, 2,KB0G,     0.48, 3,   boost,  112.78,  77209.00, 2234.37,   20.00,   58.73, 31.2, 4.18, 4.18, 4.17, 122.73,  -3.07,   0.67,  33.58,   3.36,  -6.13,  -0.19,   0.05,  -0.96,   3.12, 4.17, 4.20, 0.00, 0.00, 0.00, 1, 1,  7,  37.3838580,-106.1050186,  2380.0, 2020,  8,  8, 17, 25,  9,        2,        6,  41,  69,   2.2,   1.4,   1.8,  0, 39,  0,  0, 38, 40,  0,  0, 41,  0,  0, 28,  0,  0,  0,  0,  0, 31, 40,  0,  0,  0,  0,  0, 32,  0,  0,  0, 32,  0,  0,  0
6, 4411, 2,KB0G,     0.49, 3,   boost,  113.32,  77206.00, 2234.68,   20.31,   59.86, 31.2, 4.18, 4.18, 4.17, 120.71,  -2.38,   2.76,  32.48,   2.20,  -4.97,  -0.18,   0.05,  -0.96,   3.15, 4.17, 4.20, 0.00, 0.00, 0.00, 1, 1,  7,  37.3838580,-106.1050186,  2380.0, 2020,  8,  8, 17, 25,  9,        2,        6,  41,  69,   2.2,   1.4,   1.8,  0, 39,  0,  0, 38, 40,  0,  0, 41,  0,  0, 28,  0,  0,  0,  0,  0, 31, 40,  0,  0,  0,  0,  0, 32,  0,  0,  0, 32,  0,  0,  0
6, 4411, 2,KB0G,     0.50, 3,   boost,  113.32,  77187.00, 2236.65,   22.28,   60.99, 31.2, 4.18, 4.18, 4.17, 122.24,  -3.62,   0.07,  31.57,  -7.32,  -4.42,  -0.17,   0.03,  -0.97,   3.22, 4.17, 4.20, 0.00, 0.00, 0.00, 1, 1,  7,  37.3838580,-106.1050186,  2380.0, 2020,  8,  8, 17, 25,  9,        2,        6,  41,  69,   2.2,   1.4,   1.8,  0, 39,  0,  0, 38, 40,  0,  0, 41,  0,  0, 28,  0,  0,  0,  0,  0, 31, 40,  0,  0,  0,  0,  0, 32,  0,  0,  0, 32,  0,  0,  0
6, 4411, 2,KB0G,     0.51, 3,   boost,  113.32,  77182.00, 2237.17,   22.80,   62.12, 31.2, 4.18, 4.18, 4.17, 122.70,  -2.76,   3.08,  31.26,  -1.34,  -5.15,  -0.19,   0.04,  -0.99,   3.28, 4.17, 4.20, 0.00, 0.00, 0.00, 1, 1,  7,  37.3838580,-106.1050186,  2380.0, 2020,  8,  8, 17, 25,  9,        2,        6,  41,  69,   2.2,   1.4,   1.8,  0, 39,  0,  0, 38, 40,  0,  0, 41,  0,  0, 28,  0,  0,  0,  0,  0, 31, 40,  0,  0,  0,  0,  0, 32,  0,  0,  0, 32,  0,  0,  0
6, 4411, 2,KB0G,     0.52, 3,   boost,  113.87,  77168.00, 2238.62,   24.26,   63.26, 31.2, 4.18, 4.18, 4.17, 122.99,  -2.53,   0.99,  35.23,  -8.30,  -5.21,  -0.19,   0.04,  -0.97,   3.36, 4.17, 4.20, 0.00, 0.00, 0.00, 1, 1,  7,  37.3838580,-106.1050186,  2380.0, 2020,  8,  8, 17, 25,  9,        2,        6,  41,  69,   2.2,   1.4,   1.8,  0, 39,  0,  0, 38, 40,  0,  0, 41,  0,  0, 28,  0,  0,  0,  0,  0, 31, 40,  0,  0,  0,  0,  0, 32,  0,  0,  0, 32,  0,  0,  0
6, 4411, 2,KB0G,     0.53, 3,   boost,  114.41,  77171.00, 2238.31,   23.94,   64.40, 31.2, 4.18, 4.18, 4.17, 123.54,  -3.39,   2.67,  37.00,  -1.28,  -4.97,  -0.17,   0.04,  -0.98,   3.41, 4.17, 4.20, 0.00, 0.00, 0.00, 1, 1,  7,  37.3838580,-106.1050186,  2380.0, 2020,  8,  8, 17, 25,  9,        2,        6,  41,  69,   2.2,   1.4,   1.8,  0, 39,  0,  0, 38, 40,  0,  0, 41,  0,  0, 28,  0,  0,  0,  0,  0, 31, 40,  0,  0,  0,  0,  0, 32,  0,  0,  0, 32,  0,  0,  0
6, 4411, 2,KB0G,     0.54, 3,   boost,  114.96,  77164.00, 2239.04,   24.67,   65.54, 31.2, 4.18, 4.18, 4.17, 123.85,  -2.38,   0.79,  39.07,  -4.15,  -5.52,  -0.18,   0.03,  -1.00,   3.48, 4.17, 4.20, 0.00, 0.00, 0.00, 1, 1,  7,  37.3838580,-106.1050186,  2380.0, 2020,  8,  8, 17, 25,  9,        2,        6,  41,  69,   2.2,   1.4,   1.8,  0, 39,  0,  0, 38, 40,  0,  0, 41,  0,  0, 28,  0,  0,  0,  0,  0, 31, 40,  0,  0,  0,  0,  0, 32,  0,  0,  0, 32,  0,  0,  0
6, 4411, 2,KB0G,     0.55, 3,   boost,  114.96,  77155.00, 2239.97,   25.60,   66.69, 31.2, 4.18, 4.18, 4.17, 124.12,  -2.88,   2.10,  39.87,  -0.67,  -4.97,  -0.18,   0.03,  -0.96,   3.52, 4.17, 4.20, 0.00, 0.00, 0.00, 1, 1,  7,  37.3838580,-106.1050186,  2380.0, 2020,  8,  8, 17, 25,  9,        2,        6,  41,  69,   2.2,   1.4,   1.8,  0, 39,  0,  0, 38, 40,  0,  0, 41,  0,  0, 28,  0,  0,  0,  0,  0, 31, 40,  0,  0,  0,  0,  0, 32,  0,  0,  0, 32,  0,  0,  0
6, 4411, 2,KB0G,     0.56, 3,   boost,  114.96,  77145.00, 2241.01,   26.64,   67.84, 31.2, 4.18, 4.18, 4.17, 123.93,  -2.64,   3.75,  40.97,  -3.24,  -4.48,  -0.18,   0.06,  -0.95,   3.58, 4.17, 4.20, 0.00, 0.00, 0.00, 1, 1,  7,  37.3838580,-106.1050186,  2380.0, 2020,  8,  8, 17, 25,  9,        2,        6,  41,  69,   2.2,   1.4,   1.8,  0, 39,  0,  0, 38, 40,  0,  0, 41,  0,  0, 28,  0,  0,  0,  0,  0, 31, 40,  0,  0,  0,  0,  0, 32,  0,  0,  0, 32,  0,  0,  0
