#version,serial,flight,call,time,state,state_name,acceleration,pressure,altitude,height,speed,temperature,drogue_voltage,main_voltage,battery_voltage,accel_x,accel_y,accel_z,gyro_roll,gyro_pitch,gyro_yaw,mag_x,mag_y,mag_z,tilt,pyro,igniter_a,igniter_b,igniter_c,igniter_d,connected,locked,nsat,latitude,longitude,altitude,year,month,day,hour,minute,second,pad_dist,pad_range,pad_az,pad_el,pdop,hdop,vdop,sat01,sat02,sat03,sat04,sat05,sat06,sat07,sat08,sat09,sat10,sat11,sat12,sat13,sat14,sat15,sat16,sat17,sat18,sat19,sat20,sat21,sat22,sat23,sat24,sat25,sat26,sat27,sat28,sat29,sat30,sat31,sat32
6,2378,21,N0CALL,-0.3,3,   boost,0,96754,387.64,-0.26,0,37.1,4.1,0,4.1,9.8,-0.32,-0.38,-0.22,-0.09,0.12,-1.09,-0.54,-0.56,1.08,4.15,0,0,0,0,1,1,12,37.1676488,-97.7361638,382,2020,10,10,19,32,54,0,0,342,0,1.4,0.8,1.2,0,0,0,0,0,0,0,0,0,0,0,0,0,0,0,0,0,0,0,0,0,0,0,0,0,0,0,0,0,0,0,0
6,2378,21,N0CALL,-0.29,3,   boost,0,96750,387.99,0.09,0,37.1,4.1,0,4.1,9.88,-0.27,-0.33,0.15,-0.03,0.3,-1.09,-0.54,-0.56,1.08,4.15,0,0,0,0,1,1,12,37.1676488,-97.7361638,382,2020,10,10,19,32,54,0,0,342,0,1.4,0.8,1.2,0,0,0,0,0,0,0,0,0,0,0,0,0,0,0,0,0,0,0,0,0,0,0,0,0,0,0,0,0,0,0,0
6,2378,21,N0CALL,-0.28,3,   boost,0,96750,387.99,0.09,0,37.1,4.1,0,4.1,9.94,-0.01,-0.12,0.21,-0.27,0.42,-1.09,-0.54,-0.57,1.08,4.15,0,0,0,0,1,1,12,37.1676488,-97.7361638,382,2020,10,10,19,32,54,0,0,342,0,1.4,0.8,1.2,0,0,0,0,0,0,0,0,0,0,0,0,0,0,0,0,0,0,0,0,0,0,0,0,0,0,0,0,0,0,0,0
6,2378,21,N0CALL,-0.27,3,   boost,0,96750,387.99,0.09,0,37.1,4.1,0,4.1,9.8,0.32,0,-0.09,-0.09,0.36,-1.09,-0.54,-0.57,1.08,4.15,0,0,0,0,1,1,12,37.1676488,-97.7361638,382,2020,10,10,19,32,54,0,0,342,0,1.4,0.8,1.2,0,0,0,0,0,0,0,0,0,0,0,0,0,0,0,0,0,0,0,0,0,0,0,0,0,0,0,0,0,0,0,0
6,2378,21,N0CALL,-0.26,3,   boost,0,96765,386.69,-1.21,0,37.1,4.1,0,4.1,9.88,0.72,0.16,0.64,-0.09,0.36,-1.09,-0.54,-0.56,1.08,4.15,0,0,0,0,1,1,12,37.1676488,-97.7361638,382,2020,10,10,19,32,54,0,0,342,0,1.4,0.8,1.2,0,0,0,0,0,0,0,0,0,0,0,0,0,0,0,0,0,0,0,0,0,0,0,0,0,0,0,0,0,0,0,0
6,2378,21,N0CALL,-0.25,3,   boost,0,96751,387.9,0,0,37.1,4.1,0,4.1,9.77,0.79,-0.03,-0.46,0.03,0.18,-1.09,-0.54,-0.56,1.08,4.15,0,0,0,0,1,1,12,37.1676488,-97.7361638,382,2020,10,10,19,32,54,0,0,342,0,1.4,0.8,1.2,0,0,0,0,0,0,0,0,0,0,0,0,0,0,0,0,0,0,0,0,0,0,0,0,0,0,0,0,0,0,0,0
6,2378,21,N0CALL,-0.24,3,   boost,0,96749,388.08,0.17,0,37.1,4.1,0,4.1,9.94,0.49,-0.19,0.03,0.03,-0.13,-1.09,-0.54,-0.56,1.08,4.15,0,0,0,0,1,1,12,37.1676488,-97.7361638,382,2020,10,10,19,32,54,0,0,342,0,1.4,0.8,1.2,0,0,0,0,0,0,0,0,0,0,0,0,0,0,0,0,0,0,0,0,0,0,0,0,0,0,0,0,0,0,0,0
6,2378,21,N0CALL,-0.23,3,   boost,0,96755,387.56,-0.35,0,37.1,4.1,0,4.1,9.93,0.36,-0.13,0.03,0.22,-0.37,-1.09,-0.54,-0.56,1.08,4.15,0,0,0,0,1,1,12,37.1676488,-97.7361638,382,2020,10,10,19,32,54,0,0,342,0,1.4,0.8,1.2,0,0,0,0,0,0,0,0,0,0,0,0,0,0,0,0,0,0,0,0,0,0,0,0,0,0,0,0,0,0,0,0
6,2378,21,N0CALL,-0.22,3,   boost,0,96754,387.64,-0.26,0,37.1,4.1,0,4.1,9.68,0.16,-0.27,-0.52,-0.03,-0.31,-1.09,-0.54,-0.56,1.08,4.15,0,0,0,0,1,1,12,37.1676488,-97.7361638,382,2020,10,10,19,32,54,0,0,342,0,1.4,0.8,1.2,0,0,0,0,0,0,0,0,0,0,0,0,0,0,0,0,0,0,0,0,0,0,0,0,0,0,0,0,0,0,0,0
6,2378,21,N0CALL,-0.21,3,   boost,0,96758,387.3,-0.6,0,37.1,4.1,0,4.1,9.9,-0.09,0.01,0.21,0.09,-0.25,-1.09,-0.54,-0.57,1.08,4.15,0,0,0,0,1,1,12,37.1676488,-97.7361638,382,2020,10,10,19,32,54,0,0,342,0,1.4,0.8,1.2,0,0,0,0,0,0,0,0,0,0,0,0,0,0,0,0,0,0,0,0,0,0,0,0,0,0,0,0,0,0,0,0
6,2378,21,N0CALL,-0.2,3,   boost,0,96746,388.34,0.43,0,37.1,4.1,0,4.1,9.75,-0.28,-0.47,-0.34,0.03,-0.19,-1.09,-0.54,-0.56,1.08,4.15,0,0,0,0,1,1,12,37.1676488,-97.7361638,382,2020,10,10,19,32,54,0,0,342,0,1.4,0.8,1.2,0,0,0,0,0,0,0,0,0,0,0,0,0,0,0,0,0,0,0,0,0,0,0,0,0,0,0,0,0,0,0,0
6,2378,21,N0CALL,-0.19,3,   boost,0,96751,387.9,0,0,37.1,4.1,0,4.1,9.98,-0.47,-0.17,0.15,0.03,-0.07,-1.09,-0.54,-0.57,1.08,4.15,0,0,0,0,1,1,12,37.1676488,-97.7361638,382,2020,10,10,19,32,54,0,0,342,0,1.4,0.8,1.2,0,0,0,0,0,0,0,0,0,0,0,0,0,0,0,0,0,0,0,0,0,0,0,0,0,0,0,0,0,0,0,0
6,2378,21,N0CALL,-0.18,3,   boost,0,96736,389.2,1.3,0,37.1,4.1,0,4.1,9.86,-0.28,-0.47,0.09,0.03,0.12,-1.09,-0.54,-0.57,1.08,4.15,0,0,0,0,1,1,12,37.1676488,-97.7361638,382,2020,10,10,19,32,54,0,0,342,0,1.4,0.8,1.2,0,0,0,0,0,0,0,0,0,0,0,0,0,0,0,0,0,0,0,0,0,0,0,0,0,0,0,0,0,0,0,0
6,2378,21,N0CALL,-0.17,3,   boost,0,96752,387.82,-0.09,0,37.1,4.1,0,4.1,9.82,-0.22,-0.16,-0.34,-0.09,0.3,-1.09,-0.54,-0.56,1.08,4.15,0,0,0,0,1,1,12,37.1676488,-97.7361638,382,2020,10,10,19,32,54,0,0,342,0,1.4,0.8,1.2,0,0,0,0,0,0,0,0,0,0,0,0,0,0,0,0,0,0,0,0,0,0,0,0,0,0,0,0,0,0,0,0
6,2378,21,N0CALL,-0.16,3,   boost,0,96753,387.73,-0.17,0,37.1,4.1,0,4.1,9.89,-0.19,-0.23,0.52,-0.15,0.42,-1.09,-0.54,-0.56,1.08,4.15,0,0,0,0,1,1,12,37.1676488,-97.7361638,382,2020,10,10,19,32,54,0,0,342,0,1.4,0.8,1.2,0,0,0,0,0,0,0,0,0,0,0,0,0,0,0,0,0,0,0,0,0,0,0,0,0,0,0,0,0,0,0,0
6,2378,21,N0CALL,-0.15,3,   boost,0,96752,387.82,-0.09,0,37.1,4.1,0,4.1,9.83,0.39,0.03,-0.03,-0.15,0.48,-1.09,-0.54,-0.57,1.08,4.15,0,0,0,0,1,1,12,37.1676488,-97.7361638,382,2020,10,10,19,32,54,0,0,342,0,1.4,0.8,1.2,0,0,0,0,0,0,0,0,0,0,0,0,0,0,0,0,0,0,0,0,0,0,0,0,0,0,0,0,0,0,0,0
6,2378,21,N0CALL,-0.14,3,   boost,0,96748,388.16,0.26,0,37.1,4.1,0,4.1,9.9,0.58,0.11,0.46,-0.15,0.24,-1.09,-0.54,-0.56,1.08,4.15,0,0,0,0,1,1,12,37.1676488,-97.7361638,382,2020,10,10,19,32,54,0,0,342,0,1.4,0.8,1.2,0,0,0,0,0,0,0,0,0,0,0,0,0,0,0,0,0,0,0,0,0,0,0,0,0,0,0,0,0,0,0,0
6,2378,21,N0CALL,-0.13,3,   boost,0,96742,388.68,0.78,0,37.1,4.1,0,4.1,9.81,0.83,-0.02,-0.22,-0.03,0.18,-1.09,-0.54,-0.54,1.08,4.15,0,0,0,0,1,1,12,37.1676488,-97.7361638,382,2020,10,10,19,32,54,0,0,342,0,1.4,0.8,1.2,0,0,0,0,0,0,0,0,0,0,0,0,0,0,0,0,0,0,0,0,0,0,0,0,0,0,0,0,0,0,0,0
6,2378,21,N0CALL,-0.12,3,   boost,0,96749,388.08,0.17,0,37.1,4.1,0,4.1,9.91,0.49,0.04,-0.09,0.09,-0.13,-1.09,-0.54,-0.56,1.08,4.15,0,0,0,0,1,1,12,37.1676488,-97.7361638,382,2020,10,10,19,32,54,0,0,342,0,1.4,0.8,1.2,0,0,0,0,0,0,0,0,0,0,0,0,0,0,0,0,0,0,0,0,0,0,0,0,0,0,0,0,0,0,0,0
6,2378,21,N0CALL,-0.11,3,   boost,0,96748,388.16,0.26,0.01,37.1,4.1,0,4.1,9.84,0.59,-0.38,-0.22,0.16,-0.25,-1.09,-0.54,-0.56,1.08,4.15,0,0,0,0,1,1,12,37.1676488,-97.7361638,382,2020,10,10,19,32,54,0,0,342,0,1.4,0.8,1.2,0,0,0,0,0,0,0,0,0,0,0,0,0,0,0,0,0,0,0,0,0,0,0,0,0,0,0,0,0,0,0,0
6,2378,21,N0CALL,-0.1,3,   boost,0,96743,388.6,0.69,0.05,37.1,4.1,0,4.1,9.85,0.14,-0.23,-0.28,0.09,-0.37,-1.09,-0.54,-0.56,1.08,4.15,0,0,0,0,1,1,12,37.1676488,-97.7361638,382,2020,10,10,19,32,54,0,0,342,0,1.4,0.8,1.2,0,0,0,0,0,0,0,0,0,0,0,0,0,0,0,0,0,0,0,0,0,0,0,0,0,0,0,0,0,0,0,0
6,2378,21,N0CALL,-0.09,3,   boost,0.53,96747,388.25,0.35,0.14,37.1,4.1,0,4.1,9.96,-0.09,0.04,-0.03,0.03,-0.31,-1.09,-0.54,-0.57,1.08,4.15,0,0,0,0,1,1,12,37.1676488,-97.7361638,382,2020,10,10,19,32,54,0,0,342,0,1.4,0.8,1.2,0,0,0,0,0,0,0,0,0,0,0,0,0,0,0,0,0,0,0,0,0,0,0,0,0,0,0,0,0,0,0,0
6,2378,21,N0CALL,-0.08,3,   boost,12.19,96744,388.51,0.6,0.34,37.1,4.1,0,4.1,10.02,-0.37,-0.38,-0.34,0.03,-0.25,-1.09,-0.54,-0.56,1.08,4.15,0,0,0,0,1,1,12,37.1676488,-97.7361638,382,2020,10,10,19,32,54,0,0,342,0,1.4,0.8,1.2,0,0,0,0,0,0,0,0,0,0,0,0,0,0,0,0,0,0,0,0,0,0,0,0,0,0,0,0,0,0,0,0
6,2378,21,N0CALL,-0.07,3,   boost,40.29,96754,387.64,-0.26,0.71,37.1,4.1,0,4.1,22.82,0.37,0.57,-0.22,0.22,-0.07,-1.09,-0.54,-0.56,1.08,4.15,0,0,0,0,1,1,12,37.1676488,-97.7361638,382,2020,10,10,19,32,54,0,0,342,0,1.4,0.8,1.2,0,0,0,0,0,0,0,0,0,0,0,0,0,0,0,0,0,0,0,0,0,0,0,0,0,0,0,0,0,0,0,0
6,2378,21,N0CALL,-0.06,3,   boost,49.3,96797,383.93,-3.97,1.3,37.1,4.1,0,4.1,39.64,3.86,3.07,-5.47,0.16,-0.31,-1.08,-0.54,-0.56,1.08,4.15,0,0,0,0,1,1,12,37.1676488,-97.7361638,382,2020,10,10,19,32,54,0,0,342,0,1.4,0.8,1.2,0,0,0,0,0,0,0,0,0,0,0,0,0,0,0,0,0,0,0,0,0,0,0,0,0,0,0,0,0,0,0,0
6,2378,21,N0CALL,-0.05,3,   boost,116.09,96889,375.99,-11.92,2.14,37.1,4.1,0,4.1,51.83,4.69,-2.73,-12.42,4,-2.75,-1.07,-0.51,-0.56,1.08,4.15,0,0,0,0,1,1,12,37.1676488,-97.7361638,382,2020,10,10,19,32,54,0,0,342,0,1.4,0.8,1.2,0,0,0,0,0,0,0,0,0,0,0,0,0,0,0,0,0,0,0,0,0,0,0,0,0,0,0,0,0,0,0,0
6,2378,21,N0CALL,-0.04,3,   boost,150.55,96858,378.66,-9.24,3.21,37.1,4.1,0,4.1,105.06,-12.84,-4.25,-22.62,2.54,-11.6,-1.03,-0.46,-0.57,1.08,4.15,0,0,0,0,1,1,12,37.1676488,-97.7361638,382,2020,10,10,19,32,54,0,0,342,0,1.4,0.8,1.2,0,0,0,0,0,0,0,0,0,0,0,0,0,0,0,0,0,0,0,0,0,0,0,0,0,0,0,0,0,0,0,0
6,2378,21,N0CALL,-0.03,3,   boost,139.94,96801,383.58,-4.32,4.45,37.1,4.1,0,4.1,155.25,24.22,18.48,-24.75,-13.7,4.02,-0.95,-0.35,-0.53,1.08,4.15,0,0,0,0,1,1,12,37.1676488,-97.7361638,382,2020,10,10,19,32,54,0,0,342,0,1.4,0.8,1.2,0,0,0,0,0,0,0,0,0,0,0,0,0,0,0,0,0,0,0,0,0,0,0,0,0,0,0,0,0,0,0,0
6,2378,21,N0CALL,-0.02,3,   boost,140.47,96737,389.11,1.21,5.79,37.1,4.1,0,4.1,154.45,-44.43,15.05,-28.84,-6.38,-10.75,-0.87,-0.17,-0.45,1.08,4.15,0,0,0,0,1,1,12,37.1676488,-97.7361638,382,2020,10,10,19,32,54,0,0,342,0,1.4,0.8,1.2,0,0,0,0,0,0,0,0,0,0,0,0,0,0,0,0,0,0,0,0,0,0,0,0,0,0,0,0,0,0,0,0
6,2378,21,N0CALL,-0.01,3,   boost,139.41,96696,392.66,4.75,7.17,37.1,4.1,0,4.1,150.52,-0.77,-5.56,-25.3,-2.96,9.21,-0.83,0,-0.33,1.08,4.15,0,0,0,0,1,1,12,37.1676488,-97.7361638,382,2020,10,10,19,32,54,0,0,342,0,1.4,0.8,1.2,0,0,0,0,0,0,0,0,0,0,0,0,0,0,0,0,0,0,0,0,0,0,0,0,0,0,0,0,0,0,0,0
6,2378,21,N0CALL,0,3,   boost,136.23,96663,395.51,7.61,8.55,37.1,4.1,0,4.1,151.57,7.8,19,-27.19,-1.68,9.09,-0.89,-0.12,-0.21,0.91,4.15,0,0,0,0,1,1,12,37.1676488,-97.7361638,382,2020,10,10,19,32,54,0,0,342,0,1.4,0.8,1.2,0,0,0,0,0,0,0,0,0,0,0,0,0,0,0,0,0,0,0,0,0,0,0,0,0,0,0,0,0,0,0,0
6,2378,21,N0CALL,0.01,3,   boost,136.23,96656,396.12,8.21,9.93,37.1,4.1,0,4.1,149.31,-7.57,-20.27,-27.87,7.48,-3.06,-1.19,-0.14,-0.25,0.96,4.15,0,0,0,0,1,1,12,37.1676483,-97.7361636,382,2020,10,10,19,32,55,0,0,0,0,1.4,0.8,1.2,0,0,0,0,0,0,0,25,0,36,30,0,0,0,35,0,0,38,0,42,30,0,42,31,0,0,23,0,0,0,0,33
6,2378,21,N0CALL,0.01,3,   boost,136.23,96656,396.12,8.21,9.93,37.1,4.1,0,4.1,149.31,-7.57,-20.27,-27.87,7.48,-3.06,-1.19,-0.14,-0.25,0.96,4.15,0,0,0,0,1,1,12,37.1676483,-97.7361636,382,2020,10,10,19,32,55,0,0,0,0,1.4,0.8,1.2,0,0,0,0,0,0,0,25,0,36,30,0,0,0,35,0,0,38,0,42,30,0,42,31,0,0,23,0,0,0,0,33
6,2378,21,N0CALL,0.02,3,   boost,137.82,96642,397.33,9.42,11.31,37.1,4.08,0,4.09,146.87,10.8,2.94,-28.54,8.82,3.05,-0.99,0.2,-0.48,1.06,4.06,0,0,0.01,0,1,1,12,37.1676483,-97.7361636,382,2020,10,10,19,32,55,0,0,0,0,1.4,0.8,1.2,0,0,0,0,0,0,0,25,0,36,30,0,0,0,35,0,0,38,0,42,30,0,42,31,0,0,23,0,0,0,0,33
6,2378,21,N0CALL,0.02,3,   boost,137.82,96642,397.33,9.42,11.31,37.1,4.08,0,4.09,146.87,10.8,2.94,-28.54,8.82,3.05,-0.99,0.2,-0.48,1.06,4.06,0,0,0.01,0,1,1,12,37.1676483,-97.7361636,382,2020,10,10,19,32,55,0,0,0,0,1.4,0.8,1.2,0,0,0,0,0,0,0,25,0,36,30,0,0,0,35,0,0,38,0,42,30,0,42,31,0,0,23,0,0,0,0,33
6,2378,21,N0CALL,0.03,3,   boost,137.82,96652,396.46,8.56,12.68,37.1,4.08,0,4.09,149.25,-5.95,1.67,-26.89,4.37,0.85,-0.82,-0.11,-0.28,1.1,4.06,0,0,0.01,0,1,1,12,37.1676483,-97.7361636,382,2020,10,10,19,32,55,0,0,0,0,1.4,0.8,1.2,0,0,0,0,0,0,0,25,0,36,30,0,0,0,35,0,0,38,0,42,30,0,42,31,0,0,23,0,0,0,0,33
6,2378,21,N0CALL,0.04,3,   boost,138.35,96666,395.25,7.35,14.06,37.1,4.08,0,4.09,146.89,-5.82,-8.45,-24.88,11.57,1.28,-0.85,-0.1,-0.1,1.21,4.06,0,0,0.01,0,1,1,12,37.1676483,-97.7361636,382,2020,10,10,19,32,55,0,0,0,0,1.4,0.8,1.2,0,0,0,0,0,0,0,25,0,36,30,0,0,0,35,0,0,38,0,42,30,0,42,31,0,0,23,0,0,0,0,33
6,2378,21,N0CALL,0.05,3,   boost,138.35,96662,395.6,7.69,15.45,37.1,4.08,0,4.09,147.26,18.44,0.4,-29.03,-4.61,10.13,-1.01,0.03,-0.04,1.21,4.06,0,0,0.01,0,1,1,12,37.1676483,-97.7361636,382,2020,10,10,19,32,55,0,0,0,0,1.4,0.8,1.2,0,0,0,0,0,0,0,25,0,36,30,0,0,0,35,0,0,38,0,42,30,0,42,31,0,0,23,0,0,0,0,33
6,2378,21,N0CALL,0.06,3,   boost,139.94,96644,397.15,9.25,16.83,37.1,4.08,0,4.09,150.89,-1.17,-1,-34.95,2.96,-2.81,-1.18,0.11,-0.12,1.23,4.06,0,0,0.01,0,1,1,12,37.1676483,-97.7361636,382,2020,10,10,19,32,55,0,0,0,0,1.4,0.8,1.2,0,0,0,0,0,0,0,25,0,36,30,0,0,0,35,0,0,38,0,42,30,0,42,31,0,0,23,0,0,0,0,33
6,2378,21,N0CALL,0.07,3,   boost,139.41,96664,395.43,7.52,18.22,37.1,4.08,0,4.09,150.76,11.51,4.28,-33.24,-2.1,-2.51,-1.33,0.95,-0.66,1.2,4.06,0,0,0.01,0,1,1,12,37.1676483,-97.7361636,382,2020,10,10,19,32,55,0,0,0,0,1.4,0.8,1.2,0,0,0,0,0,0,0,25,0,36,30,0,0,0,35,0,0,38,0,42,30,0,42,31,0,0,23,0,0,0,0,33
6,2378,21,N0CALL,0.08,3,   boost,136.76,96641,397.41,9.51,19.6,37.1,4.08,0,4.09,150.79,6.4,-2.03,-34.82,6.02,-6.72,-0.39,-0.07,-0.42,1.23,4.06,0,0,0.01,0,1,1,12,37.1676483,-97.7361636,382,2020,10,10,19,32,55,0,0,0,0,1.4,0.8,1.2,0,0,0,0,0,0,0,25,0,36,30,0,0,0,35,0,0,38,0,42,30,0,42,31,0,0,23,0,0,0,0,33
6,2378,21,N0CALL,0.09,3,   boost,136.76,96649,396.72,8.82,20.99,37.1,4.08,0,4.09,148.83,32.29,17.11,-24.45,-27.01,7.2,-0.67,-0.23,-0.21,1.01,4.06,0,0,0.01,0,1,1,12,37.1676483,-97.7361636,382,2020,10,10,19,32,55,0,0,0,0,1.4,0.8,1.2,0,0,0,0,0,0,0,25,0,36,30,0,0,0,35,0,0,38,0,42,30,0,42,31,0,0,23,0,0,0,0,33
6,2378,21,N0CALL,0.1,3,   boost,141,96643,397.24,9.34,22.38,37.1,4.08,0,4.09,147.59,-4.42,-8.04,-30.19,12.79,-17.46,-0.8,-0.24,-0.19,1.06,4.06,0,0,0.01,0,1,1,12,37.1676483,-97.7361636,382,2020,10,10,19,32,55,0,0,0,0,1.4,0.8,1.2,0,0,0,0,0,0,0,25,0,36,30,0,0,0,35,0,0,38,0,42,30,0,42,31,0,0,23,0,0,0,0,33
6,2378,21,N0CALL,0.11,3,   boost,141,96661,395.68,7.78,23.77,37.1,4.08,0,4.09,152.6,0.98,15.73,-31.59,-21.33,-5.32,-0.86,-0.25,-0.2,0.84,4.06,0,0,0.01,0,1,1,12,37.1676483,-97.7361636,382,2020,10,10,19,32,55,0,0,0,0,1.4,0.8,1.2,0,0,0,0,0,0,0,25,0,36,30,0,0,0,35,0,0,38,0,42,30,0,42,31,0,0,23,0,0,0,0,33
6,2378,21,N0CALL,0.12,3,   boost,139.41,96649,396.72,8.82,25.15,37.1,4.08,0,4.09,150.91,-5.67,-16.04,-34.64,-2.22,-9.71,-0.88,-0.25,-0.21,0.79,4.06,0,0,0.01,0,1,1,12,37.1676483,-97.7361636,382,2020,10,10,19,32,55,0,0,0,0,1.4,0.8,1.2,0,0,0,0,0,0,0,25,0,36,30,0,0,0,35,0,0,38,0,42,30,0,42,31,0,0,23,0,0,0,0,33
6,2378,21,N0CALL,0.13,3,   boost,135.17,96637,397.76,9.86,26.54,37.1,4.08,0,4.09,151.02,3.52,14.99,-33.48,-14.49,-5.38,-0.89,-0.26,-0.2,0.64,4.06,0,0,0.01,0,1,1,12,37.1676483,-97.7361636,382,2020,10,10,19,32,55,0,0,0,0,1.4,0.8,1.2,0,0,0,0,0,0,0,25,0,36,30,0,0,0,35,0,0,38,0,42,30,0,42,31,0,0,23,0,0,0,0,33
6,2378,21,N0CALL,0.14,3,   boost,135.17,96624,398.88,10.98,27.93,37.1,4.08,0,4.09,144.75,-15.69,-35.56,-34.64,4.98,-4.77,-0.9,-0.25,-0.21,0.68,4.06,0,0,0.01,0,1,1,12,37.1676483,-97.7361636,382,2020,10,10,19,32,55,0,0,0,0,1.4,0.8,1.2,0,0,0,0,0,0,0,25,0,36,30,0,0,0,35,0,0,38,0,42,30,0,42,31,0,0,23,0,0,0,0,33
6,2378,21,N0CALL,0.15,3,   boost,142.06,96630,398.37,10.46,29.32,37.1,4.08,0,4.09,154.01,6.4,23.98,-27.44,-16.45,11.65,-0.9,-0.24,-0.2,0.54,4.06,0,0,0.01,0,1,1,12,37.1676483,-97.7361636,382,2020,10,10,19,32,55,0,0,0,0,1.4,0.8,1.2,0,0,0,0,0,0,0,25,0,36,30,0,0,0,35,0,0,38,0,42,30,0,42,31,0,0,23,0,0,0,0,33
6,2378,21,N0CALL,0.16,3,   boost,142.06,96635,397.93,10.03,30.73,37.1,4.08,0,4.09,153,-8.97,-13.94,-27.74,3.15,0.24,-0.9,-0.25,-0.21,0.57,4.06,0,0,0.01,0,1,1,12,37.1676483,-97.7361636,382,2020,10,10,19,32,55,0,0,0,0,1.4,0.8,1.2,0,0,0,0,0,0,0,25,0,36,30,0,0,0,35,0,0,38,0,42,30,0,42,31,0,0,23,0,0,0,0,33
6,2378,21,N0CALL,0.17,3,   boost,142.59,96641,397.41,9.51,32.14,37.1,4.08,0,4.09,153.48,11.56,9.17,-27.68,-5.7,11.04,-0.9,-0.25,-0.21,0.57,4.06,0,0,0.01,0,1,1,12,37.1676483,-97.7361636,382,2020,10,10,19,32,55,0,0,0,0,1.4,0.8,1.2,0,0,0,0,0,0,0,25,0,36,30,0,0,0,35,0,0,38,0,42,30,0,42,31,0,0,23,0,0,0,0,33
6,2378,21,N0CALL,0.18,3,   boost,142.59,96626,398.71,10.81,33.56,37.1,4.08,0,4.09,153.99,-9.44,-5.48,-28.11,-0.7,2.07,-0.91,-0.24,-0.19,0.57,4.06,0,0,0.01,0,1,1,12,37.1676483,-97.7361636,382,2020,10,10,19,32,55,0,0,0,0,1.4,0.8,1.2,0,0,0,0,0,0,0,25,0,36,30,0,0,0,35,0,0,38,0,42,30,0,42,31,0,0,23,0,0,0,0,33
6,2378,21,N0CALL,0.19,3,   boost,143.12,96601,400.87,12.97,34.99,37.1,4.08,0,4.09,153.67,6.73,3.97,-28.23,-3.02,6.71,-0.91,-0.24,-0.2,0.59,4.06,0,0,0.01,0,1,1,12,37.1676483,-97.7361636,382,2020,10,10,19,32,55,0,0,0,0,1.4,0.8,1.2,0,0,0,0,0,0,0,25,0,36,30,0,0,0,35,0,0,38,0,42,30,0,42,31,0,0,23,0,0,0,0,33
6,2378,21,N0CALL,0.2,3,   boost,144.18,96618,399.4,11.5,36.43,37.1,4.08,0,4.09,154.45,-1.24,-4.06,-28.72,-0.76,5.85,-0.91,-0.24,-0.2,0.62,4.06,0,0,0.01,0,1,1,12,37.1676483,-97.7361636,382,2020,10,10,19,32,55,0,0,0,0,1.4,0.8,1.2,0,0,0,0,0,0,0,25,0,36,30,0,0,0,35,0,0,38,0,42,30,0,42,31,0,0,23,0,0,0,0,33
6,2378,21,N0CALL,0.21,3,   boost,144.18,96620,399.23,11.33,37.87,37.1,4.08,0,4.09,155.49,-1.23,4.02,-28.54,-2.04,2.92,-0.91,-0.24,-0.2,0.62,4.06,0,0,0.01,0,1,1,12,37.1676483,-97.7361636,382,2020,10,10,19,32,55,0,0,0,0,1.4,0.8,1.2,0,0,0,0,0,0,0,25,0,36,30,0,0,0,35,0,0,38,0,42,30,0,42,31,0,0,23,0,0,0,0,33
6,2378,21,N0CALL,0.22,3,   boost,144.18,96606,400.44,12.54,39.31,37.1,4.08,0,4.09,155.44,3.59,-2.73,-28.84,-1.31,6.16,-0.91,-0.23,-0.2,0.66,4.06,0,0,0.01,0,1,1,12,37.1676483,-97.7361636,382,2020,10,10,19,32,55,0,0,0,0,1.4,0.8,1.2,0,0,0,0,0,0,0,25,0,36,30,0,0,0,35,0,0,38,0,42,30,0,42,31,0,0,23,0,0,0,0,33
6,2378,21,N0CALL,0.23,3,   boost,144.18,96583,402.43,14.53,40.75,37.1,4.08,0,4.09,155.28,-1.7,0.48,-29.03,-0.27,3.29,-0.91,-0.23,-0.2,0.68,4.06,0,0,0.01,0,1,1,12,37.1676483,-97.7361636,382,2020,10,10,19,32,55,0,0,0,0,1.4,0.8,1.2,0,0,0,0,0,0,0,25,0,36,30,0,0,0,35,0,0,38,0,42,30,0,42,31,0,0,23,0,0,0,0,33
6,2378,21,N0CALL,0.24,3,   boost,144.71,96600,400.96,13.06,42.2,37.1,4.08,0,4.09,155.71,0.91,1.36,-28.9,-2.1,3.59,-0.91,-0.24,-0.21,0.7,4.06,0,0,0.01,0,1,1,12,37.1676483,-97.7361636,382,2020,10,10,19,32,55,0,0,0,0,1.4,0.8,1.2,0,0,0,0,0,0,0,25,0,36,30,0,0,0,35,0,0,38,0,42,30,0,42,31,0,0,23,0,0,0,0,33
6,2378,21,N0CALL,0.25,3,   boost,144.71,96615,399.66,11.76,43.64,37.1,4.08,0,4.09,156.44,1.76,-2.74,-29.82,0.89,3.66,-0.91,-0.24,-0.2,0.74,4.06,0,0,0.01,0,1,1,12,37.1676483,-97.7361636,382,2020,10,10,19,32,55,0,0,0,0,1.4,0.8,1.2,0,0,0,0,0,0,0,25,0,36,30,0,0,0,35,0,0,38,0,42,30,0,42,31,0,0,23,0,0,0,0,33
6,2378,21,N0CALL,0.26,3,   boost,145.24,96596,401.31,13.4,45.09,37.1,4.08,0,4.09,156.74,-0.66,2.51,-29.21,-1.49,2.56,-0.91,-0.23,-0.2,0.75,4.06,0,0,0.01,0,1,1,12,37.1676483,-97.7361636,382,2020,10,10,19,32,55,0,0,0,0,1.4,0.8,1.2,0,0,0,0,0,0,0,25,0,36,30,0,0,0,35,0,0,38,0,42,30,0,42,31,0,0,23,0,0,0,0,33
6,2378,21,N0CALL,0.27,3,   boost,145.77,96589,401.91,14.01,46.55,37.1,4.08,0,4.09,156.27,0.7,-2.07,-29.7,0.52,1.89,-0.91,-0.24,-0.2,0.77,4.06,0,0,0.01,0,1,1,12,37.1676483,-97.7361636,382,2020,10,10,19,32,55,0,0,0,0,1.4,0.8,1.2,0,0,0,0,0,0,0,25,0,36,30,0,0,0,35,0,0,38,0,42,30,0,42,31,0,0,23,0,0,0,0,33
6,2378,21,N0CALL,0.28,3,   boost,145.77,96599,401.05,13.14,48.01,37.1,4.08,0,4.09,156.8,1.87,0.36,-29.7,0.09,2.62,-0.91,-0.24,-0.21,0.79,4.06,0,0,0.01,0,1,1,12,37.1676483,-97.7361636,382,2020,10,10,19,32,55,0,0,0,0,1.4,0.8,1.2,0,0,0,0,0,0,0,25,0,36,30,0,0,0,35,0,0,38,0,42,30,0,42,31,0,0,23,0,0,0,0,33
6,2378,21,N0CALL,0.29,3,   boost,146.3,96608,400.27,12.36,49.47,37.1,4.08,0,4.09,156.82,-1.31,0.1,-29.76,-0.03,0.48,-0.91,-0.23,-0.2,0.79,4.06,0,0,0.01,0,1,1,12,37.1676483,-97.7361636,382,2020,10,10,19,32,55,0,0,0,0,1.4,0.8,1.2,0,0,0,0,0,0,0,25,0,36,30,0,0,0,35,0,0,38,0,42,30,0,42,31,0,0,23,0,0,0,0,33
6,2378,21,N0CALL,0.3,3,   boost,146.3,96569,403.64,15.74,50.93,37.1,4.08,0,4.09,156.82,1.98,-0.46,-29.88,0.58,1.28,-0.91,-0.23,-0.21,0.81,4.06,0,0,0.01,0,1,1,12,37.1676483,-97.7361636,382,2020,10,10,19,32,55,0,0,0,0,1.4,0.8,1.2,0,0,0,0,0,0,0,25,0,36,30,0,0,0,35,0,0,38,0,42,30,0,42,31,0,0,23,0,0,0,0,33
6,2378,21,N0CALL,0.31,3,   boost,147.36,96566,403.9,16,52.4,37.1,4.08,0,4.09,156.83,0.07,-0.16,-30,0.4,0.6,-0.91,-0.23,-0.2,0.82,4.06,0,0,0.01,0,1,1,12,37.1676483,-97.7361636,382,2020,10,10,19,32,55,0,0,0,0,1.4,0.8,1.2,0,0,0,0,0,0,0,25,0,36,30,0,0,0,35,0,0,38,0,42,30,0,42,31,0,0,23,0,0,0,0,33
6,2378,21,N0CALL,0.32,3,   boost,147.36,96574,403.21,15.31,53.87,37.1,4.08,0,4.09,156.83,-0.18,0.06,-30.55,0.64,-0.31,-0.91,-0.22,-0.2,0.82,4.06,0,0,0.01,0,1,1,12,37.1676483,-97.7361636,382,2020,10,10,19,32,55,0,0,0,0,1.4,0.8,1.2,0,0,0,0,0,0,0,25,0,36,30,0,0,0,35,0,0,38,0,42,30,0,42,31,0,0,23,0,0,0,0,33
6,2378,21,N0CALL,0.33,3,   boost,147.36,96573,403.3,15.39,55.34,37.1,4.08,0,4.09,156.83,1.59,-0.57,-31.1,0.89,0.12,-0.91,-0.22,-0.2,0.82,4.06,0,0,0.01,0,1,1,12,37.1676483,-97.7361636,382,2020,10,10,19,32,55,0,0,0,0,1.4,0.8,1.2,0,0,0,0,0,0,0,25,0,36,30,0,0,0,35,0,0,38,0,42,30,0,42,31,0,0,23,0,0,0,0,33
6,2378,21,N0CALL,0.34,3,   boost,147.36,96554,404.94,17.04,56.82,37.1,4.08,0,4.07,156.83,-0.12,-0.19,-31.47,0.83,-1.04,-0.91,-0.22,-0.19,0.82,4.08,0,0.01,0,0,1,1,12,37.1676483,-97.7361636,382,2020,10,10,19,32,55,0,0,0,0,1.4,0.8,1.2,0,0,0,0,0,0,0,25,0,36,30,0,0,0,35,0,0,38,0,42,30,0,42,31,0,0,23,0,0,0,0,33
6,2378,21,N0CALL,0.34,3,   boost,147.36,96554,404.94,17.04,56.82,37.1,4.08,0,4.07,156.83,-0.12,-0.19,-31.47,0.83,-1.04,-0.91,-0.22,-0.19,0.82,4.08,0,0.01,0,0,1,1,12,37.1676483,-97.7361636,382,2020,10,10,19,32,55,0,0,0,0,1.4,0.8,1.2,0,0,0,0,0,0,0,25,0,36,30,0,0,0,35,0,0,38,0,42,30,0,42,31,0,0,23,0,0,0,0,33
6,2378,21,N0CALL,0.35,3,   boost,147.89,96550,405.29,17.38,58.29,37.1,4.08,0,4.07,156.83,0.48,-0.21,-31.71,0.77,-1.35,-0.91,-0.23,-0.21,0.81,4.08,0,0.01,0,0,1,1,12,37.1676483,-97.7361636,382,2020,10,10,19,32,55,0,0,0,0,1.4,0.8,1.2,0,0,0,0,0,0,0,25,0,36,30,0,0,0,35,0,0,38,0,42,30,0,42,31,0,0,23,0,0,0,0,33
6,2378,21,N0CALL,0.36,3,   boost,147.89,96550,405.29,17.38,59.77,37.1,4.08,0,4.07,156.83,0.79,-0.79,-31.77,1.13,-1.59,-0.91,-0.23,-0.19,0.81,4.08,0,0.01,0,0,1,1,12,37.1676483,-97.7361636,382,2020,10,10,19,32,55,0,0,0,0,1.4,0.8,1.2,0,0,0,0,0,0,0,25,0,36,30,0,0,0,35,0,0,38,0,42,30,0,42,31,0,0,23,0,0,0,0,33
6,2378,21,N0CALL,0.37,3,   boost,148.96,96546,405.63,17.73,61.26,37.1,4.08,0,4.07,156.83,-0.19,0.31,-32.08,0.95,-2.39,-0.91,-0.22,-0.19,0.79,4.08,0,0.01,0,0,1,1,12,37.1676483,-97.7361636,382,2020,10,10,19,32,55,0,0,0,0,1.4,0.8,1.2,0,0,0,0,0,0,0,25,0,36,30,0,0,0,35,0,0,38,0,42,30,0,42,31,0,0,23,0,0,0,0,33
6,2378,21,N0CALL,0.38,3,   boost,148.96,96524,407.54,19.63,62.74,37.1,4.08,0,4.07,156.83,0.63,-0.54,-32.69,1.07,-2.57,-0.91,-0.23,-0.2,0.78,4.08,0,0.01,0,0,1,1,12,37.1676483,-97.7361636,382,2020,10,10,19,32,55,0,0,0,0,1.4,0.8,1.2,0,0,0,0,0,0,0,25,0,36,30,0,0,0,35,0,0,38,0,42,30,0,42,31,0,0,23,0,0,0,0,33
6,2378,21,N0CALL,0.39,3,   boost,148.96,96539,406.24,18.34,64.23,37.1,4.08,0,4.07,156.83,0.56,-0.54,-33.48,1.13,-2.75,-0.91,-0.23,-0.2,0.77,4.08,0,0.01,0,0,1,1,12,37.1676483,-97.7361636,382,2020,10,10,19,32,55,0,0,0,0,1.4,0.8,1.2,0,0,0,0,0,0,0,25,0,36,30,0,0,0,35,0,0,38,0,42,30,0,42,31,0,0,23,0,0,0,0,33
6,2378,21,N0CALL,0.4,3,   boost,149.49,96541,406.07,18.16,65.73,37.1,4.08,0,4.07,156.83,-0.07,-0.29,-34.21,1.01,-3.55,-0.91,-0.22,-0.19,0.75,4.08,0,0.01,0,0,1,1,12,37.1676483,-97.7361636,382,2020,10,10,19,32,55,0,0,0,0,1.4,0.8,1.2,0,0,0,0,0,0,0,25,0,36,30,0,0,0,35,0,0,38,0,42,30,0,42,31,0,0,23,0,0,0,0,33
6,2378,21,N0CALL,0.41,3,   boost,149.49,96514,408.4,20.5,67.22,37.1,4.08,0,4.07,156.83,0.68,-0.74,-34.95,1.19,-3.49,-0.91,-0.22,-0.2,0.74,4.08,0,0.01,0,0,1,1,12,37.1676483,-97.7361636,382,2020,10,10,19,32,55,0,0,0,0,1.4,0.8,1.2,0,0,0,0,0,0,0,25,0,36,30,0,0,0,35,0,0,38,0,42,30,0,42,31,0,0,23,0,0,0,0,33
6,2378,21,N0CALL,0.42,3,   boost,150.02,96511,408.66,20.76,68.72,37.1,4.08,0,4.07,156.83,0.3,-0.35,-35.74,1.01,-4.1,-0.91,-0.22,-0.2,0.72,4.08,0,0.01,0,0,1,1,12,37.1676483,-97.7361636,382,2020,10,10,19,32,55,0,0,0,0,1.4,0.8,1.2,0,0,0,0,0,0,0,25,0,36,30,0,0,0,35,0,0,38,0,42,30,0,42,31,0,0,23,0,0,0,0,33
6,2378,21,N0CALL,0.43,3,   boost,150.02,96506,409.1,21.19,70.22,37.1,4.08,0,4.07,156.83,0.26,-0.27,-36.72,1.01,-4.65,-0.91,-0.22,-0.18,0.7,4.08,0,0.01,0,0,1,1,12,37.1676483,-97.7361636,382,2020,10,10,19,32,55,0,0,0,0,1.4,0.8,1.2,0,0,0,0,0,0,0,25,0,36,30,0,0,0,35,0,0,38,0,42,30,0,42,31,0,0,23,0,0,0,0,33
6,2378,21,N0CALL,0.44,3,   boost,150.02,96511,408.66,20.76,71.72,37.1,4.08,0,4.07,156.83,0.56,-0.73,-37.51,0.95,-4.83,-0.91,-0.21,-0.19,0.69,4.08,0,0.01,0,0,1,1,12,37.1676483,-97.7361636,382,2020,10,10,19,32,55,0,0,0,0,1.4,0.8,1.2,0,0,0,0,0,0,0,25,0,36,30,0,0,0,35,0,0,38,0,42,30,0,42,31,0,0,23,0,0,0,0,33
6,2378,21,N0CALL,0.45,3,   boost,150.02,96505,409.18,21.28,73.22,37.1,4.08,0,4.07,156.83,0.23,-0.24,-38.49,1.01,-5.38,-0.91,-0.21,-0.19,0.67,4.08,0,0.01,0,0,1,1,12,37.1676483,-97.7361636,382,2020,10,10,19,32,55,0,0,0,0,1.4,0.8,1.2,0,0,0,0,0,0,0,25,0,36,30,0,0,0,35,0,0,38,0,42,30,0,42,31,0,0,23,0,0,0,0,33
6,2378,21,N0CALL,0.46,3,   boost,151.08,96489,410.57,22.67,74.73,37.1,4.08,0,4.07,156.83,0.48,-0.23,-39.71,0.95,-5.8,-0.91,-0.22,-0.19,0.66,4.08,0,0.01,0,0,1,1,12,37.1676483,-97.7361636,382,2020,10,10,19,32,55,0,0,0,0,1.4,0.8,1.2,0,0,0,0,0,0,0,25,0,36,30,0,0,0,35,0,0,38,0,42,30,0,42,31,0,0,23,0,0,0,0,33
6,2378,21,N0CALL,0.47,3,   boost,151.08,96481,411.26,23.36,76.23,37.1,4.08,0,4.07,156.83,0.43,-0.64,-40.93,0.77,-6.17,-0.91,-0.22,-0.19,0.65,4.08,0,0.01,0,0,1,1,12,37.1676483,-97.7361636,382,2020,10,10,19,32,55,0,0,0,0,1.4,0.8,1.2,0,0,0,0,0,0,0,25,0,36,30,0,0,0,35,0,0,38,0,42,30,0,42,31,0,0,23,0,0,0,0,33
6,2378,21,N0CALL,0.48,3,   boost,151.08,96479,411.44,23.53,77.74,37.1,4.08,0,4.07,156.83,0.38,-0.61,-42.27,0.58,-6.66,-0.91,-0.21,-0.19,0.65,4.08,0,0.01,0,0,1,1,12,37.1676483,-97.7361636,382,2020,10,10,19,32,55,0,0,0,0,1.4,0.8,1.2,0,0,0,0,0,0,0,25,0,36,30,0,0,0,35,0,0,38,0,42,30,0,42,31,0,0,23,0,0,0,0,33
6,2378,21,N0CALL,0.49,3,   boost,151.61,96464,412.74,24.83,79.26,37.1,4.08,0,4.07,156.83,0.25,-0.74,-43.55,0.4,-7.03,-0.91,-0.22,-0.19,0.65,4.08,0,0.01,0,0,1,1,12,37.1676483,-97.7361636,382,2020,10,10,19,32,55,0,0,0,0,1.4,0.8,1.2,0,0,0,0,0,0,0,25,0,36,30,0,0,0,35,0,0,38,0,42,30,0,42,31,0,0,23,0,0,0,0,33
6,2378,21,N0CALL,0.5,3,   boost,151.61,96451,413.86,25.96,80.77,37.1,4.08,0,4.07,156.83,0.23,-0.86,-45.2,0.28,-7.39,-0.91,-0.22,-0.18,0.66,4.08,0,0.01,0,0,1,1,12,37.1676483,-97.7361636,382,2020,10,10,19,32,55,0,0,0,0,1.4,0.8,1.2,0,0,0,0,0,0,0,25,0,36,30,0,0,0,35,0,0,38,0,42,30,0,42,31,0,0,23,0,0,0,0,33
6,2378,21,N0CALL,0.51,3,   boost,151.61,96478,411.52,23.62,82.29,37.1,4.08,0,4.07,156.83,0.56,-0.47,-46.6,0.28,-7.76,-0.91,-0.21,-0.18,0.67,4.08,0,0.01,0,0,1,1,12,37.1676483,-97.7361636,382,2020,10,10,19,32,55,0,0,0,0,1.4,0.8,1.2,0,0,0,0,0,0,0,25,0,36,30,0,0,0,35,0,0,38,0,42,30,0,42,31,0,0,23,0,0,0,0,33
6,2378,21,N0CALL,0.52,3,   boost,152.14,96440,414.81,26.91,83.81,37.1,4.08,0,4.07,156.83,0.33,-0.68,-48.25,-0.03,-8.37,-0.91,-0.22,-0.19,0.7,4.08,0,0.01,0,0,1,1,12,37.1676483,-97.7361636,382,2020,10,10,19,32,55,0,0,0,0,1.4,0.8,1.2,0,0,0,0,0,0,0,25,0,36,30,0,0,0,35,0,0,38,0,42,30,0,42,31,0,0,23,0,0,0,0,33
6,2378,21,N0CALL,0.53,3,   boost,152.14,96447,414.21,26.3,85.33,37.1,4.08,0,4.07,156.83,0.53,-0.82,-49.84,-0.21,-8.67,-0.91,-0.22,-0.18,0.73,4.08,0,0.01,0,0,1,1,12,37.1676483,-97.7361636,382,2020,10,10,19,32,55,0,0,0,0,1.4,0.8,1.2,0,0,0,0,0,0,0,25,0,36,30,0,0,0,35,0,0,38,0,42,30,0,42,31,0,0,23,0,0,0,0,33
6,2378,21,N0CALL,0.54,3,   boost,152.14,96413,417.15,29.25,86.85,37.1,4.08,0,4.07,156.83,0.43,-0.88,-51.55,-0.39,-9.1,-0.91,-0.21,-0.18,0.78,4.08,0,0.01,0,0,1,1,12,37.1676483,-97.7361636,382,2020,10,10,19,32,55,0,0,0,0,1.4,0.8,1.2,0,0,0,0,0,0,0,25,0,36,30,0,0,0,35,0,0,38,0,42,30,0,42,31,0,0,23,0,0,0,0,33
6,2378,21,N0CALL,0.55,3,   boost,152.14,96426,416.03,28.12,88.37,37.1,4.08,0,4.07,156.83,0.2,-0.57,-53.07,-0.76,-9.53,-0.91,-0.21,-0.18,0.83,4.08,0,0.01,0,0,1,1,12,37.1676483,-97.7361636,382,2020,10,10,19,32,55,0,0,0,0,1.4,0.8,1.2,0,0,0,0,0,0,0,25,0,36,30,0,0,0,35,0,0,38,0,42,30,0,42,31,0,0,23,0,0,0,0,33
6,2378,21,N0CALL,0.56,3,   boost,152.67,96428,415.85,27.95,89.9,37.1,4.08,0,4.07,156.83,0.52,-1.25,-54.78,-0.94,-9.53,-0.91,-0.21,-0.17,0.89,4.08,0,0.01,0,0,1,1,12,37.1676483,-97.7361636,382,2020,10,10,19,32,55,0,0,0,0,1.4,0.8,1.2,0,0,0,0,0,0,0,25,0,36,30,0,0,0,35,0,0,38,0,42,30,0,42,31,0,0,23,0,0,0,0,33
6,2378,21,N0CALL,0.57,3,   boost,153.2,96413,417.15,29.25,91.43,37.1,4.08,0,4.07,156.83,-0.13,-0.57,-56.61,-1.31,-10.08,-0.91,-0.21,-0.17,0.96,4.08,0,0.01,0,0,1,1,12,37.1676483,-97.7361636,382,2020,10,10,19,32,55,0,0,0,0,1.4,0.8,1.2,0,0,0,0,0,0,0,25,0,36,30,0,0,0,35,0,0,38,0,42,30,0,42,31,0,0,23,0,0,0,0,33
6,2378,21,N0CALL,0.58,3,   boost,153.2,96403,418.02,30.12,92.96,37.1,4.08,0,4.07,156.83,0.76,-0.77,-58.14,-1.49,-10.14,-0.91,-0.22,-0.16,1.03,4.08,0,0.01,0,0,1,1,12,37.1676483,-97.7361636,382,2020,10,10,19,32,55,0,0,0,0,1.4,0.8,1.2,0,0,0,0,0,0,0,25,0,36,30,0,0,0,35,0,0,38,0,42,30,0,42,31,0,0,23,0,0,0,0,33
6,2378,21,N0CALL,0.59,3,   boost,153.2,96410,417.41,29.51,94.49,37.1,4.08,0,4.07,156.83,0.5,-0.9,-58.93,-1.74,-10.5,-0.91,-0.21,-0.16,1.11,4.08,0,0.01,0,0,1,1,12,37.1676483,-97.7361636,382,2020,10,10,19,32,55,0,0,0,0,1.4,0.8,1.2,0,0,0,0,0,0,0,25,0,36,30,0,0,0,35,0,0,38,0,42,30,0,42,31,0,0,23,0,0,0,0,33
6,2378,21,N0CALL,0.6,3,   boost,153.73,96401,418.19,30.29,96.02,37.1,4.08,0,4.07,156.83,0.33,-0.46,-59.91,-2.04,-10.99,-0.91,-0.21,-0.16,1.2,4.08,0,0.01,0,0,1,1,12,37.1676483,-97.7361636,382,2020,10,10,19,32,55,0,0,0,0,1.4,0.8,1.2,0,0,0,0,0,0,0,25,0,36,30,0,0,0,35,0,0,38,0,42,30,0,42,31,0,0,23,0,0,0,0,33
6,2378,21,N0CALL,0.61,3,   boost,153.73,96379,420.1,32.2,97.56,37.1,4.08,0,4.07,156.83,0.96,-0.58,-61.25,-2.29,-11.24,-0.91,-0.21,-0.16,1.3,4.08,0,0.01,0,0,1,1,12,37.1676483,-97.7361636,382,2020,10,10,19,32,55,0,0,0,0,1.4,0.8,1.2,0,0,0,0,0,0,0,25,0,36,30,0,0,0,35,0,0,38,0,42,30,0,42,31,0,0,23,0,0,0,0,33
6,2378,21,N0CALL,0.62,3,   boost,154.26,96376,420.36,32.46,99.1,37.1,4.08,0,4.07,156.83,0.6,-1.1,-62.47,-2.47,-11.73,-0.91,-0.2,-0.16,1.4,4.08,0,0.01,0,0,1,1,12,37.1676483,-97.7361636,382,2020,10,10,19,32,55,0,0,0,0,1.4,0.8,1.2,0,0,0,0,0,0,0,25,0,36,30,0,0,0,35,0,0,38,0,42,30,0,42,31,0,0,23,0,0,0,0,33
6,2378,21,N0CALL,0.63,3,   boost,154.26,96367,421.14,33.24,100.65,37.1,4.08,0,4.07,156.83,0.46,-0.65,-63.63,-2.9,-12.15,-0.91,-0.2,-0.16,1.51,4.08,0,0.01,0,0,1,1,12,37.1676483,-97.7361636,382,2020,10,10,19,32,55,0,0,0,0,1.4,0.8,1.2,0,0,0,0,0,0,0,25,0,36,30,0,0,0,35,0,0,38,0,42,30,0,42,31,0,0,23,0,0,0,0,33
6,2378,21,N0CALL,0.64,3,   boost,155.32,96370,420.88,32.98,102.19,37.1,4.08,0,4.07,156.83,0.89,-1.24,-65.59,-3.02,-12.34,-0.91,-0.2,-0.16,1.62,4.08,0,0.01,0,0,1,1,12,37.1676483,-97.7361636,382,2020,10,10,19,32,55,0,0,0,0,1.4,0.8,1.2,0,0,0,0,0,0,0,25,0,36,30,0,0,0,35,0,0,38,0,42,30,0,42,31,0,0,23,0,0,0,0,33
6,2378,21,N0CALL,0.65,3,   boost,155.85,96364,421.4,33.5,103.75,37.1,4.08,0,4.07,156.83,0.79,-0.91,-67.66,-3.57,-12.58,-0.91,-0.2,-0.16,1.74,4.08,0,0.01,0,0,1,1,12,37.1676483,-97.7361636,382,2020,10,10,19,32,55,0,0,0,0,1.4,0.8,1.2,0,0,0,0,0,0,0,25,0,36,30,0,0,0,35,0,0,38,0,42,30,0,42,31,0,0,23,0,0,0,0,33
6,2378,21,N0CALL,0.66,3,   boost,155.85,96343,423.22,35.32,105.3,37.1,4.1,0,4.1,156.83,0.68,-1.24,-69.8,-3.87,-13.07,-0.91,-0.2,-0.16,1.86,4.11,0,0,0,0,1,1,12,37.1676483,-97.7361636,382,2020,10,10,19,32,55,0,0,0,0,1.4,0.8,1.2,0,0,0,0,0,0,0,25,0,36,30,0,0,0,35,0,0,38,0,42,30,0,42,31,0,0,23,0,0,0,0,33
6,2378,21,N0CALL,0.66,3,   boost,155.85,96343,423.22,35.32,105.3,37.1,4.1,0,4.1,156.83,0.68,-1.24,-69.8,-3.87,-13.07,-0.91,-0.2,-0.16,1.86,4.11,0,0,0,0,1,1,12,37.1676483,-97.7361636,382,2020,10,10,19,32,55,0,0,0,0,1.4,0.8,1.2,0,0,0,0,0,0,0,25,0,36,30,0,0,0,35,0,0,38,0,42,30,0,42,31,0,0,23,0,0,0,0,33
6,2378,21,N0CALL,0.67,3,   boost,156.38,96339,423.57,35.66,106.86,37.1,4.1,0,4.1,156.83,1.22,-0.91,-72.06,-4.24,-13.31,-0.91,-0.2,-0.15,1.99,4.11,0,0,0,0,1,1,12,37.1676483,-97.7361636,382,2020,10,10,19,32,55,0,0,0,0,1.4,0.8,1.2,0,0,0,0,0,0,0,25,0,36,30,0,0,0,35,0,0,38,0,42,30,0,42,31,0,0,23,0,0,0,0,33
6,2378,21,N0CALL,0.68,3,   boost,156.91,96342,423.31,35.4,108.43,37.1,4.1,0,4.1,156.83,0.82,-1.51,-74.44,-4.54,-13.8,-0.91,-0.21,-0.16,2.12,4.11,0,0,0,0,1,1,12,37.1676483,-97.7361636,382,2020,10,10,19,32,55,0,0,0,0,1.4,0.8,1.2,0,0,0,0,0,0,0,25,0,36,30,0,0,0,35,0,0,38,0,42,30,0,42,31,0,0,23,0,0,0,0,33
6,2378,21,N0CALL,0.69,3,   boost,156.91,96322,425.04,37.14,110,37.1,4.1,0,4.1,156.83,0.88,-0.84,-76.63,-4.97,-14.11,-0.91,-0.21,-0.15,2.26,4.11,0,0,0,0,1,1,12,37.1676483,-97.7361636,382,2020,10,10,19,32,55,0,0,0,0,1.4,0.8,1.2,0,0,0,0,0,0,0,25,0,36,30,0,0,0,35,0,0,38,0,42,30,0,42,31,0,0,23,0,0,0,0,33
6,2378,21,N0CALL,0.7,3,   boost,157.44,96316,425.56,37.66,111.57,37.1,4.1,0,4.1,156.83,1.15,-1.45,-79.14,-5.34,-14.47,-0.9,-0.2,-0.15,2.41,4.11,0,0,0,0,1,1,12,37.1676483,-97.7361636,382,2020,10,10,19,32,55,0,0,0,0,1.4,0.8,1.2,0,0,0,0,0,0,0,25,0,36,30,0,0,0,35,0,0,38,0,42,30,0,42,31,0,0,23,0,0,0,0,33
6,2378,21,N0CALL,0.71,3,   boost,157.97,96313,425.82,37.92,113.14,37.1,4.1,0,4.1,156.83,1,-0.95,-81.94,-5.83,-14.84,-0.9,-0.21,-0.15,2.56,4.11,0,0,0,0,1,1,12,37.1676483,-97.7361636,382,2020,10,10,19,32,55,0,0,0,0,1.4,0.8,1.2,0,0,0,0,0,0,0,25,0,36,30,0,0,0,35,0,0,38,0,42,30,0,42,31,0,0,23,0,0,0,0,33
6,2378,21,N0CALL,0.72,3,   boost,158.5,96321,425.13,37.23,114.72,37.1,4.1,0,4.1,156.83,0.98,-1.24,-85.12,-6.5,-15.08,-0.9,-0.21,-0.15,2.71,4.11,0,0,0,0,1,1,12,37.1676483,-97.7361636,382,2020,10,10,19,32,55,0,0,0,0,1.4,0.8,1.2,0,0,0,0,0,0,0,25,0,36,30,0,0,0,35,0,0,38,0,42,30,0,42,31,0,0,23,0,0,0,0,33
6,2378,21,N0CALL,0.73,3,   boost,159.03,96294,427.47,39.57,116.31,37.1,4.1,0,4.1,156.83,1.21,-1.77,-88.66,-7.05,-15.39,-0.91,-0.2,-0.14,2.88,4.11,0,0,0,0,1,1,12,37.1676483,-97.7361636,382,2020,10,10,19,32,55,0,0,0,0,1.4,0.8,1.2,0,0,0,0,0,0,0,25,0,36,30,0,0,0,35,0,0,38,0,42,30,0,42,31,0,0,23,0,0,0,0,33
6,2378,21,N0CALL,0.74,3,   boost,159.03,96286,428.17,40.26,117.9,37.1,4.1,0,4.1,156.83,1.23,-1.29,-92.08,-7.78,-15.69,-0.91,-0.19,-0.15,3.04,4.11,0,0,0,0,1,1,12,37.1676483,-97.7361636,382,2020,10,10,19,32,55,0,0,0,0,1.4,0.8,1.2,0,0,0,0,0,0,0,25,0,36,30,0,0,0,35,0,0,38,0,42,30,0,42,31,0,0,23,0,0,0,0,33
6,2378,21,N0CALL,0.75,3,   boost,159.56,96287,428.08,40.17,119.49,37.1,4.1,0,4.1,156.83,1.51,-1.28,-95.68,-8.39,-16,-0.91,-0.19,-0.14,3.21,4.11,0,0,0,0,1,1,12,37.1676483,-97.7361636,382,2020,10,10,19,32,55,0,0,0,0,1.4,0.8,1.2,0,0,0,0,0,0,0,25,0,36,30,0,0,0,35,0,0,38,0,42,30,0,42,31,0,0,23,0,0,0,0,33
6,2378,21,N0CALL,0.76,3,   boost,160.09,96270,429.55,41.65,121.08,37.1,4.1,0,4.1,156.83,1.27,-1.87,-98.49,-8.94,-15.94,-0.9,-0.19,-0.14,3.39,4.11,0,0,0,0,1,1,12,37.1676483,-97.7361636,382,2020,10,10,19,32,55,0,0,0,0,1.4,0.8,1.2,0,0,0,0,0,0,0,25,0,36,30,0,0,0,35,0,0,38,0,42,30,0,42,31,0,0,23,0,0,0,0,33
6,2378,21,N0CALL,0.77,3,   boost,160.09,96269,429.64,41.74,122.68,37.1,4.1,0,4.1,156.83,1.42,-1.49,-100.93,-9.79,-15.75,-0.9,-0.19,-0.15,3.57,4.11,0,0,0,0,1,1,12,37.1676483,-97.7361636,382,2020,10,10,19,32,55,0,0,0,0,1.4,0.8,1.2,0,0,0,0,0,0,0,25,0,36,30,0,0,0,35,0,0,38,0,42,30,0,42,31,0,0,23,0,0,0,0,33
6,2378,21,N0CALL,0.78,3,   boost,160.09,96267,429.81,41.91,124.27,37.1,4.1,0,4.1,156.83,1.36,-1.72,-103.49,-10.28,-15.82,-0.91,-0.19,-0.13,3.75,4.11,0,0,0,0,1,1,12,37.1676483,-97.7361636,382,2020,10,10,19,32,55,0,0,0,0,1.4,0.8,1.2,0,0,0,0,0,0,0,25,0,36,30,0,0,0,35,0,0,38,0,42,30,0,42,31,0,0,23,0,0,0,0,33
6,2378,21,N0CALL,0.79,3,   boost,160.09,96257,430.68,42.78,125.87,37.1,4.1,0,4.1,156.83,1.61,-1.75,-106.66,-11.01,-15.45,-0.9,-0.2,-0.14,3.93,4.11,0,0,0,0,1,1,12,37.1676483,-97.7361636,382,2020,10,10,19,32,55,0,0,0,0,1.4,0.8,1.2,0,0,0,0,0,0,0,25,0,36,30,0,0,0,35,0,0,38,0,42,30,0,42,31,0,0,23,0,0,0,0,33
6,2378,21,N0CALL,0.8,3,   boost,160.09,96234,432.68,44.77,127.47,37.1,4.1,0,4.1,156.83,1.41,-1.69,-109.72,-11.44,-15.14,-0.9,-0.2,-0.14,4.11,4.11,0,0,0,0,1,1,12,37.1676483,-97.7361636,382,2020,10,10,19,32,55,0,0,0,0,1.4,0.8,1.2,0,0,0,0,0,0,0,25,0,36,30,0,0,0,35,0,0,38,0,42,30,0,42,31,0,0,23,0,0,0,0,33
6,2378,21,N0CALL,0.81,3,   boost,160.62,96228,433.2,45.29,129.07,37.1,4.1,0,4.1,156.83,1.37,-1.71,-112.95,-12.05,-15.02,-0.9,-0.19,-0.14,4.29,4.11,0,0,0,0,1,1,12,37.1676483,-97.7361636,382,2020,10,10,19,32,55,0,0,0,0,1.4,0.8,1.2,0,0,0,0,0,0,0,25,0,36,30,0,0,0,35,0,0,38,0,42,30,0,42,31,0,0,23,0,0,0,0,33
6,2378,21,N0CALL,0.82,3,   boost,160.62,96226,433.37,45.47,130.67,37.1,4.1,0,4.1,156.83,1.7,-1.82,-115.94,-12.36,-14.35,-0.9,-0.2,-0.14,4.48,4.11,0,0,0,0,1,1,12,37.1676483,-97.7361636,382,2020,10,10,19,32,55,0,0,0,0,1.4,0.8,1.2,0,0,0,0,0,0,0,25,0,36,30,0,0,0,35,0,0,38,0,42,30,0,42,31,0,0,23,0,0,0,0,33
6,2378,21,N0CALL,0.83,3,   boost,161.15,96215,434.33,46.42,132.27,37.1,4.1,0,4.1,156.83,1.47,-1.9,-119.18,-12.54,-14.23,-0.9,-0.2,-0.14,4.66,4.11,0,0,0,0,1,1,12,37.1676483,-97.7361636,382,2020,10,10,19,32,55,0,0,0,0,1.4,0.8,1.2,0,0,0,0,0,0,0,25,0,36,30,0,0,0,35,0,0,38,0,42,30,0,42,31,0,0,23,0,0,0,0,33
6,2378,21,N0CALL,0.84,3,   boost,161.15,96201,435.54,47.64,133.88,37.1,4.1,0,4.1,156.83,1.68,-1.67,-122.41,-12.97,-13.8,-0.9,-0.19,-0.14,4.84,4.11,0,0,0,0,1,1,12,37.1676483,-97.7361636,382,2020,10,10,19,32,55,0,0,0,0,1.4,0.8,1.2,0,0,0,0,0,0,0,25,0,36,30,0,0,0,35,0,0,38,0,42,30,0,42,31,0,0,23,0,0,0,0,33
6,2378,21,N0CALL,0.85,3,   boost,161.15,96196,435.98,48.07,135.48,37.1,4.1,0,4.1,156.83,1.68,-2.06,-125.59,-13.03,-13.37,-0.9,-0.18,-0.13,5.02,4.11,0,0,0,0,1,1,12,37.1676483,-97.7361636,382,2020,10,10,19,32,55,0,0,0,0,1.4,0.8,1.2,0,0,0,0,0,0,0,25,0,36,30,0,0,0,35,0,0,38,0,42,30,0,42,31,0,0,23,0,0,0,0,33
6,2378,21,N0CALL,0.86,3,   boost,161.68,96197,435.89,47.99,137.09,37.1,4.1,0,4.1,156.83,1.85,-2.22,-128.7,-13.21,-12.95,-0.9,-0.18,-0.13,5.2,4.11,0,0,0,0,1,1,12,37.1676483,-97.7361636,382,2020,10,10,19,32,55,0,0,0,0,1.4,0.8,1.2,0,0,0,0,0,0,0,25,0,36,30,0,0,0,35,0,0,38,0,42,30,0,42,31,0,0,23,0,0,0,0,33
6,2378,21,N0CALL,0.87,3,   boost,161.68,96174,437.89,49.98,138.7,37.1,4.1,0,4.1,156.83,1.87,-2.07,-131.63,-13.33,-12.4,-0.9,-0.18,-0.14,5.38,4.11,0,0,0,0,1,1,12,37.1676483,-97.7361636,382,2020,10,10,19,32,55,0,0,0,0,1.4,0.8,1.2,0,0,0,0,0,0,0,25,0,36,30,0,0,0,35,0,0,38,0,42,30,0,42,31,0,0,23,0,0,0,0,33
6,2378,21,N0CALL,0.88,3,   boost,161.68,96171,438.15,50.24,140.31,37.1,4.1,0,4.1,156.83,1.58,-2.23,-134.8,-13.27,-12.03,-0.9,-0.18,-0.12,5.55,4.11,0,0,0,0,1,1,12,37.1676483,-97.7361636,382,2020,10,10,19,32,55,0,0,0,0,1.4,0.8,1.2,0,0,0,0,0,0,0,25,0,36,30,0,0,0,35,0,0,38,0,42,30,0,42,31,0,0,23,0,0,0,0,33
6,2378,21,N0CALL,0.89,3,   boost,161.68,96179,437.45,49.55,141.92,37.1,4.1,0,4.1,156.83,1.86,-2.07,-137.92,-12.97,-11.36,-0.9,-0.18,-0.11,5.72,4.11,0,0,0,0,1,1,12,37.1676483,-97.7361636,382,2020,10,10,19,32,55,0,0,0,0,1.4,0.8,1.2,0,0,0,0,0,0,0,25,0,36,30,0,0,0,35,0,0,38,0,42,30,0,42,31,0,0,23,0,0,0,0,33
6,2378,21,N0CALL,0.9,3,   boost,162.21,96151,439.88,51.98,143.53,37.1,4.1,0,4.1,156.83,1.82,-2.16,-141.09,-12.72,-10.75,-0.9,-0.19,-0.11,5.88,4.11,0,0,0,0,1,1,12,37.1676483,-97.7361636,382,2020,10,10,19,32,55,0,0,0,0,1.4,0.8,1.2,0,0,0,0,0,0,0,25,0,36,30,0,0,0,35,0,0,38,0,42,30,0,42,31,0,0,23,0,0,0,0,33
6,2378,21,N0CALL,0.91,3,   boost,162.21,96134,441.36,53.46,145.14,37.1,4.1,0,4.1,156.83,1.54,-2.3,-144.14,-12.17,-10.26,-0.9,-0.19,-0.11,6.04,4.11,0,0,0,0,1,1,12,37.1676483,-97.7361636,382,2020,10,10,19,32,55,0,0,0,0,1.4,0.8,1.2,0,0,0,0,0,0,0,25,0,36,30,0,0,0,35,0,0,38,0,42,30,0,42,31,0,0,23,0,0,0,0,33
6,2378,21,N0CALL,0.92,3,   boost,162.74,96133,441.45,53.54,146.76,37.1,4.1,0,4.1,156.83,1.58,-2.62,-147.13,-11.81,-9.59,-0.9,-0.18,-0.11,6.19,4.11,0,0,0,0,1,1,12,37.1676483,-97.7361636,382,2020,10,10,19,32,55,0,0,0,0,1.4,0.8,1.2,0,0,0,0,0,0,0,25,0,36,30,0,0,0,35,0,0,38,0,42,30,0,42,31,0,0,23,0,0,0,0,33
6,2378,21,N0CALL,0.93,3,   boost,163.27,96119,442.66,54.76,148.38,37.1,4.1,0,4.1,156.83,1.95,-2.93,-150.25,-11.2,-8.8,-0.9,-0.18,-0.1,6.33,4.11,0,0,0,0,1,1,12,37.1676483,-97.7361636,382,2020,10,10,19,32,55,0,0,0,0,1.4,0.8,1.2,0,0,0,0,0,0,0,25,0,36,30,0,0,0,35,0,0,38,0,42,30,0,42,31,0,0,23,0,0,0,0,33
6,2378,21,N0CALL,0.94,3,   boost,163.27,96108,443.62,55.71,150,37.1,4.1,0,4.1,156.83,1.72,-2.58,-153.42,-10.65,-8.06,-0.9,-0.18,-0.11,6.46,4.11,0,0,0,0,1,1,12,37.1676483,-97.7361636,382,2020,10,10,19,32,55,0,0,0,0,1.4,0.8,1.2,0,0,0,0,0,0,0,25,0,36,30,0,0,0,35,0,0,38,0,42,30,0,42,31,0,0,23,0,0,0,0,33
6,2378,21,N0CALL,0.95,3,   boost,163.27,96114,443.1,55.19,151.62,37.1,4.1,0,4.1,156.83,1.39,-2.63,-156.47,-9.85,-7.58,-0.9,-0.17,-0.1,6.58,4.11,0,0,0,0,1,1,12,37.1676483,-97.7361636,382,2020,10,10,19,32,55,0,0,0,0,1.4,0.8,1.2,0,0,0,0,0,0,0,25,0,36,30,0,0,0,35,0,0,38,0,42,30,0,42,31,0,0,23,0,0,0,0,33
6,2378,21,N0CALL,0.96,3,   boost,163.8,96088,445.36,57.45,153.24,37.1,4.1,0,4.1,156.83,1.87,-2.76,-159.4,-8.82,-6.78,-0.9,-0.17,-0.09,6.7,4.11,0,0,0,0,1,1,12,37.1676483,-97.7361636,382,2020,10,10,19,32,55,0,0,0,0,1.4,0.8,1.2,0,0,0,0,0,0,0,25,0,36,30,0,0,0,35,0,0,38,0,42,30,0,42,31,0,0,23,0,0,0,0,33
6,2378,21,N0CALL,0.97,3,   boost,163.8,96094,444.84,56.93,154.87,37.1,4.1,0,4.1,156.83,1.28,-2.82,-162.03,-7.96,-5.99,-0.9,-0.17,-0.08,6.8,4.11,0,0,0,0,1,1,12,37.1676483,-97.7361636,382,2020,10,10,19,32,55,0,0,0,0,1.4,0.8,1.2,0,0,0,0,0,0,0,25,0,36,30,0,0,0,35,0,0,38,0,42,30,0,42,31,0,0,23,0,0,0,0,33
6,2378,21,N0CALL,0.98,3,   boost,164.33,96084,445.7,57.8,156.5,37.1,4.11,0,4.1,156.83,1.26,-2.43,-164.16,-6.68,-5.5,-0.9,-0.17,-0.09,6.88,4.1,0,0,0.01,0,1,1,12,37.1676483,-97.7361636,382,2020,10,10,19,32,55,0,0,0,0,1.4,0.8,1.2,0,0,0,0,0,0,0,25,0,36,30,0,0,0,35,0,0,38,0,42,30,0,42,31,0,0,23,0,0,0,0,33
6,2378,21,N0CALL,0.98,3,   boost,164.33,96084,445.7,57.8,156.5,37.1,4.11,0,4.1,156.83,1.26,-2.43,-164.16,-6.68,-5.5,-0.9,-0.17,-0.09,6.88,4.1,0,0,0.01,0,1,1,12,37.1676483,-97.7361636,382,2020,10,10,19,32,55,0,0,0,0,1.4,0.8,1.2,0,0,0,0,0,0,0,25,0,36,30,0,0,0,35,0,0,38,0,42,30,0,42,31,0,0,23,0,0,0,0,33
6,2378,21,N0CALL,0.99,3,   boost,164.33,96088,445.36,57.45,158.13,37.1,4.11,0,4.1,156.83,1.88,-2.91,-165.69,-5.34,-4.52,-0.9,-0.17,-0.08,6.95,4.1,0,0,0.01,0,1,1,12,37.1676483,-97.7361636,382,2020,10,10,19,32,55,0,0,0,0,1.4,0.8,1.2,0,0,0,0,0,0,0,25,0,36,30,0,0,0,35,0,0,38,0,42,30,0,42,31,0,0,23,0,0,0,0,33
6,2378,21,N0CALL,1,3,   boost,165.39,96048,448.83,60.93,159.77,37.1,4.11,0,4.1,156.83,1.13,-2.2,-166.73,-4.06,-4.22,-0.9,-0.17,-0.08,7.01,4.1,0,0,0.01,0,1,1,12,37.1676483,-97.7361636,382,2020,10,10,19,32,55,0,0,0,0,1.4,0.8,1.2,0,0,0,0,0,0,0,25,0,36,30,0,0,0,35,0,0,38,0,42,30,0,42,31,0,0,23,0,0,0,0,33
6,2378,21,N0CALL,1,3,   boost,165.39,96048,448.83,60.93,159.77,37.1,4.11,0,4.1,156.83,1.13,-2.2,-166.73,-4.06,-4.22,-0.9,-0.17,-0.08,7.01,4.1,0,0,0.01,0,1,1,12,37.1676483,-97.7361636,382,2020,10,10,19,32,55,0,0,0,0,1.4,0.8,1.2,0,0,0,0,0,0,0,25,0,36,30,0,0,0,35,0,0,38,0,42,30,0,42,31,0,0,23,0,0,0,0,33
6,2378,21,N0CALL,1,3,   boost,165.39,96048,448.83,60.93,159.77,37.1,4.11,0,4.1,156.83,1.13,-2.2,-166.73,-4.06,-4.22,-0.9,-0.17,-0.08,7.01,4.1,0,0,0.01,0,1,1,12,37.1676483,-97.7361636,382,2020,10,10,19,32,55,0,0,0,0,1.4,0.8,1.2,0,0,0,0,0,0,0,25,0,36,30,0,0,0,35,0,0,38,0,42,30,0,42,31,0,0,23,0,0,0,0,33
6,2378,21,N0CALL,1.01,3,   boost,165.39,96074,446.57,58.67,161.4,37.1,4.11,0,4.1,156.83,1.45,-3.1,-167.88,-2.77,-3.73,-0.9,-0.17,-0.09,7.05,4.1,0,0,0.01,0,1,1,12,37.1677461,-97.7360855,412,2020,10,10,19,32,56,13,33,32,67,1.4,0.8,1.2,0,0,0,0,0,0,0,26,0,43,39,0,0,0,44,0,0,36,0,40,20,0,40,24,0,0,22,0,0,0,0,13
6,2378,21,N0CALL,1.02,3,   boost,165.39,96060,447.79,59.89,163.04,37.1,4.11,0,4.1,156.83,1.49,-3.08,-168.19,-1.13,-3.12,-0.9,-0.17,-0.07,7.08,4.1,0,0,0.01,0,1,1,12,37.1677461,-97.7360855,412,2020,10,10,19,32,56,13,33,32,67,1.4,0.8,1.2,0,0,0,0,0,0,0,26,0,43,39,0,0,0,44,0,0,36,0,40,20,0,40,24,0,0,22,0,0,0,0,13
6,2378,21,N0CALL,1.03,3,   boost,165.92,96047,448.92,61.02,164.69,37.1,4.11,0,4.1,156.83,0.78,-2.49,-167.34,-0.15,-3,-0.9,-0.16,-0.07,7.1,4.1,0,0,0.01,0,1,1,12,37.1677461,-97.7360855,412,2020,10,10,19,32,56,13,33,32,67,1.4,0.8,1.2,0,0,0,0,0,0,0,26,0,43,39,0,0,0,44,0,0,36,0,40,20,0,40,24,0,0,22,0,0,0,0,13
6,2378,21,N0CALL,1.04,3,   boost,165.92,96038,449.7,61.8,166.33,37.1,4.11,0,4.1,156.83,1.52,-3.59,-166.97,1.5,-2.45,-0.9,-0.17,-0.07,7.09,4.1,0,0,0.01,0,1,1,12,37.1677461,-97.7360855,412,2020,10,10,19,32,56,13,33,32,67,1.4,0.8,1.2,0,0,0,0,0,0,0,26,0,43,39,0,0,0,44,0,0,36,0,40,20,0,40,24,0,0,22,0,0,0,0,13
6,2378,21,N0CALL,1.05,3,   boost,166.45,96028,450.57,62.67,167.98,37.1,4.11,0,4.1,156.83,1.42,-2.81,-167.21,2.47,-2.14,-0.9,-0.17,-0.06,7.08,4.1,0,0,0.01,0,1,1,12,37.1677461,-97.7360855,412,2020,10,10,19,32,56,13,33,32,67,1.4,0.8,1.2,0,0,0,0,0,0,0,26,0,43,39,0,0,0,44,0,0,36,0,40,20,0,40,24,0,0,22,0,0,0,0,13
6,2378,21,N0CALL,1.06,3,   boost,166.98,96021,451.18,63.28,169.64,37.1,4.11,0,4.1,156.83,0.79,-3.33,-167.34,3.82,-2.33,-0.9,-0.16,-0.04,7.06,4.1,0,0,0.01,0,1,1,12,37.1677461,-97.7360855,412,2020,10,10,19,32,56,13,33,32,67,1.4,0.8,1.2,0,0,0,0,0,0,0,26,0,43,39,0,0,0,44,0,0,36,0,40,20,0,40,24,0,0,22,0,0,0,0,13
6,2378,21,N0CALL,1.07,3,   boost,166.98,96019,451.35,63.45,171.29,37.1,4.11,0,4.1,156.83,1.55,-3.13,-166.79,5.1,-2.02,-0.9,-0.16,-0.04,7.02,4.1,0,0,0.01,0,1,1,12,37.1677461,-97.7360855,412,2020,10,10,19,32,56,13,33,32,67,1.4,0.8,1.2,0,0,0,0,0,0,0,26,0,43,39,0,0,0,44,0,0,36,0,40,20,0,40,24,0,0,22,0,0,0,0,13
6,2378,21,N0CALL,1.08,3,   boost,166.98,96016,451.62,63.71,172.95,37.1,4.11,0,4.1,156.83,1.76,-3.15,-167.58,6.14,-2.26,-0.9,-0.16,-0.04,6.97,4.1,0,0,0.01,0,1,1,12,37.1677461,-97.7360855,412,2020,10,10,19,32,56,13,33,32,67,1.4,0.8,1.2,0,0,0,0,0,0,0,26,0,43,39,0,0,0,44,0,0,36,0,40,20,0,40,24,0,0,22,0,0,0,0,13
6,2378,21,N0CALL,1.09,3,   boost,167.51,95984,454.4,66.49,174.61,37.1,4.11,0,4.1,156.83,1.56,-3,-171.73,7.48,-3.36,-0.9,-0.16,-0.03,6.92,4.1,0,0,0.01,0,1,1,12,37.1677461,-97.7360855,412,2020,10,10,19,32,56,13,33,32,67,1.4,0.8,1.2,0,0,0,0,0,0,0,26,0,43,39,0,0,0,44,0,0,36,0,40,20,0,40,24,0,0,22,0,0,0,0,13
6,2378,21,N0CALL,1.1,3,   boost,167.51,95990,453.88,65.97,176.27,37.1,4.11,0,4.1,156.83,2.14,-3.13,-176.25,8.64,-3.73,-0.9,-0.16,-0.03,6.85,4.1,0,0,0.01,0,1,1,12,37.1677461,-97.7360855,412,2020,10,10,19,32,56,13,33,32,67,1.4,0.8,1.2,0,0,0,0,0,0,0,26,0,43,39,0,0,0,44,0,0,36,0,40,20,0,40,24,0,0,22,0,0,0,0,13
6,2378,21,N0CALL,1.11,3,   boost,167.51,95975,455.18,67.28,177.94,37.1,4.11,0,4.1,156.83,0.96,-3.15,-180.89,9.98,-4.77,-0.9,-0.16,-0.01,6.77,4.1,0,0,0.01,0,1,1,12,37.1677461,-97.7360855,412,2020,10,10,19,32,56,13,33,32,67,1.4,0.8,1.2,0,0,0,0,0,0,0,26,0,43,39,0,0,0,44,0,0,36,0,40,20,0,40,24,0,0,22,0,0,0,0,13
6,2378,21,N0CALL,1.12,3,   boost,168.57,95962,456.31,68.41,179.6,37.1,4.11,0,4.1,156.83,1.33,-2.05,-185.28,10.59,-5.68,-0.9,-0.17,-0.03,6.69,4.1,0,0,0.01,0,1,1,12,37.1677461,-97.7360855,412,2020,10,10,19,32,56,13,33,32,67,1.4,0.8,1.2,0,0,0,0,0,0,0,26,0,43,39,0,0,0,44,0,0,36,0,40,20,0,40,24,0,0,22,0,0,0,0,13
6,2378,21,N0CALL,1.13,3,   boost,168.57,95966,455.96,68.06,181.28,37.1,4.11,0,4.1,156.83,1.46,-3.66,-191.2,11.57,-6.29,-0.9,-0.17,-0.02,6.6,4.1,0,0,0.01,0,1,1,12,37.1677461,-97.7360855,412,2020,10,10,19,32,56,13,33,32,67,1.4,0.8,1.2,0,0,0,0,0,0,0,26,0,43,39,0,0,0,44,0,0,36,0,40,20,0,40,24,0,0,22,0,0,0,0,13
6,2378,21,N0CALL,1.14,3,   boost,169.1,95963,456.22,68.32,182.95,37.1,4.11,0,4.1,156.83,1.07,-2.62,-196.63,11.87,-7.33,-0.9,-0.17,0,6.51,4.1,0,0,0.01,0,1,1,12,37.1677461,-97.7360855,412,2020,10,10,19,32,56,13,33,32,67,1.4,0.8,1.2,0,0,0,0,0,0,0,26,0,43,39,0,0,0,44,0,0,36,0,40,20,0,40,24,0,0,22,0,0,0,0,13
6,2378,21,N0CALL,1.15,3,   boost,169.1,95944,457.88,69.97,184.63,37.1,4.11,0,4.1,156.83,1.47,-2.52,-201.46,11.81,-8,-0.9,-0.18,0,6.42,4.1,0,0,0.01,0,1,1,12,37.1677461,-97.7360855,412,2020,10,10,19,32,56,13,33,32,67,1.4,0.8,1.2,0,0,0,0,0,0,0,26,0,43,39,0,0,0,44,0,0,36,0,40,20,0,40,24,0,0,22,0,0,0,0,13
6,2378,21,N0CALL,1.16,3,   boost,169.63,95950,457.36,69.45,186.32,37.1,4.11,0,4.1,156.83,0.95,-3.25,-206.52,12,-9.16,-0.9,-0.18,0.02,6.33,4.1,0,0,0.01,0,1,1,12,37.1677461,-97.7360855,412,2020,10,10,19,32,56,13,33,32,67,1.4,0.8,1.2,0,0,0,0,0,0,0,26,0,43,39,0,0,0,44,0,0,36,0,40,20,0,40,24,0,0,22,0,0,0,0,13
6,2378,21,N0CALL,1.17,3,   boost,169.63,95934,458.75,70.84,188,37.1,4.11,0,4.1,156.83,1.43,-2.73,-211.83,11.69,-9.89,-0.9,-0.17,0.03,6.24,4.1,0,0,0.01,0,1,1,12,37.1677461,-97.7360855,412,2020,10,10,19,32,56,13,33,32,67,1.4,0.8,1.2,0,0,0,0,0,0,0,26,0,43,39,0,0,0,44,0,0,36,0,40,20,0,40,24,0,0,22,0,0,0,0,13
6,2378,21,N0CALL,1.18,3,   boost,170.16,95920,459.97,72.06,189.69,37.1,4.11,0,4.1,156.83,1.53,-3.51,-218,11.33,-10.81,-0.9,-0.18,0.04,6.15,4.1,0,0,0.01,0,1,1,12,37.1677461,-97.7360855,412,2020,10,10,19,32,56,13,33,32,67,1.4,0.8,1.2,0,0,0,0,0,0,0,26,0,43,39,0,0,0,44,0,0,36,0,40,20,0,40,24,0,0,22,0,0,0,0,13
6,2378,21,N0CALL,1.19,3,   boost,170.69,95915,460.4,72.5,191.38,37.1,4.11,0,4.1,156.83,1.13,-2.39,-223.98,10.65,-12.09,-0.9,-0.18,0.03,6.07,4.1,0,0,0.01,0,1,1,12,37.1677461,-97.7360855,412,2020,10,10,19,32,56,13,33,32,67,1.4,0.8,1.2,0,0,0,0,0,0,0,26,0,43,39,0,0,0,44,0,0,36,0,40,20,0,40,24,0,0,22,0,0,0,0,13
6,2378,21,N0CALL,1.2,3,   boost,170.69,95922,459.79,71.89,193.08,37.1,4.11,0,4.1,156.83,1.58,-2.6,-229.04,10.17,-12.82,-0.9,-0.19,0.04,6,4.1,0,0,0.01,0,1,1,12,37.1677461,-97.7360855,412,2020,10,10,19,32,56,13,33,32,67,1.4,0.8,1.2,0,0,0,0,0,0,0,26,0,43,39,0,0,0,44,0,0,36,0,40,20,0,40,24,0,0,22,0,0,0,0,13
6,2378,21,N0CALL,1.21,3,   boost,170.69,95895,462.14,74.24,194.78,37.1,4.11,0,4.1,156.83,1.29,-3.13,-234.23,9.68,-13.68,-0.9,-0.19,0.05,5.93,4.1,0,0,0.01,0,1,1,12,37.1677461,-97.7360855,412,2020,10,10,19,32,56,13,33,32,67,1.4,0.8,1.2,0,0,0,0,0,0,0,26,0,43,39,0,0,0,44,0,0,36,0,40,20,0,40,24,0,0,22,0,0,0,0,13
6,2378,21,N0CALL,1.22,3,   boost,171.22,95901,461.62,73.72,196.48,37.1,4.11,0,4.1,156.83,1.36,-1.81,-237.71,8.52,-14.53,-0.9,-0.2,0.06,5.87,4.1,0,0,0.01,0,1,1,12,37.1677461,-97.7360855,412,2020,10,10,19,32,56,13,33,32,67,1.4,0.8,1.2,0,0,0,0,0,0,0,26,0,43,39,0,0,0,44,0,0,36,0,40,20,0,40,24,0,0,22,0,0,0,0,13
6,2378,21,N0CALL,1.23,3,   boost,171.22,95888,462.75,74.85,198.18,37.1,4.11,0,4.1,156.83,1.69,-3.06,-240.52,8.15,-14.66,-0.89,-0.21,0.06,5.81,4.1,0,0,0.01,0,1,1,12,37.1677461,-97.7360855,412,2020,10,10,19,32,56,13,33,32,67,1.4,0.8,1.2,0,0,0,0,0,0,0,26,0,43,39,0,0,0,44,0,0,36,0,40,20,0,40,24,0,0,22,0,0,0,0,13
6,2378,21,N0CALL,1.24,3,   boost,171.22,95881,463.36,75.46,199.88,37.1,4.11,0,4.1,156.83,1.1,-1.77,-243.75,7.3,-15.27,-0.89,-0.22,0.07,5.75,4.1,0,0,0.01,0,1,1,12,37.1677461,-97.7360855,412,2020,10,10,19,32,56,13,33,32,67,1.4,0.8,1.2,0,0,0,0,0,0,0,26,0,43,39,0,0,0,44,0,0,36,0,40,20,0,40,24,0,0,22,0,0,0,0,13
6,2378,21,N0CALL,1.25,3,   boost,172.28,95861,465.1,77.2,201.59,37.1,4.11,0,4.1,156.83,1.22,-2.42,-247.36,6.08,-15.45,-0.9,-0.21,0.08,5.71,4.1,0,0,0.01,0,1,1,12,37.1677461,-97.7360855,412,2020,10,10,19,32,56,13,33,32,67,1.4,0.8,1.2,0,0,0,0,0,0,0,26,0,43,39,0,0,0,44,0,0,36,0,40,20,0,40,24,0,0,22,0,0,0,0,13
6,2378,21,N0CALL,1.26,3,   boost,172.28,95856,465.54,77.63,203.31,37.1,4.11,0,4.1,156.83,1.83,-3.25,-250.9,5.53,-15.33,-0.89,-0.23,0.09,5.67,4.1,0,0,0.01,0,1,1,12,37.1677461,-97.7360855,412,2020,10,10,19,32,56,13,33,32,67,1.4,0.8,1.2,0,0,0,0,0,0,0,26,0,43,39,0,0,0,44,0,0,36,0,40,20,0,40,24,0,0,22,0,0,0,0,13
6,2378,21,N0CALL,1.27,3,   boost,172.81,95832,467.63,79.72,205.02,37.1,4.11,0,4.1,156.83,1.86,-1.22,-253.58,4,-15.51,-0.89,-0.24,0.08,5.65,4.1,0,0,0.01,0,1,1,12,37.1677461,-97.7360855,412,2020,10,10,19,32,56,13,33,32,67,1.4,0.8,1.2,0,0,0,0,0,0,0,26,0,43,39,0,0,0,44,0,0,36,0,40,20,0,40,24,0,0,22,0,0,0,0,13
6,2378,21,N0CALL,1.28,3,   boost,173.34,95843,466.67,78.76,206.74,37.1,4.11,0,4.1,156.83,0.41,-2.5,-255.47,3.63,-15.2,-0.89,-0.24,0.1,5.62,4.1,0,0,0.01,0,1,1,12,37.1677461,-97.7360855,412,2020,10,10,19,32,56,13,33,32,67,1.4,0.8,1.2,0,0,0,0,0,0,0,26,0,43,39,0,0,0,44,0,0,36,0,40,20,0,40,24,0,0,22,0,0,0,0,13
6,2378,21,N0CALL,1.29,3,   boost,173.34,95842,466.76,78.85,208.47,37.1,4.11,0,4.1,156.83,1.42,-2.6,-257,2.41,-14.29,-0.89,-0.24,0.1,5.61,4.1,0,0,0.01,0,1,1,12,37.1677461,-97.7360855,412,2020,10,10,19,32,56,13,33,32,67,1.4,0.8,1.2,0,0,0,0,0,0,0,26,0,43,39,0,0,0,44,0,0,36,0,40,20,0,40,24,0,0,22,0,0,0,0,13
6,2378,21,N0CALL,1.3,3,   boost,173.87,95817,468.93,81.03,210.19,37.1,4.11,0,4.1,156.83,1.5,-1.52,-256.45,1.25,-13.31,-0.89,-0.25,0.11,5.6,4.19,0,0,0,0,1,1,12,37.1677461,-97.7360855,412,2020,10,10,19,32,56,13,33,32,67,1.4,0.8,1.2,0,0,0,0,0,0,0,26,0,43,39,0,0,0,44,0,0,36,0,40,20,0,40,24,0,0,22,0,0,0,0,13
6,2378,21,N0CALL,1.3,3,   boost,173.87,95817,468.93,81.03,210.19,37.1,4.11,0,4.1,156.83,1.5,-1.52,-256.45,1.25,-13.31,-0.89,-0.25,0.11,5.6,4.19,0,0,0,0,1,1,12,37.1677461,-97.7360855,412,2020,10,10,19,32,56,13,33,32,67,1.4,0.8,1.2,0,0,0,0,0,0,0,26,0,43,39,0,0,0,44,0,0,36,0,40,20,0,40,24,0,0,22,0,0,0,0,13
6,2378,21,N0CALL,1.31,3,   boost,173.87,95812,469.37,81.46,211.92,37.1,4.11,0,4.1,156.83,0.41,-3.9,-255.9,0.58,-12.89,-0.89,-0.26,0.11,5.6,4.19,0,0,0,0,1,1,12,37.1677461,-97.7360855,412,2020,10,10,19,32,56,13,33,32,67,1.4,0.8,1.2,0,0,0,0,0,0,0,26,0,43,39,0,0,0,44,0,0,36,0,40,20,0,40,24,0,0,22,0,0,0,0,13
6,2378,21,N0CALL,1.32,3,   boost,173.87,95805,469.98,82.07,213.66,37.1,4.11,0,4.1,156.83,1.69,-1.07,-254.07,-0.52,-11.24,-0.89,-0.27,0.11,5.6,4.19,0,0,0,0,1,1,12,37.1677461,-97.7360855,412,2020,10,10,19,32,56,13,33,32,67,1.4,0.8,1.2,0,0,0,0,0,0,0,26,0,43,39,0,0,0,44,0,0,36,0,40,20,0,40,24,0,0,22,0,0,0,0,13
6,2378,21,N0CALL,1.33,3,   boost,174.4,95795,470.85,82.94,215.39,37.1,4.11,0,4.1,156.83,1.15,-1.84,-253.09,-0.7,-10.63,-0.89,-0.28,0.11,5.6,4.19,0,0,0,0,1,1,12,37.1677461,-97.7360855,412,2020,10,10,19,32,56,13,33,32,67,1.4,0.8,1.2,0,0,0,0,0,0,0,26,0,43,39,0,0,0,44,0,0,36,0,40,20,0,40,24,0,0,22,0,0,0,0,13
6,2378,21,N0CALL,1.34,3,   boost,175.46,95795,470.85,82.94,217.13,37.1,4.11,0,4.1,156.83,1.42,-2.14,-250.83,-1.13,-9.59,-0.89,-0.29,0.11,5.61,4.19,0,0,0,0,1,1,12,37.1677461,-97.7360855,412,2020,10,10,19,32,56,13,33,32,67,1.4,0.8,1.2,0,0,0,0,0,0,0,26,0,43,39,0,0,0,44,0,0,36,0,40,20,0,40,24,0,0,22,0,0,0,0,13
6,2378,21,N0CALL,1.35,3,   boost,175.46,95777,472.42,84.51,218.88,37.1,4.11,0,4.1,156.83,0.92,-2.3,-244.18,-1.43,-8.19,-0.89,-0.3,0.11,5.61,4.19,0,0,0,0,1,1,12,37.1677461,-97.7360855,412,2020,10,10,19,32,56,13,33,32,67,1.4,0.8,1.2,0,0,0,0,0,0,0,26,0,43,39,0,0,0,44,0,0,36,0,40,20,0,40,24,0,0,22,0,0,0,0,13
6,2378,21,N0CALL,1.36,3,   boost,175.99,95777,472.42,84.51,220.62,37.1,4.11,0,4.1,156.83,1.2,-2.89,-239.66,-1.13,-7.21,-0.89,-0.3,0.11,5.62,4.19,0,0,0,0,1,1,12,37.1677461,-97.7360855,412,2020,10,10,19,32,56,13,33,32,67,1.4,0.8,1.2,0,0,0,0,0,0,0,26,0,43,39,0,0,0,44,0,0,36,0,40,20,0,40,24,0,0,22,0,0,0,0,13
6,2378,21,N0CALL,1.37,3,   boost,176.52,95772,472.85,84.95,222.38,37.1,4.11,0,4.1,156.83,1.92,-1.22,-235.33,-0.94,-5.62,-0.89,-0.32,0.11,5.62,4.19,0,0,0,0,1,1,12,37.1677461,-97.7360855,412,2020,10,10,19,32,56,13,33,32,67,1.4,0.8,1.2,0,0,0,0,0,0,0,26,0,43,39,0,0,0,44,0,0,36,0,40,20,0,40,24,0,0,22,0,0,0,0,13
6,2378,21,N0CALL,1.38,3,   boost,176.52,95755,474.33,86.43,224.13,37.1,4.11,0,4.1,156.83,1.04,-1.97,-233.32,-0.76,-4.77,-0.89,-0.32,0.12,5.62,4.19,0,0,0,0,1,1,12,37.1677461,-97.7360855,412,2020,10,10,19,32,56,13,33,32,67,1.4,0.8,1.2,0,0,0,0,0,0,0,26,0,43,39,0,0,0,44,0,0,36,0,40,20,0,40,24,0,0,22,0,0,0,0,13
6,2378,21,N0CALL,1.39,3,   boost,177.05,95738,475.82,87.91,225.89,37.1,4.11,0,4.1,156.83,1.99,-3.52,-228.92,0.28,-3.24,-0.89,-0.32,0.13,5.61,4.19,0,0,0,0,1,1,12,37.1677461,-97.7360855,412,2020,10,10,19,32,56,13,33,32,67,1.4,0.8,1.2,0,0,0,0,0,0,0,26,0,43,39,0,0,0,44,0,0,36,0,40,20,0,40,24,0,0,22,0,0,0,0,13
6,2378,21,N0CALL,1.4,3,   boost,178.11,95726,476.86,88.96,227.66,37.1,4.11,0,4.1,156.83,1.79,-1.63,-224.1,0.52,-2.02,-0.89,-0.34,0.12,5.6,4.19,0,0,0,0,1,1,12,37.1677461,-97.7360855,412,2020,10,10,19,32,56,13,33,32,67,1.4,0.8,1.2,0,0,0,0,0,0,0,26,0,43,39,0,0,0,44,0,0,36,0,40,20,0,40,24,0,0,22,0,0,0,0,13
6,2378,21,N0CALL,1.41,3,   boost,177.58,95712,478.08,90.18,229.43,37.1,4.11,0,4.1,156.83,0.85,-2.84,-222.94,1.19,-1.65,-0.89,-0.34,0.13,5.58,4.19,0,0,0,0,1,1,12,37.1677461,-97.7360855,412,2020,10,10,19,32,56,13,33,32,67,1.4,0.8,1.2,0,0,0,0,0,0,0,26,0,43,39,0,0,0,44,0,0,36,0,40,20,0,40,24,0,0,22,0,0,0,0,13
6,2378,21,N0CALL,1.42,3,   boost,178.64,95716,477.73,89.83,231.2,37.1,4.11,0,4.1,156.83,2.27,-1.94,-218.67,1.99,0.24,-0.89,-0.34,0.13,5.56,4.19,0,0,0,0,1,1,12,37.1677461,-97.7360855,412,2020,10,10,19,32,56,13,33,32,67,1.4,0.8,1.2,0,0,0,0,0,0,0,26,0,43,39,0,0,0,44,0,0,36,0,40,20,0,40,24,0,0,22,0,0,0,0,13
6,2378,21,N0CALL,1.43,3,   boost,178.64,95704,478.78,90.88,232.97,37.1,4.11,0,4.1,156.83,0.46,-2.13,-210.73,3.15,0.73,-0.89,-0.35,0.13,5.54,4.19,0,0,0,0,1,1,12,37.1677461,-97.7360855,412,2020,10,10,19,32,56,13,33,32,67,1.4,0.8,1.2,0,0,0,0,0,0,0,26,0,43,39,0,0,0,44,0,0,36,0,40,20,0,40,24,0,0,22,0,0,0,0,13
6,2378,21,N0CALL,1.44,3,   boost,178.64,95699,479.22,91.31,234.74,37.1,4.11,0,4.1,156.83,1.5,0.57,-202.68,4.25,1.58,-0.89,-0.36,0.14,5.5,4.19,0,0,0,0,1,1,12,37.1677461,-97.7360855,412,2020,10,10,19,32,56,13,33,32,67,1.4,0.8,1.2,0,0,0,0,0,0,0,26,0,43,39,0,0,0,44,0,0,36,0,40,20,0,40,24,0,0,22,0,0,0,0,13
6,2378,21,N0CALL,1.45,3,   boost,177.58,95700,479.13,91.22,236.52,37.1,4.11,0,4.1,156.83,3.07,-2.23,-196.57,6.87,3.47,-0.89,-0.37,0.12,5.46,4.19,0,0,0,0,1,1,12,37.1677461,-97.7360855,412,2020,10,10,19,32,56,13,33,32,67,1.4,0.8,1.2,0,0,0,0,0,0,0,26,0,43,39,0,0,0,44,0,0,36,0,40,20,0,40,24,0,0,22,0,0,0,0,13
6,2378,21,N0CALL,1.46,3,   boost,177.58,95678,481.05,93.14,238.29,37.1,4.11,0,4.1,156.83,0.14,-1.25,-194.92,7.24,2.86,-0.89,-0.38,0.13,5.41,4.19,0,0,0,0,1,1,12,37.1677461,-97.7360855,412,2020,10,10,19,32,56,13,33,32,67,1.4,0.8,1.2,0,0,0,0,0,0,0,26,0,43,39,0,0,0,44,0,0,36,0,40,20,0,40,24,0,0,22,0,0,0,0,13
6,2378,21,N0CALL,1.47,3,   boost,177.05,95674,481.4,93.49,240.05,37.1,4.11,0,4.1,156.83,1.81,-2.86,-194.44,9.8,3.29,-0.89,-0.37,0.14,5.34,4.19,0,0,0,0,1,1,12,37.1677461,-97.7360855,412,2020,10,10,19,32,56,13,33,32,67,1.4,0.8,1.2,0,0,0,0,0,0,0,26,0,43,39,0,0,0,44,0,0,36,0,40,20,0,40,24,0,0,22,0,0,0,0,13
6,2378,21,N0CALL,1.48,3,   boost,177.58,95666,482.09,94.19,241.82,37.1,4.11,0,4.1,156.83,2.75,-1.06,-193.46,11.33,4.51,-0.89,-0.39,0.12,5.27,4.19,0,0,0,0,1,1,12,37.1677461,-97.7360855,412,2020,10,10,19,32,56,13,33,32,67,1.4,0.8,1.2,0,0,0,0,0,0,0,26,0,43,39,0,0,0,44,0,0,36,0,40,20,0,40,24,0,0,22,0,0,0,0,13
6,2378,21,N0CALL,1.49,3,   boost,177.58,95653,483.23,95.32,243.59,37.1,4.11,0,4.1,156.83,-0.77,-0.25,-194.56,11.26,3.17,-0.89,-0.39,0.13,5.2,4.19,0,0,0,0,1,1,12,37.1677461,-97.7360855,412,2020,10,10,19,32,56,13,33,32,67,1.4,0.8,1.2,0,0,0,0,0,0,0,26,0,43,39,0,0,0,44,0,0,36,0,40,20,0,40,24,0,0,22,0,0,0,0,13
6,2378,21,N0CALL,1.5,3,   boost,178.11,95646,483.84,95.93,245.36,37.1,4.11,0,4.1,156.83,2.15,-4.02,-191.87,13.16,4.39,-0.89,-0.39,0.13,5.13,4.19,0,0,0,0,1,1,12,37.1677461,-97.7360855,412,2020,10,10,19,32,56,13,33,32,67,1.4,0.8,1.2,0,0,0,0,0,0,0,26,0,43,39,0,0,0,44,0,0,36,0,40,20,0,40,24,0,0,22,0,0,0,0,13
6,2378,21,N0CALL,1.51,3,   boost,178.11,95640,484.36,96.46,247.14,37.1,4.11,0,4.1,156.83,1.77,1.04,-194.07,13.89,4.14,-0.89,-0.4,0.13,5.06,4.19,0,0,0,0,1,1,12,37.1677461,-97.7360855,412,2020,10,10,19,32,56,13,33,32,67,1.4,0.8,1.2,0,0,0,0,0,0,0,26,0,43,39,0,0,0,44,0,0,36,0,40,20,0,40,24,0,0,22,0,0,0,0,13
6,2378,21,N0CALL,1.52,3,   boost,178.64,95628,485.41,97.5,248.91,37.1,4.11,0,4.1,156.83,0.13,0.51,-195.47,13.71,3.41,-0.89,-0.41,0.13,4.99,4.19,0,0,0,0,1,1,12,37.1677461,-97.7360855,412,2020,10,10,19,32,56,13,33,32,67,1.4,0.8,1.2,0,0,0,0,0,0,0,26,0,43,39,0,0,0,44,0,0,36,0,40,20,0,40,24,0,0,22,0,0,0,0,13
6,2378,21,N0CALL,1.53,3,   boost,179.17,95602,487.68,99.77,250.7,37.1,4.11,0,4.1,156.83,2.03,-1.2,-203.77,14.5,3.9,-0.89,-0.41,0.13,4.92,4.19,0,0,0,0,1,1,12,37.1677461,-97.7360855,412,2020,10,10,19,32,56,13,33,32,67,1.4,0.8,1.2,0,0,0,0,0,0,0,26,0,43,39,0,0,0,44,0,0,36,0,40,20,0,40,24,0,0,22,0,0,0,0,13
6,2378,21,N0CALL,1.54,3,   boost,179.17,95614,486.63,98.72,252.48,37.2,4.11,0,4.1,156.83,1.37,-0.34,-215.13,13.77,3.41,-0.89,-0.41,0.14,4.87,4.19,0,0,0,0,1,1,12,37.1677461,-97.7360855,412,2020,10,10,19,32,56,13,33,32,67,1.4,0.8,1.2,0,0,0,0,0,0,0,26,0,43,39,0,0,0,44,0,0,36,0,40,20,0,40,24,0,0,22,0,0,0,0,13
6,2378,21,N0CALL,1.55,3,   boost,179.17,95572,490.29,102.39,254.26,37.1,4.11,0,4.1,156.83,0.83,0.1,-234.54,12.67,2.5,-0.89,-0.42,0.13,4.82,4.19,0,0,0,0,1,1,12,37.1677461,-97.7360855,412,2020,10,10,19,32,56,13,33,32,67,1.4,0.8,1.2,0,0,0,0,0,0,0,26,0,43,39,0,0,0,44,0,0,36,0,40,20,0,40,24,0,0,22,0,0,0,0,13
6,2378,21,N0CALL,1.56,3,   boost,179.7,95562,491.17,103.26,256.05,37.1,4.11,0,4.1,156.83,1.36,-0.71,-240.64,12.73,2.62,-0.89,-0.44,0.12,4.78,4.19,0,0,0,0,1,1,12,37.1677461,-97.7360855,412,2020,10,10,19,32,56,13,33,32,67,1.4,0.8,1.2,0,0,0,0,0,0,0,26,0,43,39,0,0,0,44,0,0,36,0,40,20,0,40,24,0,0,22,0,0,0,0,13
6,2378,21,N0CALL,1.57,3,   boost,179.7,95544,492.74,104.83,257.84,37.1,4.11,0,4.1,156.83,0.9,0.52,-250.9,11.39,1.76,-0.89,-0.45,0.13,4.75,4.19,0,0,0,0,1,1,12,37.1677461,-97.7360855,412,2020,10,10,19,32,56,13,33,32,67,1.4,0.8,1.2,0,0,0,0,0,0,0,26,0,43,39,0,0,0,44,0,0,36,0,40,20,0,40,24,0,0,22,0,0,0,0,13
6,2378,21,N0CALL,1.58,3,   boost,180.23,95517,495.09,107.19,259.64,37.1,4.11,0,4.1,156.83,0.93,0.64,-263.41,10.35,1.09,-0.89,-0.44,0.12,4.72,4.19,0,0,0,0,1,1,12,37.1677461,-97.7360855,412,2020,10,10,19,32,56,13,33,32,67,1.4,0.8,1.2,0,0,0,0,0,0,0,26,0,43,39,0,0,0,44,0,0,36,0,40,20,0,40,24,0,0,22,0,0,0,0,13
